{"cities":[{"name":"Абдрахманова","state":"Chelyabinsk","territory":"","country":"Russia","latitude":55.8700383,"longitude":59.8332428,"population":7,"stateCapital":false,"nationalCapital":false,"pk":null,"quiz":"asia","code":null,"archived":false,"percentageOfSessions":null}, {"name":"Абдулка","state":"Chelyabinsk","territory":"","country":"Russia","latitude":55.0322946,"longitude":57.1867143,"population":12,"stateCapital":false,"nationalCapital":false,"pk":null,"quiz":"asia","code":null,"archived":false,"percentageOfSessions":null}, {"name":"Абдырова","state":"Chelyabinsk","territory":"","country":"Russia","latitude":55.38707,"longitude":61.077198,"population":245,"stateCapital":false,"nationalCapital":false,"pk":null,"quiz":"asia","code":null,"archived":false,"percentageOfSessions":null}, {"name":"Аблязово","state":"Chelyabinsk","territory":"","country":"Russia","latitude":53.2217155,"longitude":59.1792019,"population":399,"stateCapital":false,"nationalCapital":false,"pk":null,"quiz":"asia","code":null,"archived":false,"percentageOfSessions":null}, {"name":"Агаповка","state":"Chelyabinsk","territory":"","country":"Russia","latitude":53.296947,"longitude":59.134914,"population":6561,"stateCapital":false,"nationalCapital":false,"pk":null,"quiz":"asia","code":null,"archived":false,"percentageOfSessions":null}, {"name":"Аджитарово","state":"Chelyabinsk","territory":"","country":"Russia","latitude":54.992085,"longitude":60.788696,"population":100,"stateCapital":false,"nationalCapital":false,"pk":null,"quiz":"asia","code":null,"archived":false,"percentageOfSessions":null}, {"name":"Адищево","state":"Chelyabinsk","territory":"","country":"Russia","latitude":55.194043,"longitude":61.9558525,"population":8,"stateCapital":false,"nationalCapital":false,"pk":null,"quiz":"asia","code":null,"archived":false,"percentageOfSessions":null}, {"name":"Ай","state":"Chelyabinsk","territory":"","country":"Russia","latitude":55.206738,"longitude":59.531239,"population":10,"stateCapital":false,"nationalCapital":false,"pk":null,"quiz":"asia","code":null,"archived":false,"percentageOfSessions":null}, {"name":"Айбатова","state":"Chelyabinsk","territory":"","country":"Russia","latitude":55.2152609,"longitude":60.6582752,"population":254,"stateCapital":false,"nationalCapital":false,"pk":null,"quiz":"asia","code":null,"archived":false,"percentageOfSessions":null}, {"name":"Айлино","state":"Chelyabinsk","territory":"","country":"Russia","latitude":55.225895,"longitude":58.824482,"population":1441,"stateCapital":false,"nationalCapital":false,"pk":null,"quiz":"asia","code":null,"archived":false,"percentageOfSessions":null}, {"name":"Акбашева","state":"Chelyabinsk","territory":"","country":"Russia","latitude":55.294353,"longitude":60.837849,"population":1273,"stateCapital":false,"nationalCapital":false,"pk":null,"quiz":"asia","code":null,"archived":false,"percentageOfSessions":null}, {"name":"Акмулла","state":"Chelyabinsk","territory":"","country":"Russia","latitude":53.0362116,"longitude":60.1452374,"population":120,"stateCapital":false,"nationalCapital":false,"pk":null,"quiz":"asia","code":null,"archived":false,"percentageOfSessions":null}, {"name":"Акчакуль","state":"Chelyabinsk","territory":"","country":"Russia","latitude":56.1145977,"longitude":62.0888155,"population":62,"stateCapital":false,"nationalCapital":false,"pk":null,"quiz":"asia","code":null,"archived":false,"percentageOfSessions":null}, {"name":"Алабуга","state":"Chelyabinsk","territory":"","country":"Russia","latitude":55.532528,"longitude":62.349316,"population":846,"stateCapital":false,"nationalCapital":false,"pk":null,"quiz":"asia","code":null,"archived":false,"percentageOfSessions":null}, {"name":"Алакамыс","state":"Chelyabinsk","territory":"","country":"Russia","latitude":53.2133897,"longitude":61.6647951,"population":184,"stateCapital":false,"nationalCapital":false,"pk":null,"quiz":"asia","code":null,"archived":false,"percentageOfSessions":null}, {"name":"Александровка","state":"Chelyabinsk","territory":"","country":"Russia","latitude":53.1382795,"longitude":61.6955931,"population":450,"stateCapital":false,"nationalCapital":false,"pk":null,"quiz":"asia","code":null,"archived":false,"percentageOfSessions":null}, {"name":"Александровка","state":"Chelyabinsk","territory":"","country":"Russia","latitude":54.7705019,"longitude":61.5080682,"population":519,"stateCapital":false,"nationalCapital":false,"pk":null,"quiz":"asia","code":null,"archived":false,"percentageOfSessions":null}, {"name":"Александровка","state":"Chelyabinsk","territory":"","country":"Russia","latitude":54.5141499,"longitude":58.6053057,"population":22,"stateCapital":false,"nationalCapital":false,"pk":null,"quiz":"asia","code":null,"archived":false,"percentageOfSessions":null}, {"name":"Александровка","state":"Chelyabinsk","territory":"","country":"Russia","latitude":55.478668,"longitude":59.830757,"population":135,"stateCapital":false,"nationalCapital":false,"pk":null,"quiz":"asia","code":null,"archived":false,"percentageOfSessions":null}, {"name":"Александровка","state":"Chelyabinsk","territory":"","country":"Russia","latitude":54.4787332,"longitude":62.2299167,"population":285,"stateCapital":false,"nationalCapital":false,"pk":null,"quiz":"asia","code":null,"archived":false,"percentageOfSessions":null}, {"name":"Александровка","state":"Chelyabinsk","territory":"","country":"Russia","latitude":54.4787332,"longitude":62.2299167,"population":165,"stateCapital":false,"nationalCapital":false,"pk":null,"quiz":"asia","code":null,"archived":false,"percentageOfSessions":null}, {"name":"Александровский","state":"Chelyabinsk","territory":"","country":"Russia","latitude":54.1259657,"longitude":59.3235431,"population":269,"stateCapital":false,"nationalCapital":false,"pk":null,"quiz":"asia","code":null,"archived":false,"percentageOfSessions":null}, {"name":"Александровский","state":"Chelyabinsk","territory":"","country":"Russia","latitude":52.6544395,"longitude":59.5371551,"population":109,"stateCapital":false,"nationalCapital":false,"pk":null,"quiz":"asia","code":null,"archived":false,"percentageOfSessions":null}, {"name":"Александро-Невский","state":"Chelyabinsk","territory":"","country":"Russia","latitude":53.383034,"longitude":59.738499,"population":179,"stateCapital":false,"nationalCapital":false,"pk":null,"quiz":"asia","code":null,"archived":false,"percentageOfSessions":null}, {"name":"Алексеевка","state":"Chelyabinsk","territory":"","country":"Russia","latitude":53.551022,"longitude":61.461521,"population":1128,"stateCapital":false,"nationalCapital":false,"pk":null,"quiz":"asia","code":null,"archived":false,"percentageOfSessions":null}, {"name":"Алексеевка","state":"Chelyabinsk","territory":"","country":"Russia","latitude":55.1630041,"longitude":58.6721295,"population":84,"stateCapital":false,"nationalCapital":false,"pk":null,"quiz":"asia","code":null,"archived":false,"percentageOfSessions":null}, {"name":"Алексеевский","state":"Chelyabinsk","territory":"","country":"Russia","latitude":53.1333998,"longitude":59.7205843,"population":293,"stateCapital":false,"nationalCapital":false,"pk":null,"quiz":"asia","code":null,"archived":false,"percentageOfSessions":null}, {"name":"Алифкулова","state":"Chelyabinsk","territory":"","country":"Russia","latitude":55.9287814,"longitude":62.1139955,"population":100,"stateCapital":false,"nationalCapital":false,"pk":null,"quiz":"asia","code":null,"archived":false,"percentageOfSessions":null}, {"name":"Алишева","state":"Chelyabinsk","territory":"","country":"Russia","latitude":55.1285979,"longitude":60.8761687,"population":292,"stateCapital":false,"nationalCapital":false,"pk":null,"quiz":"asia","code":null,"archived":false,"percentageOfSessions":null}, {"name":"Аллаки","state":"Chelyabinsk","territory":"","country":"Russia","latitude":56.000778,"longitude":60.977505,"population":278,"stateCapital":false,"nationalCapital":false,"pk":null,"quiz":"asia","code":null,"archived":false,"percentageOfSessions":null}, {"name":"Алтынташ","state":"Chelyabinsk","territory":"","country":"Russia","latitude":54.710518,"longitude":59.924675,"population":485,"stateCapital":false,"nationalCapital":false,"pk":null,"quiz":"asia","code":null,"archived":false,"percentageOfSessions":null}, {"name":"Алтырка","state":"Chelyabinsk","territory":"","country":"Russia","latitude":53.3862984,"longitude":61.1474541,"population":283,"stateCapital":false,"nationalCapital":false,"pk":null,"quiz":"asia","code":null,"archived":false,"percentageOfSessions":null}, {"name":"Альмеева","state":"Chelyabinsk","territory":"","country":"Russia","latitude":55.2142436,"longitude":60.8650894,"population":220,"stateCapital":false,"nationalCapital":false,"pk":null,"quiz":"asia","code":null,"archived":false,"percentageOfSessions":null}, {"name":"Амамбайка","state":"Chelyabinsk","territory":"","country":"Russia","latitude":52.7972158,"longitude":59.5017623,"population":262,"stateCapital":false,"nationalCapital":false,"pk":null,"quiz":"asia","code":null,"archived":false,"percentageOfSessions":null}, {"name":"Аминева","state":"Chelyabinsk","territory":"","country":"Russia","latitude":55.7057996,"longitude":61.3974781,"population":473,"stateCapital":false,"nationalCapital":false,"pk":null,"quiz":"asia","code":null,"archived":false,"percentageOfSessions":null}, {"name":"Аминево","state":"Chelyabinsk","territory":"","country":"Russia","latitude":54.4022485,"longitude":62.4735067,"population":80,"stateCapital":false,"nationalCapital":false,"pk":null,"quiz":"asia","code":null,"archived":false,"percentageOfSessions":null}, {"name":"Аминево","state":"Chelyabinsk","territory":"","country":"Russia","latitude":54.2001415,"longitude":60.1242117,"population":830,"stateCapital":false,"nationalCapital":false,"pk":null,"quiz":"asia","code":null,"archived":false,"percentageOfSessions":null}, {"name":"Амурский","state":"Chelyabinsk","territory":"","country":"Russia","latitude":52.57526,"longitude":59.623299,"population":558,"stateCapital":false,"nationalCapital":false,"pk":null,"quiz":"asia","code":null,"archived":false,"percentageOfSessions":null}, {"name":"Анбашская","state":"Chelyabinsk","territory":"","country":"Russia","latitude":55.6427833,"longitude":60.5376687,"population":56,"stateCapital":false,"nationalCapital":false,"pk":null,"quiz":"asia","code":null,"archived":false,"percentageOfSessions":null}, {"name":"Андреевка","state":"Chelyabinsk","territory":"","country":"Russia","latitude":54.4848899,"longitude":61.8725369,"population":65,"stateCapital":false,"nationalCapital":false,"pk":null,"quiz":"asia","code":null,"archived":false,"percentageOfSessions":null}, {"name":"Андреевский","state":"Chelyabinsk","territory":"","country":"Russia","latitude":52.369473,"longitude":60.791283,"population":1440,"stateCapital":false,"nationalCapital":false,"pk":null,"quiz":"asia","code":null,"archived":false,"percentageOfSessions":null}, {"name":"Андреевский","state":"Chelyabinsk","territory":"","country":"Russia","latitude":54.228177,"longitude":60.7258504,"population":6,"stateCapital":false,"nationalCapital":false,"pk":null,"quiz":"asia","code":null,"archived":false,"percentageOfSessions":null}, {"name":"Анненское","state":"Chelyabinsk","territory":"","country":"Russia","latitude":53.120888,"longitude":60.383213,"population":2320,"stateCapital":false,"nationalCapital":false,"pk":null,"quiz":"asia","code":null,"archived":false,"percentageOfSessions":null}, {"name":"Анфалово","state":"Chelyabinsk","territory":"","country":"Russia","latitude":55.2262881,"longitude":62.0060356,"population":9,"stateCapital":false,"nationalCapital":false,"pk":null,"quiz":"asia","code":null,"archived":false,"percentageOfSessions":null}, {"name":"Аптрякова","state":"Chelyabinsk","territory":"","country":"Russia","latitude":55.706854,"longitude":59.7080613,"population":201,"stateCapital":false,"nationalCapital":false,"pk":null,"quiz":"asia","code":null,"archived":false,"percentageOfSessions":null}, {"name":"Аракаева","state":"Chelyabinsk","territory":"","country":"Russia","latitude":55.422413,"longitude":60.4241282,"population":23,"stateCapital":false,"nationalCapital":false,"pk":null,"quiz":"asia","code":null,"archived":false,"percentageOfSessions":null}, {"name":"Аракуль","state":"Chelyabinsk","territory":"","country":"Russia","latitude":56.0091028,"longitude":60.5317912,"population":73,"stateCapital":false,"nationalCapital":false,"pk":null,"quiz":"asia","code":null,"archived":false,"percentageOfSessions":null}, {"name":"Арасламбаевский","state":"Chelyabinsk","territory":"","country":"Russia","latitude":53.5443172,"longitude":59.6053408,"population":296,"stateCapital":false,"nationalCapital":false,"pk":null,"quiz":"asia","code":null,"archived":false,"percentageOfSessions":null}, {"name":"Арасланово","state":"Chelyabinsk","territory":"","country":"Russia","latitude":56.2161416,"longitude":59.3828392,"population":711,"stateCapital":false,"nationalCapital":false,"pk":null,"quiz":"asia","code":null,"archived":false,"percentageOfSessions":null}, {"name":"Арасланово","state":"Chelyabinsk","territory":"","country":"Russia","latitude":56.2161416,"longitude":59.3828392,"population":481,"stateCapital":false,"nationalCapital":false,"pk":null,"quiz":"asia","code":null,"archived":false,"percentageOfSessions":null}, {"name":"Аратское","state":"Chelyabinsk","territory":"","country":"Russia","latitude":54.888802,"longitude":57.891056,"population":164,"stateCapital":false,"nationalCapital":false,"pk":null,"quiz":"asia","code":null,"archived":false,"percentageOfSessions":null}, {"name":"Аргази","state":"Chelyabinsk","territory":"","country":"Russia","latitude":55.3576855,"longitude":60.4305537,"population":238,"stateCapital":false,"nationalCapital":false,"pk":null,"quiz":"asia","code":null,"archived":false,"percentageOfSessions":null}, {"name":"Аргаяш","state":"Chelyabinsk","territory":"","country":"Russia","latitude":55.4908093,"longitude":60.8776278,"population":10061,"stateCapital":false,"nationalCapital":false,"pk":null,"quiz":"asia","code":null,"archived":false,"percentageOfSessions":null}, {"name":"Аркаим","state":"Chelyabinsk","territory":"","country":"Russia","latitude":52.6438969,"longitude":59.5454905,"population":15,"stateCapital":false,"nationalCapital":false,"pk":null,"quiz":"asia","code":null,"archived":false,"percentageOfSessions":null}, {"name":"Арсинский","state":"Chelyabinsk","territory":"","country":"Russia","latitude":53.75338,"longitude":59.886997,"population":1068,"stateCapital":false,"nationalCapital":false,"pk":null,"quiz":"asia","code":null,"archived":false,"percentageOfSessions":null}, {"name":"Архангельское","state":"Chelyabinsk","territory":"","country":"Russia","latitude":54.901947,"longitude":59.750275,"population":21,"stateCapital":false,"nationalCapital":false,"pk":null,"quiz":"asia","code":null,"archived":false,"percentageOfSessions":null}, {"name":"Архангельское","state":"Chelyabinsk","territory":"","country":"Russia","latitude":54.930553,"longitude":60.991749,"population":904,"stateCapital":false,"nationalCapital":false,"pk":null,"quiz":"asia","code":null,"archived":false,"percentageOfSessions":null}, {"name":"Арчаглы-Аят","state":"Chelyabinsk","territory":"","country":"Russia","latitude":53.075748,"longitude":61.796284,"population":1231,"stateCapital":false,"nationalCapital":false,"pk":null,"quiz":"asia","code":null,"archived":false,"percentageOfSessions":null}, {"name":"Арчалы","state":"Chelyabinsk","territory":"","country":"Russia","latitude":53.1135771,"longitude":60.6902277,"population":24,"stateCapital":false,"nationalCapital":false,"pk":null,"quiz":"asia","code":null,"archived":false,"percentageOfSessions":null}, {"name":"Аршинка","state":"Chelyabinsk","territory":"","country":"Russia","latitude":55.5337821,"longitude":59.6648396,"population":51,"stateCapital":false,"nationalCapital":false,"pk":null,"quiz":"asia","code":null,"archived":false,"percentageOfSessions":null}, {"name":"Арыкова","state":"Chelyabinsk","territory":"","country":"Russia","latitude":55.8066064,"longitude":61.6541576,"population":14,"stateCapital":false,"nationalCapital":false,"pk":null,"quiz":"asia","code":null,"archived":false,"percentageOfSessions":null}, {"name":"Астафьевский","state":"Chelyabinsk","territory":"","country":"Russia","latitude":53.475201,"longitude":60.070267,"population":253,"stateCapital":false,"nationalCapital":false,"pk":null,"quiz":"asia","code":null,"archived":false,"percentageOfSessions":null}, {"name":"Атамановский","state":"Chelyabinsk","territory":"","country":"Russia","latitude":52.230167,"longitude":60.70734,"population":709,"stateCapital":false,"nationalCapital":false,"pk":null,"quiz":"asia","code":null,"archived":false,"percentageOfSessions":null}, {"name":"Аткуль","state":"Chelyabinsk","territory":"","country":"Russia","latitude":54.8839155,"longitude":61.8916726,"population":270,"stateCapital":false,"nationalCapital":false,"pk":null,"quiz":"asia","code":null,"archived":false,"percentageOfSessions":null}, {"name":"Ачликуль","state":"Chelyabinsk","territory":"","country":"Russia","latitude":55.5295325,"longitude":62.4282868,"population":519,"stateCapital":false,"nationalCapital":false,"pk":null,"quiz":"asia","code":null,"archived":false,"percentageOfSessions":null}, {"name":"Аша","state":"Chelyabinsk","territory":"","country":"Russia","latitude":54.9908896,"longitude":57.2780531,"population":31881,"stateCapital":false,"nationalCapital":false,"pk":null,"quiz":"asia","code":null,"archived":false,"percentageOfSessions":null}, {"name":"Аширово","state":"Chelyabinsk","territory":"","country":"Russia","latitude":55.9312937,"longitude":62.0991254,"population":243,"stateCapital":false,"nationalCapital":false,"pk":null,"quiz":"asia","code":null,"archived":false,"percentageOfSessions":null}, {"name":"Аязгулова","state":"Chelyabinsk","territory":"","country":"Russia","latitude":55.5259951,"longitude":60.8217966,"population":633,"stateCapital":false,"nationalCapital":false,"pk":null,"quiz":"asia","code":null,"archived":false,"percentageOfSessions":null}, {"name":"Бабарыкинский","state":"Chelyabinsk","territory":"","country":"Russia","latitude":53.5466976,"longitude":59.3047967,"population":453,"stateCapital":false,"nationalCapital":false,"pk":null,"quiz":"asia","code":null,"archived":false,"percentageOfSessions":null}, {"name":"Багаряк","state":"Chelyabinsk","territory":"","country":"Russia","latitude":56.203655,"longitude":61.502995,"population":1423,"stateCapital":false,"nationalCapital":false,"pk":null,"quiz":"asia","code":null,"archived":false,"percentageOfSessions":null}, {"name":"Бажикаева","state":"Chelyabinsk","territory":"","country":"Russia","latitude":55.4685468,"longitude":60.9162897,"population":1084,"stateCapital":false,"nationalCapital":false,"pk":null,"quiz":"asia","code":null,"archived":false,"percentageOfSessions":null}, {"name":"Базарский","state":"Chelyabinsk","territory":"","country":"Russia","latitude":53.0899174,"longitude":59.3432308,"population":236,"stateCapital":false,"nationalCapital":false,"pk":null,"quiz":"asia","code":null,"archived":false,"percentageOfSessions":null}, {"name":"Байгазина","state":"Chelyabinsk","territory":"","country":"Russia","latitude":55.1564058,"longitude":60.7912773,"population":539,"stateCapital":false,"nationalCapital":false,"pk":null,"quiz":"asia","code":null,"archived":false,"percentageOfSessions":null}, {"name":"Байдашево","state":"Chelyabinsk","territory":"","country":"Russia","latitude":55.440197,"longitude":60.290985,"population":21,"stateCapital":false,"nationalCapital":false,"pk":null,"quiz":"asia","code":null,"archived":false,"percentageOfSessions":null}, {"name":"Байрамгулово","state":"Chelyabinsk","territory":"","country":"Russia","latitude":55.3752336,"longitude":60.506886,"population":1373,"stateCapital":false,"nationalCapital":false,"pk":null,"quiz":"asia","code":null,"archived":false,"percentageOfSessions":null}, {"name":"Байтук","state":"Chelyabinsk","territory":"","country":"Russia","latitude":52.082253,"longitude":60.033314,"population":31,"stateCapital":false,"nationalCapital":false,"pk":null,"quiz":"asia","code":null,"archived":false,"percentageOfSessions":null}, {"name":"Бакал","state":"Chelyabinsk","territory":"","country":"Russia","latitude":54.936657,"longitude":58.810249,"population":20940,"stateCapital":false,"nationalCapital":false,"pk":null,"quiz":"asia","code":null,"archived":false,"percentageOfSessions":null}, {"name":"Бакшан","state":"Chelyabinsk","territory":"","country":"Russia","latitude":54.6262473,"longitude":62.2957239,"population":89,"stateCapital":false,"nationalCapital":false,"pk":null,"quiz":"asia","code":null,"archived":false,"percentageOfSessions":null}, {"name":"Баландино","state":"Chelyabinsk","territory":"","country":"Russia","latitude":53.7126183,"longitude":60.6560408,"population":103,"stateCapital":false,"nationalCapital":false,"pk":null,"quiz":"asia","code":null,"archived":false,"percentageOfSessions":null}, {"name":"Баландино","state":"Chelyabinsk","territory":"","country":"Russia","latitude":55.2983293,"longitude":61.5539334,"population":583,"stateCapital":false,"nationalCapital":false,"pk":null,"quiz":"asia","code":null,"archived":false,"percentageOfSessions":null}, {"name":"Балканы","state":"Chelyabinsk","territory":"","country":"Russia","latitude":53.436909,"longitude":59.601486,"population":507,"stateCapital":false,"nationalCapital":false,"pk":null,"quiz":"asia","code":null,"archived":false,"percentageOfSessions":null}, {"name":"Банниково","state":"Chelyabinsk","territory":"","country":"Russia","latitude":54.678194,"longitude":63.0810283,"population":65,"stateCapital":false,"nationalCapital":false,"pk":null,"quiz":"asia","code":null,"archived":false,"percentageOfSessions":null}, {"name":"Баракова","state":"Chelyabinsk","territory":"","country":"Russia","latitude":55.7562731,"longitude":61.814198,"population":263,"stateCapital":false,"nationalCapital":false,"pk":null,"quiz":"asia","code":null,"archived":false,"percentageOfSessions":null}, {"name":"Барановка","state":"Chelyabinsk","territory":"","country":"Russia","latitude":55.0103225,"longitude":60.51555,"population":301,"stateCapital":false,"nationalCapital":false,"pk":null,"quiz":"asia","code":null,"archived":false,"percentageOfSessions":null}, {"name":"Барсуки","state":"Chelyabinsk","territory":"","country":"Russia","latitude":54.8463213,"longitude":60.6380172,"population":224,"stateCapital":false,"nationalCapital":false,"pk":null,"quiz":"asia","code":null,"archived":false,"percentageOfSessions":null}, {"name":"Барсучье","state":"Chelyabinsk","territory":"","country":"Russia","latitude":54.4481715,"longitude":62.6394691,"population":375,"stateCapital":false,"nationalCapital":false,"pk":null,"quiz":"asia","code":null,"archived":false,"percentageOfSessions":null}, {"name":"Башакуль","state":"Chelyabinsk","territory":"","country":"Russia","latitude":55.6867972,"longitude":61.193358,"population":247,"stateCapital":false,"nationalCapital":false,"pk":null,"quiz":"asia","code":null,"archived":false,"percentageOfSessions":null}, {"name":"Башкирово","state":"Chelyabinsk","territory":"","country":"Russia","latitude":52.659217,"longitude":60.3981462,"population":0,"stateCapital":false,"nationalCapital":false,"pk":null,"quiz":"asia","code":null,"archived":false,"percentageOfSessions":null}, {"name":"Баязитова","state":"Chelyabinsk","territory":"","country":"Russia","latitude":55.900436,"longitude":61.9327981,"population":373,"stateCapital":false,"nationalCapital":false,"pk":null,"quiz":"asia","code":null,"archived":false,"percentageOfSessions":null}, {"name":"Бедярыш","state":"Chelyabinsk","territory":"","country":"Russia","latitude":54.6545413,"longitude":57.6973998,"population":39,"stateCapital":false,"nationalCapital":false,"pk":null,"quiz":"asia","code":null,"archived":false,"percentageOfSessions":null}, {"name":"Безводный","state":"Chelyabinsk","territory":"","country":"Russia","latitude":53.9273549,"longitude":60.6989737,"population":89,"stateCapital":false,"nationalCapital":false,"pk":null,"quiz":"asia","code":null,"archived":false,"percentageOfSessions":null}, {"name":"Бектыш","state":"Chelyabinsk","territory":"","country":"Russia","latitude":54.86227,"longitude":61.445,"population":865,"stateCapital":false,"nationalCapital":false,"pk":null,"quiz":"asia","code":null,"archived":false,"percentageOfSessions":null}, {"name":"Беликуль","state":"Chelyabinsk","territory":"","country":"Russia","latitude":55.7011602,"longitude":62.4392986,"population":170,"stateCapital":false,"nationalCapital":false,"pk":null,"quiz":"asia","code":null,"archived":false,"percentageOfSessions":null}, {"name":"Беловка","state":"Chelyabinsk","territory":"","country":"Russia","latitude":53.7568464,"longitude":60.5469358,"population":596,"stateCapital":false,"nationalCapital":false,"pk":null,"quiz":"asia","code":null,"archived":false,"percentageOfSessions":null}, {"name":"Белово","state":"Chelyabinsk","territory":"","country":"Russia","latitude":54.420654,"longitude":60.134724,"population":747,"stateCapital":false,"nationalCapital":false,"pk":null,"quiz":"asia","code":null,"archived":false,"percentageOfSessions":null}, {"name":"Белоглинка","state":"Chelyabinsk","territory":"","country":"Russia","latitude":53.0830574,"longitude":61.0562208,"population":209,"stateCapital":false,"nationalCapital":false,"pk":null,"quiz":"asia","code":null,"archived":false,"percentageOfSessions":null}, {"name":"Белое Озеро","state":"Chelyabinsk","territory":"","country":"Russia","latitude":55.6233444,"longitude":60.3750426,"population":11,"stateCapital":false,"nationalCapital":false,"pk":null,"quiz":"asia","code":null,"archived":false,"percentageOfSessions":null}, {"name":"Белозеры","state":"Chelyabinsk","territory":"","country":"Russia","latitude":54.2459646,"longitude":62.1742527,"population":771,"stateCapital":false,"nationalCapital":false,"pk":null,"quiz":"asia","code":null,"archived":false,"percentageOfSessions":null}, {"name":"Белокаменка","state":"Chelyabinsk","territory":"","country":"Russia","latitude":54.1896192,"longitude":61.0778489,"population":106,"stateCapital":false,"nationalCapital":false,"pk":null,"quiz":"asia","code":null,"archived":false,"percentageOfSessions":null}, {"name":"Белоключевка","state":"Chelyabinsk","territory":"","country":"Russia","latitude":54.0330056,"longitude":61.012028,"population":258,"stateCapital":false,"nationalCapital":false,"pk":null,"quiz":"asia","code":null,"archived":false,"percentageOfSessions":null}, {"name":"Белоносово","state":"Chelyabinsk","territory":"","country":"Russia","latitude":54.812355,"longitude":61.44413,"population":1220,"stateCapital":false,"nationalCapital":false,"pk":null,"quiz":"asia","code":null,"archived":false,"percentageOfSessions":null}, {"name":"Белоусово","state":"Chelyabinsk","territory":"","country":"Russia","latitude":54.7949181,"longitude":61.9498037,"population":490,"stateCapital":false,"nationalCapital":false,"pk":null,"quiz":"asia","code":null,"archived":false,"percentageOfSessions":null}, {"name":"Беляево","state":"Chelyabinsk","territory":"","country":"Russia","latitude":55.9033162,"longitude":59.2983846,"population":100,"stateCapital":false,"nationalCapital":false,"pk":null,"quiz":"asia","code":null,"archived":false,"percentageOfSessions":null}, {"name":"Бердяуш","state":"Chelyabinsk","territory":"","country":"Russia","latitude":55.1611091,"longitude":59.1429624,"population":5304,"stateCapital":false,"nationalCapital":false,"pk":null,"quiz":"asia","code":null,"archived":false,"percentageOfSessions":null}, {"name":"Берег","state":"Chelyabinsk","territory":"","country":"Russia","latitude":54.5622931,"longitude":60.2985718,"population":41,"stateCapital":false,"nationalCapital":false,"pk":null,"quiz":"asia","code":null,"archived":false,"percentageOfSessions":null}, {"name":"Береговой","state":"Chelyabinsk","territory":"","country":"Russia","latitude":55.990761,"longitude":61.280357,"population":1815,"stateCapital":false,"nationalCapital":false,"pk":null,"quiz":"asia","code":null,"archived":false,"percentageOfSessions":null}, {"name":"Береговой","state":"Chelyabinsk","territory":"","country":"Russia","latitude":55.3122228,"longitude":61.5657627,"population":337,"stateCapital":false,"nationalCapital":false,"pk":null,"quiz":"asia","code":null,"archived":false,"percentageOfSessions":null}, {"name":"Березинский","state":"Chelyabinsk","territory":"","country":"Russia","latitude":53.656456,"longitude":60.306934,"population":1120,"stateCapital":false,"nationalCapital":false,"pk":null,"quiz":"asia","code":null,"archived":false,"percentageOfSessions":null}, {"name":"Березки","state":"Chelyabinsk","territory":"","country":"Russia","latitude":52.9210235,"longitude":59.482749,"population":300,"stateCapital":false,"nationalCapital":false,"pk":null,"quiz":"asia","code":null,"archived":false,"percentageOfSessions":null}, {"name":"Березки","state":"Chelyabinsk","territory":"","country":"Russia","latitude":54.8973407,"longitude":60.8040076,"population":21,"stateCapital":false,"nationalCapital":false,"pk":null,"quiz":"asia","code":null,"archived":false,"percentageOfSessions":null}, {"name":"Березники","state":"Chelyabinsk","territory":"","country":"Russia","latitude":54.0924398,"longitude":61.7540408,"population":247,"stateCapital":false,"nationalCapital":false,"pk":null,"quiz":"asia","code":null,"archived":false,"percentageOfSessions":null}, {"name":"Березняки","state":"Chelyabinsk","territory":"","country":"Russia","latitude":54.8099341,"longitude":61.1854247,"population":162,"stateCapital":false,"nationalCapital":false,"pk":null,"quiz":"asia","code":null,"archived":false,"percentageOfSessions":null}, {"name":"Березовая Роща","state":"Chelyabinsk","territory":"","country":"Russia","latitude":53.5587293,"longitude":59.4924411,"population":206,"stateCapital":false,"nationalCapital":false,"pk":null,"quiz":"asia","code":null,"archived":false,"percentageOfSessions":null}, {"name":"Березовка","state":"Chelyabinsk","territory":"","country":"Russia","latitude":55.2523082,"longitude":60.6602123,"population":662,"stateCapital":false,"nationalCapital":false,"pk":null,"quiz":"asia","code":null,"archived":false,"percentageOfSessions":null}, {"name":"Березовка","state":"Chelyabinsk","territory":"","country":"Russia","latitude":52.5515094,"longitude":60.2563873,"population":163,"stateCapital":false,"nationalCapital":false,"pk":null,"quiz":"asia","code":null,"archived":false,"percentageOfSessions":null}, {"name":"Березовка","state":"Chelyabinsk","territory":"","country":"Russia","latitude":54.5291435,"longitude":61.1810602,"population":896,"stateCapital":false,"nationalCapital":false,"pk":null,"quiz":"asia","code":null,"archived":false,"percentageOfSessions":null}, {"name":"Березовка","state":"Chelyabinsk","territory":"","country":"Russia","latitude":54.2512165,"longitude":59.9060958,"population":174,"stateCapital":false,"nationalCapital":false,"pk":null,"quiz":"asia","code":null,"archived":false,"percentageOfSessions":null}, {"name":"Березово","state":"Chelyabinsk","territory":"","country":"Russia","latitude":55.1292961,"longitude":61.7936655,"population":282,"stateCapital":false,"nationalCapital":false,"pk":null,"quiz":"asia","code":null,"archived":false,"percentageOfSessions":null}, {"name":"Березовский","state":"Chelyabinsk","territory":"","country":"Russia","latitude":54.117435,"longitude":62.8216158,"population":511,"stateCapital":false,"nationalCapital":false,"pk":null,"quiz":"asia","code":null,"archived":false,"percentageOfSessions":null}, {"name":"Березовый Мост","state":"Chelyabinsk","territory":"","country":"Russia","latitude":55.064171,"longitude":59.159172,"population":89,"stateCapital":false,"nationalCapital":false,"pk":null,"quiz":"asia","code":null,"archived":false,"percentageOfSessions":null}, {"name":"Берлин","state":"Chelyabinsk","territory":"","country":"Russia","latitude":54.006485,"longitude":61.192986,"population":613,"stateCapital":false,"nationalCapital":false,"pk":null,"quiz":"asia","code":null,"archived":false,"percentageOfSessions":null}, {"name":"Берсеневка","state":"Chelyabinsk","territory":"","country":"Russia","latitude":55.0901228,"longitude":62.1599454,"population":180,"stateCapital":false,"nationalCapital":false,"pk":null,"quiz":"asia","code":null,"archived":false,"percentageOfSessions":null}, {"name":"Бехтерева","state":"Chelyabinsk","territory":"","country":"Russia","latitude":55.947166,"longitude":59.305775,"population":100,"stateCapital":false,"nationalCapital":false,"pk":null,"quiz":"asia","code":null,"archived":false,"percentageOfSessions":null}, {"name":"Бигарды","state":"Chelyabinsk","territory":"","country":"Russia","latitude":55.4414909,"longitude":60.9225912,"population":150,"stateCapital":false,"nationalCapital":false,"pk":null,"quiz":"asia","code":null,"archived":false,"percentageOfSessions":null}, {"name":"Бидинский","state":"Chelyabinsk","territory":"","country":"Russia","latitude":55.5213769,"longitude":60.6217082,"population":64,"stateCapital":false,"nationalCapital":false,"pk":null,"quiz":"asia","code":null,"archived":false,"percentageOfSessions":null}, {"name":"Бижеляк","state":"Chelyabinsk","territory":"","country":"Russia","latitude":55.5940747,"longitude":60.7267482,"population":214,"stateCapital":false,"nationalCapital":false,"pk":null,"quiz":"asia","code":null,"archived":false,"percentageOfSessions":null}, {"name":"Биккулова","state":"Chelyabinsk","territory":"","country":"Russia","latitude":55.281612,"longitude":60.476284,"population":258,"stateCapital":false,"nationalCapital":false,"pk":null,"quiz":"asia","code":null,"archived":false,"percentageOfSessions":null}, {"name":"Биргильда","state":"Chelyabinsk","territory":"","country":"Russia","latitude":55.0069958,"longitude":60.9682785,"population":272,"stateCapital":false,"nationalCapital":false,"pk":null,"quiz":"asia","code":null,"archived":false,"percentageOfSessions":null}, {"name":"Бирюковский","state":"Chelyabinsk","territory":"","country":"Russia","latitude":54.1398035,"longitude":60.2445994,"population":231,"stateCapital":false,"nationalCapital":false,"pk":null,"quiz":"asia","code":null,"archived":false,"percentageOfSessions":null}, {"name":"Бишкиль","state":"Chelyabinsk","territory":"","country":"Russia","latitude":54.982262,"longitude":60.756557,"population":1760,"stateCapital":false,"nationalCapital":false,"pk":null,"quiz":"asia","code":null,"archived":false,"percentageOfSessions":null}, {"name":"Биянка","state":"Chelyabinsk","territory":"","country":"Russia","latitude":55.1794144,"longitude":57.670745,"population":211,"stateCapital":false,"nationalCapital":false,"pk":null,"quiz":"asia","code":null,"archived":false,"percentageOfSessions":null}, {"name":"Ближний","state":"Chelyabinsk","territory":"","country":"Russia","latitude":53.3721012,"longitude":59.2732716,"population":154,"stateCapital":false,"nationalCapital":false,"pk":null,"quiz":"asia","code":null,"archived":false,"percentageOfSessions":null}, {"name":"Ближний Береговой","state":"Chelyabinsk","territory":"","country":"Russia","latitude":56.010853,"longitude":60.781853,"population":275,"stateCapital":false,"nationalCapital":false,"pk":null,"quiz":"asia","code":null,"archived":false,"percentageOfSessions":null}, {"name":"Бобровка","state":"Chelyabinsk","territory":"","country":"Russia","latitude":54.045044,"longitude":61.74131,"population":3411,"stateCapital":false,"nationalCapital":false,"pk":null,"quiz":"asia","code":null,"archived":false,"percentageOfSessions":null}, {"name":"Богдановское","state":"Chelyabinsk","territory":"","country":"Russia","latitude":52.421898,"longitude":59.063923,"population":1051,"stateCapital":false,"nationalCapital":false,"pk":null,"quiz":"asia","code":null,"archived":false,"percentageOfSessions":null}, {"name":"Бозово","state":"Chelyabinsk","territory":"","country":"Russia","latitude":55.74707,"longitude":59.590847,"population":48,"stateCapital":false,"nationalCapital":false,"pk":null,"quiz":"asia","code":null,"archived":false,"percentageOfSessions":null}, {"name":"Болотово","state":"Chelyabinsk","territory":"","country":"Russia","latitude":54.7327188,"longitude":60.2529264,"population":337,"stateCapital":false,"nationalCapital":false,"pk":null,"quiz":"asia","code":null,"archived":false,"percentageOfSessions":null}, {"name":"Большаково","state":"Chelyabinsk","territory":"","country":"Russia","latitude":54.6478423,"longitude":60.4271342,"population":320,"stateCapital":false,"nationalCapital":false,"pk":null,"quiz":"asia","code":null,"archived":false,"percentageOfSessions":null}, {"name":"Большая Запань","state":"Chelyabinsk","territory":"","country":"Russia","latitude":55.031231,"longitude":59.095955,"population":293,"stateCapital":false,"nationalCapital":false,"pk":null,"quiz":"asia","code":null,"archived":false,"percentageOfSessions":null}, {"name":"Большая Иркабаево","state":"Chelyabinsk","territory":"","country":"Russia","latitude":55.8606359,"longitude":61.4946559,"population":262,"stateCapital":false,"nationalCapital":false,"pk":null,"quiz":"asia","code":null,"archived":false,"percentageOfSessions":null}, {"name":"Большая Исянгильдина","state":"Chelyabinsk","territory":"","country":"Russia","latitude":55.1467728,"longitude":60.6724374,"population":202,"stateCapital":false,"nationalCapital":false,"pk":null,"quiz":"asia","code":null,"archived":false,"percentageOfSessions":null}, {"name":"Большая Казакбаева","state":"Chelyabinsk","territory":"","country":"Russia","latitude":55.919854,"longitude":61.583771,"population":403,"stateCapital":false,"nationalCapital":false,"pk":null,"quiz":"asia","code":null,"archived":false,"percentageOfSessions":null}, {"name":"Большая Куйсарина","state":"Chelyabinsk","territory":"","country":"Russia","latitude":55.1518397,"longitude":60.6020043,"population":502,"stateCapital":false,"nationalCapital":false,"pk":null,"quiz":"asia","code":null,"archived":false,"percentageOfSessions":null}, {"name":"Большая Тюлякова","state":"Chelyabinsk","territory":"","country":"Russia","latitude":55.871509,"longitude":61.5274262,"population":371,"stateCapital":false,"nationalCapital":false,"pk":null,"quiz":"asia","code":null,"archived":false,"percentageOfSessions":null}, {"name":"Большая Ультракова","state":"Chelyabinsk","territory":"","country":"Russia","latitude":55.4358885,"longitude":60.8355341,"population":57,"stateCapital":false,"nationalCapital":false,"pk":null,"quiz":"asia","code":null,"archived":false,"percentageOfSessions":null}, {"name":"Большая Усманова","state":"Chelyabinsk","territory":"","country":"Russia","latitude":55.2970276,"longitude":60.8025,"population":285,"stateCapital":false,"nationalCapital":false,"pk":null,"quiz":"asia","code":null,"archived":false,"percentageOfSessions":null}, {"name":"Большая Яумбаева","state":"Chelyabinsk","territory":"","country":"Russia","latitude":55.4469614,"longitude":60.5603764,"population":156,"stateCapital":false,"nationalCapital":false,"pk":null,"quiz":"asia","code":null,"archived":false,"percentageOfSessions":null}, {"name":"Большевик","state":"Chelyabinsk","territory":"","country":"Russia","latitude":53.4449096,"longitude":60.9121496,"population":363,"stateCapital":false,"nationalCapital":false,"pk":null,"quiz":"asia","code":null,"archived":false,"percentageOfSessions":null}, {"name":"Большеникольское","state":"Chelyabinsk","territory":"","country":"Russia","latitude":54.544987,"longitude":62.175987,"population":324,"stateCapital":false,"nationalCapital":false,"pk":null,"quiz":"asia","code":null,"archived":false,"percentageOfSessions":null}, {"name":"Большие Егусты","state":"Chelyabinsk","territory":"","country":"Russia","latitude":55.6325482,"longitude":60.223281,"population":79,"stateCapital":false,"nationalCapital":false,"pk":null,"quiz":"asia","code":null,"archived":false,"percentageOfSessions":null}, {"name":"Большие Харлуши","state":"Chelyabinsk","territory":"","country":"Russia","latitude":55.2209526,"longitude":60.9840028,"population":446,"stateCapital":false,"nationalCapital":false,"pk":null,"quiz":"asia","code":null,"archived":false,"percentageOfSessions":null}, {"name":"Большое Баландино","state":"Chelyabinsk","territory":"","country":"Russia","latitude":55.366585,"longitude":61.466362,"population":811,"stateCapital":false,"nationalCapital":false,"pk":null,"quiz":"asia","code":null,"archived":false,"percentageOfSessions":null}, {"name":"Большое Таскино","state":"Chelyabinsk","territory":"","country":"Russia","latitude":55.6367598,"longitude":61.3114698,"population":283,"stateCapital":false,"nationalCapital":false,"pk":null,"quiz":"asia","code":null,"archived":false,"percentageOfSessions":null}, {"name":"Большое Шумаково","state":"Chelyabinsk","territory":"","country":"Russia","latitude":54.484138,"longitude":61.886818,"population":454,"stateCapital":false,"nationalCapital":false,"pk":null,"quiz":"asia","code":null,"archived":false,"percentageOfSessions":null}, {"name":"Большой Бугодак","state":"Chelyabinsk","territory":"","country":"Russia","latitude":53.8619945,"longitude":59.0127333,"population":162,"stateCapital":false,"nationalCapital":false,"pk":null,"quiz":"asia","code":null,"archived":false,"percentageOfSessions":null}, {"name":"Большой Куяш","state":"Chelyabinsk","territory":"","country":"Russia","latitude":55.829185,"longitude":61.101288,"population":1046,"stateCapital":false,"nationalCapital":false,"pk":null,"quiz":"asia","code":null,"archived":false,"percentageOfSessions":null}, {"name":"Большой Медиак","state":"Chelyabinsk","territory":"","country":"Russia","latitude":55.2596872,"longitude":60.7564732,"population":14,"stateCapital":false,"nationalCapital":false,"pk":null,"quiz":"asia","code":null,"archived":false,"percentageOfSessions":null}, {"name":"Борисовка","state":"Chelyabinsk","territory":"","country":"Russia","latitude":54.7357489,"longitude":61.276966,"population":709,"stateCapital":false,"nationalCapital":false,"pk":null,"quiz":"asia","code":null,"archived":false,"percentageOfSessions":null}, {"name":"Борисовка","state":"Chelyabinsk","territory":"","country":"Russia","latitude":55.7104393,"longitude":61.8100142,"population":566,"stateCapital":false,"nationalCapital":false,"pk":null,"quiz":"asia","code":null,"archived":false,"percentageOfSessions":null}, {"name":"Борисовка","state":"Chelyabinsk","territory":"","country":"Russia","latitude":54.2674158,"longitude":60.674511,"population":1122,"stateCapital":false,"nationalCapital":false,"pk":null,"quiz":"asia","code":null,"archived":false,"percentageOfSessions":null}, {"name":"Боровое","state":"Chelyabinsk","territory":"","country":"Russia","latitude":52.663776,"longitude":60.430637,"population":1480,"stateCapital":false,"nationalCapital":false,"pk":null,"quiz":"asia","code":null,"archived":false,"percentageOfSessions":null}, {"name":"Боровое","state":"Chelyabinsk","territory":"","country":"Russia","latitude":55.4399935,"longitude":61.9918171,"population":237,"stateCapital":false,"nationalCapital":false,"pk":null,"quiz":"asia","code":null,"archived":false,"percentageOfSessions":null}, {"name":"Боровое","state":"Chelyabinsk","territory":"","country":"Russia","latitude":54.657005,"longitude":62.30608,"population":329,"stateCapital":false,"nationalCapital":false,"pk":null,"quiz":"asia","code":null,"archived":false,"percentageOfSessions":null}, {"name":"Боровое","state":"Chelyabinsk","territory":"","country":"Russia","latitude":54.9280773,"longitude":60.3260061,"population":747,"stateCapital":false,"nationalCapital":false,"pk":null,"quiz":"asia","code":null,"archived":false,"percentageOfSessions":null}, {"name":"Боровой","state":"Chelyabinsk","territory":"","country":"Russia","latitude":56.002956,"longitude":60.33469,"population":154,"stateCapital":false,"nationalCapital":false,"pk":null,"quiz":"asia","code":null,"archived":false,"percentageOfSessions":null}, {"name":"Бородиновка","state":"Chelyabinsk","territory":"","country":"Russia","latitude":53.5411484,"longitude":60.7621576,"population":1555,"stateCapital":false,"nationalCapital":false,"pk":null,"quiz":"asia","code":null,"archived":false,"percentageOfSessions":null}, {"name":"Браиловский","state":"Chelyabinsk","territory":"","country":"Russia","latitude":53.0213085,"longitude":59.3846877,"population":422,"stateCapital":false,"nationalCapital":false,"pk":null,"quiz":"asia","code":null,"archived":false,"percentageOfSessions":null}, {"name":"Бреды","state":"Chelyabinsk","territory":"","country":"Russia","latitude":52.4223974,"longitude":60.3372556,"population":9468,"stateCapital":false,"nationalCapital":false,"pk":null,"quiz":"asia","code":null,"archived":false,"percentageOfSessions":null}, {"name":"Бродокалмак","state":"Chelyabinsk","territory":"","country":"Russia","latitude":55.571175,"longitude":62.074883,"population":3046,"stateCapital":false,"nationalCapital":false,"pk":null,"quiz":"asia","code":null,"archived":false,"percentageOfSessions":null}, {"name":"Брусничный","state":"Chelyabinsk","territory":"","country":"Russia","latitude":54.886238,"longitude":58.786911,"population":0,"stateCapital":false,"nationalCapital":false,"pk":null,"quiz":"asia","code":null,"archived":false,"percentageOfSessions":null}, {"name":"Брюхово","state":"Chelyabinsk","territory":"","country":"Russia","latitude":54.304698,"longitude":60.0057543,"population":212,"stateCapital":false,"nationalCapital":false,"pk":null,"quiz":"asia","code":null,"archived":false,"percentageOfSessions":null}, {"name":"Бугристое","state":"Chelyabinsk","territory":"","country":"Russia","latitude":54.0066269,"longitude":61.6016207,"population":183,"stateCapital":false,"nationalCapital":false,"pk":null,"quiz":"asia","code":null,"archived":false,"percentageOfSessions":null}, {"name":"Буланово","state":"Chelyabinsk","territory":"","country":"Russia","latitude":54.4884739,"longitude":62.6410206,"population":83,"stateCapital":false,"nationalCapital":false,"pk":null,"quiz":"asia","code":null,"archived":false,"percentageOfSessions":null}, {"name":"Буланцы","state":"Chelyabinsk","territory":"","country":"Russia","latitude":55.3278378,"longitude":60.8250373,"population":227,"stateCapital":false,"nationalCapital":false,"pk":null,"quiz":"asia","code":null,"archived":false,"percentageOfSessions":null}, {"name":"Булатова","state":"Chelyabinsk","territory":"","country":"Russia","latitude":55.5812448,"longitude":60.9296308,"population":50,"stateCapital":false,"nationalCapital":false,"pk":null,"quiz":"asia","code":null,"archived":false,"percentageOfSessions":null}, {"name":"Булатово","state":"Chelyabinsk","territory":"","country":"Russia","latitude":54.5637087,"longitude":60.3926975,"population":553,"stateCapital":false,"nationalCapital":false,"pk":null,"quiz":"asia","code":null,"archived":false,"percentageOfSessions":null}, {"name":"Булзи","state":"Chelyabinsk","territory":"","country":"Russia","latitude":56.08308,"longitude":61.079884,"population":760,"stateCapital":false,"nationalCapital":false,"pk":null,"quiz":"asia","code":null,"archived":false,"percentageOfSessions":null}, {"name":"Буранная","state":"Chelyabinsk","territory":"","country":"Russia","latitude":53.3929112,"longitude":59.3109987,"population":922,"stateCapital":false,"nationalCapital":false,"pk":null,"quiz":"asia","code":null,"archived":false,"percentageOfSessions":null}, {"name":"Буранный","state":"Chelyabinsk","territory":"","country":"Russia","latitude":53.4007493,"longitude":59.3506037,"population":2980,"stateCapital":false,"nationalCapital":false,"pk":null,"quiz":"asia","code":null,"archived":false,"percentageOfSessions":null}, {"name":"Бурино","state":"Chelyabinsk","territory":"","country":"Russia","latitude":55.9322542,"longitude":61.8355199,"population":360,"stateCapital":false,"nationalCapital":false,"pk":null,"quiz":"asia","code":null,"archived":false,"percentageOfSessions":null}, {"name":"Бурлак","state":"Chelyabinsk","territory":"","country":"Russia","latitude":55.5135683,"longitude":60.3522428,"population":10,"stateCapital":false,"nationalCapital":false,"pk":null,"quiz":"asia","code":null,"archived":false,"percentageOfSessions":null}, {"name":"Бурханкуль","state":"Chelyabinsk","territory":"","country":"Russia","latitude":54.3528,"longitude":62.1502921,"population":214,"stateCapital":false,"nationalCapital":false,"pk":null,"quiz":"asia","code":null,"archived":false,"percentageOfSessions":null}, {"name":"Бускульский","state":"Chelyabinsk","territory":"","country":"Russia","latitude":53.796867,"longitude":61.157567,"population":367,"stateCapital":false,"nationalCapital":false,"pk":null,"quiz":"asia","code":null,"archived":false,"percentageOfSessions":null}, {"name":"Бутаки","state":"Chelyabinsk","territory":"","country":"Russia","latitude":55.043148,"longitude":61.180309,"population":1016,"stateCapital":false,"nationalCapital":false,"pk":null,"quiz":"asia","code":null,"archived":false,"percentageOfSessions":null}, {"name":"Бутырки","state":"Chelyabinsk","territory":"","country":"Russia","latitude":54.847633,"longitude":60.2048908,"population":339,"stateCapital":false,"nationalCapital":false,"pk":null,"quiz":"asia","code":null,"archived":false,"percentageOfSessions":null}, {"name":"Бухарино","state":"Chelyabinsk","territory":"","country":"Russia","latitude":55.2881997,"longitude":61.1322801,"population":96,"stateCapital":false,"nationalCapital":false,"pk":null,"quiz":"asia","code":null,"archived":false,"percentageOfSessions":null}, {"name":"Быково","state":"Chelyabinsk","territory":"","country":"Russia","latitude":54.2871389,"longitude":62.987496,"population":143,"stateCapital":false,"nationalCapital":false,"pk":null,"quiz":"asia","code":null,"archived":false,"percentageOfSessions":null}, {"name":"Вавиловец","state":"Chelyabinsk","territory":"","country":"Russia","latitude":55.1529892,"longitude":61.2358,"population":162,"stateCapital":false,"nationalCapital":false,"pk":null,"quiz":"asia","code":null,"archived":false,"percentageOfSessions":null}, {"name":"Ваганово","state":"Chelyabinsk","territory":"","country":"Russia","latitude":54.4983455,"longitude":62.3205224,"population":406,"stateCapital":false,"nationalCapital":false,"pk":null,"quiz":"asia","code":null,"archived":false,"percentageOfSessions":null}, {"name":"Вандышевка","state":"Chelyabinsk","territory":"","country":"Russia","latitude":54.3370886,"longitude":60.0942702,"population":776,"stateCapital":false,"nationalCapital":false,"pk":null,"quiz":"asia","code":null,"archived":false,"percentageOfSessions":null}, {"name":"Ванюши","state":"Chelyabinsk","territory":"","country":"Russia","latitude":55.2116329,"longitude":61.8803223,"population":81,"stateCapital":false,"nationalCapital":false,"pk":null,"quiz":"asia","code":null,"archived":false,"percentageOfSessions":null}, {"name":"Варваринка","state":"Chelyabinsk","territory":"","country":"Russia","latitude":53.923377,"longitude":62.5232202,"population":0,"stateCapital":false,"nationalCapital":false,"pk":null,"quiz":"asia","code":null,"archived":false,"percentageOfSessions":null}, {"name":"Варламово","state":"Chelyabinsk","territory":"","country":"Russia","latitude":54.6243836,"longitude":60.6726191,"population":2106,"stateCapital":false,"nationalCapital":false,"pk":null,"quiz":"asia","code":null,"archived":false,"percentageOfSessions":null}, {"name":"Варна","state":"Chelyabinsk","territory":"","country":"Russia","latitude":53.3778252,"longitude":60.9783588,"population":9869,"stateCapital":false,"nationalCapital":false,"pk":null,"quiz":"asia","code":null,"archived":false,"percentageOfSessions":null}, {"name":"Варшавка","state":"Chelyabinsk","territory":"","country":"Russia","latitude":52.846424,"longitude":60.33989,"population":1059,"stateCapital":false,"nationalCapital":false,"pk":null,"quiz":"asia","code":null,"archived":false,"percentageOfSessions":null}, {"name":"Великопетровка","state":"Chelyabinsk","territory":"","country":"Russia","latitude":53.2510224,"longitude":60.4886314,"population":1164,"stateCapital":false,"nationalCapital":false,"pk":null,"quiz":"asia","code":null,"archived":false,"percentageOfSessions":null}, {"name":"Вергаза","state":"Chelyabinsk","territory":"","country":"Russia","latitude":55.118309,"longitude":58.216431,"population":82,"stateCapital":false,"nationalCapital":false,"pk":null,"quiz":"asia","code":null,"archived":false,"percentageOfSessions":null}, {"name":"Верх-Катавка","state":"Chelyabinsk","territory":"","country":"Russia","latitude":54.618423,"longitude":58.283772,"population":273,"stateCapital":false,"nationalCapital":false,"pk":null,"quiz":"asia","code":null,"archived":false,"percentageOfSessions":null}, {"name":"Верхнекизильское","state":"Chelyabinsk","territory":"","country":"Russia","latitude":53.5395429,"longitude":59.0745848,"population":689,"stateCapital":false,"nationalCapital":false,"pk":null,"quiz":"asia","code":null,"archived":false,"percentageOfSessions":null}, {"name":"Верхнеуральск","state":"Chelyabinsk","territory":"","country":"Russia","latitude":53.8753392,"longitude":59.2197592,"population":9457,"stateCapital":false,"nationalCapital":false,"pk":null,"quiz":"asia","code":null,"archived":false,"percentageOfSessions":null}, {"name":"Верхнеусцелемово","state":"Chelyabinsk","territory":"","country":"Russia","latitude":54.4609055,"longitude":60.073959,"population":184,"stateCapital":false,"nationalCapital":false,"pk":null,"quiz":"asia","code":null,"archived":false,"percentageOfSessions":null}, {"name":"Верхние Караси","state":"Chelyabinsk","territory":"","country":"Russia","latitude":55.147895,"longitude":60.4236995,"population":245,"stateCapital":false,"nationalCapital":false,"pk":null,"quiz":"asia","code":null,"archived":false,"percentageOfSessions":null}, {"name":"Верхние Малюки","state":"Chelyabinsk","territory":"","country":"Russia","latitude":55.0111812,"longitude":60.9898495,"population":210,"stateCapital":false,"nationalCapital":false,"pk":null,"quiz":"asia","code":null,"archived":false,"percentageOfSessions":null}, {"name":"Верхний Айск","state":"Chelyabinsk","territory":"","country":"Russia","latitude":55.232697,"longitude":58.909836,"population":156,"stateCapital":false,"nationalCapital":false,"pk":null,"quiz":"asia","code":null,"archived":false,"percentageOfSessions":null}, {"name":"Верхний Атлян","state":"Chelyabinsk","territory":"","country":"Russia","latitude":55.009529,"longitude":59.898937,"population":244,"stateCapital":false,"nationalCapital":false,"pk":null,"quiz":"asia","code":null,"archived":false,"percentageOfSessions":null}, {"name":"Верхний Иремель","state":"Chelyabinsk","territory":"","country":"Russia","latitude":54.884323,"longitude":59.741608,"population":13,"stateCapital":false,"nationalCapital":false,"pk":null,"quiz":"asia","code":null,"archived":false,"percentageOfSessions":null}, {"name":"Верхний Уфалей","state":"Chelyabinsk","territory":"","country":"Russia","latitude":56.052029,"longitude":60.226448,"population":30481,"stateCapital":false,"nationalCapital":false,"pk":null,"quiz":"asia","code":null,"archived":false,"percentageOfSessions":null}, {"name":"Верхняя Кабанка","state":"Chelyabinsk","territory":"","country":"Russia","latitude":54.4373473,"longitude":60.9283388,"population":704,"stateCapital":false,"nationalCapital":false,"pk":null,"quiz":"asia","code":null,"archived":false,"percentageOfSessions":null}, {"name":"Верхняя Лука","state":"Chelyabinsk","territory":"","country":"Russia","latitude":55.116364,"longitude":58.150028,"population":18,"stateCapital":false,"nationalCapital":false,"pk":null,"quiz":"asia","code":null,"archived":false,"percentageOfSessions":null}, {"name":"Верхняя Санарка","state":"Chelyabinsk","territory":"","country":"Russia","latitude":54.2019553,"longitude":60.5603166,"population":830,"stateCapital":false,"nationalCapital":false,"pk":null,"quiz":"asia","code":null,"archived":false,"percentageOfSessions":null}, {"name":"Верхняя Сосновка","state":"Chelyabinsk","territory":"","country":"Russia","latitude":52.4891487,"longitude":58.7966987,"population":29,"stateCapital":false,"nationalCapital":false,"pk":null,"quiz":"asia","code":null,"archived":false,"percentageOfSessions":null}, {"name":"Веселовка","state":"Chelyabinsk","territory":"","country":"Russia","latitude":54.970245,"longitude":59.555447,"population":304,"stateCapital":false,"nationalCapital":false,"pk":null,"quiz":"asia","code":null,"archived":false,"percentageOfSessions":null}, {"name":"Виляй","state":"Chelyabinsk","territory":"","country":"Russia","latitude":54.8070679,"longitude":57.3083247,"population":0,"stateCapital":false,"nationalCapital":false,"pk":null,"quiz":"asia","code":null,"archived":false,"percentageOfSessions":null}, {"name":"Витаминный","state":"Chelyabinsk","territory":"","country":"Russia","latitude":54.9909877,"longitude":61.0306937,"population":335,"stateCapital":false,"nationalCapital":false,"pk":null,"quiz":"asia","code":null,"archived":false,"percentageOfSessions":null}, {"name":"Вишневка","state":"Chelyabinsk","territory":"","country":"Russia","latitude":54.245741,"longitude":60.0486683,"population":192,"stateCapital":false,"nationalCapital":false,"pk":null,"quiz":"asia","code":null,"archived":false,"percentageOfSessions":null}, {"name":"Вишневогорск","state":"Chelyabinsk","territory":"","country":"Russia","latitude":55.999279,"longitude":60.65815,"population":4569,"stateCapital":false,"nationalCapital":false,"pk":null,"quiz":"asia","code":null,"archived":false,"percentageOfSessions":null}, {"name":"Вишневый","state":"Chelyabinsk","territory":"","country":"Russia","latitude":52.9388318,"longitude":60.608839,"population":317,"stateCapital":false,"nationalCapital":false,"pk":null,"quiz":"asia","code":null,"archived":false,"percentageOfSessions":null}, {"name":"Владимировка","state":"Chelyabinsk","territory":"","country":"Russia","latitude":53.0481201,"longitude":61.4042468,"population":394,"stateCapital":false,"nationalCapital":false,"pk":null,"quiz":"asia","code":null,"archived":false,"percentageOfSessions":null}, {"name":"Водопойка","state":"Chelyabinsk","territory":"","country":"Russia","latitude":54.3904424,"longitude":61.2381993,"population":804,"stateCapital":false,"nationalCapital":false,"pk":null,"quiz":"asia","code":null,"archived":false,"percentageOfSessions":null}, {"name":"Воздвиженка","state":"Chelyabinsk","territory":"","country":"Russia","latitude":53.074492,"longitude":59.0147503,"population":268,"stateCapital":false,"nationalCapital":false,"pk":null,"quiz":"asia","code":null,"archived":false,"percentageOfSessions":null}, {"name":"Воздвиженка","state":"Chelyabinsk","territory":"","country":"Russia","latitude":56.124596,"longitude":60.775188,"population":381,"stateCapital":false,"nationalCapital":false,"pk":null,"quiz":"asia","code":null,"archived":false,"percentageOfSessions":null}, {"name":"Вознесенка","state":"Chelyabinsk","territory":"","country":"Russia","latitude":55.5373325,"longitude":59.6235496,"population":149,"stateCapital":false,"nationalCapital":false,"pk":null,"quiz":"asia","code":null,"archived":false,"percentageOfSessions":null}, {"name":"Вознесенка","state":"Chelyabinsk","territory":"","country":"Russia","latitude":54.989258,"longitude":61.362637,"population":1170,"stateCapital":false,"nationalCapital":false,"pk":null,"quiz":"asia","code":null,"archived":false,"percentageOfSessions":null}, {"name":"Волково","state":"Chelyabinsk","territory":"","country":"Russia","latitude":55.008545,"longitude":57.524517,"population":130,"stateCapital":false,"nationalCapital":false,"pk":null,"quiz":"asia","code":null,"archived":false,"percentageOfSessions":null}, {"name":"Волковский","state":"Chelyabinsk","territory":"","country":"Russia","latitude":53.9182453,"longitude":59.1261656,"population":302,"stateCapital":false,"nationalCapital":false,"pk":null,"quiz":"asia","code":null,"archived":false,"percentageOfSessions":null}, {"name":"Воробьевка","state":"Chelyabinsk","territory":"","country":"Russia","latitude":54.2087589,"longitude":61.1862407,"population":3,"stateCapital":false,"nationalCapital":false,"pk":null,"quiz":"asia","code":null,"archived":false,"percentageOfSessions":null}, {"name":"Воронино","state":"Chelyabinsk","territory":"","country":"Russia","latitude":54.3262865,"longitude":60.4659922,"population":167,"stateCapital":false,"nationalCapital":false,"pk":null,"quiz":"asia","code":null,"archived":false,"percentageOfSessions":null}, {"name":"Воронино","state":"Chelyabinsk","territory":"","country":"Russia","latitude":54.3693273,"longitude":59.8287314,"population":421,"stateCapital":false,"nationalCapital":false,"pk":null,"quiz":"asia","code":null,"archived":false,"percentageOfSessions":null}, {"name":"Воскресенское","state":"Chelyabinsk","territory":"","country":"Russia","latitude":56.067772,"longitude":60.834003,"population":287,"stateCapital":false,"nationalCapital":false,"pk":null,"quiz":"asia","code":null,"archived":false,"percentageOfSessions":null}, {"name":"Восточный","state":"Chelyabinsk","territory":"","country":"Russia","latitude":52.0949849,"longitude":60.1633931,"population":227,"stateCapital":false,"nationalCapital":false,"pk":null,"quiz":"asia","code":null,"archived":false,"percentageOfSessions":null}, {"name":"Восточный","state":"Chelyabinsk","territory":"","country":"Russia","latitude":54.5880063,"longitude":60.5287709,"population":291,"stateCapital":false,"nationalCapital":false,"pk":null,"quiz":"asia","code":null,"archived":false,"percentageOfSessions":null}, {"name":"Восход","state":"Chelyabinsk","territory":"","country":"Russia","latitude":52.379952,"longitude":60.5387671,"population":159,"stateCapital":false,"nationalCapital":false,"pk":null,"quiz":"asia","code":null,"archived":false,"percentageOfSessions":null}, {"name":"Вперед","state":"Chelyabinsk","territory":"","country":"Russia","latitude":53.2191244,"longitude":59.5242943,"population":503,"stateCapital":false,"nationalCapital":false,"pk":null,"quiz":"asia","code":null,"archived":false,"percentageOfSessions":null}, {"name":"Выдрино","state":"Chelyabinsk","territory":"","country":"Russia","latitude":54.4838997,"longitude":59.834496,"population":408,"stateCapital":false,"nationalCapital":false,"pk":null,"quiz":"asia","code":null,"archived":false,"percentageOfSessions":null}, {"name":"Высокий","state":"Chelyabinsk","territory":"","country":"Russia","latitude":55.0555721,"longitude":60.8860773,"population":207,"stateCapital":false,"nationalCapital":false,"pk":null,"quiz":"asia","code":null,"archived":false,"percentageOfSessions":null}, {"name":"Вязовая","state":"Chelyabinsk","territory":"","country":"Russia","latitude":54.9050218,"longitude":58.3494327,"population":1700,"stateCapital":false,"nationalCapital":false,"pk":null,"quiz":"asia","code":null,"archived":false,"percentageOfSessions":null}, {"name":"Вялково","state":"Chelyabinsk","territory":"","country":"Russia","latitude":54.4556677,"longitude":61.4579143,"population":64,"stateCapital":false,"nationalCapital":false,"pk":null,"quiz":"asia","code":null,"archived":false,"percentageOfSessions":null}, {"name":"Вятский","state":"Chelyabinsk","territory":"","country":"Russia","latitude":53.9015691,"longitude":58.9883168,"population":201,"stateCapital":false,"nationalCapital":false,"pk":null,"quiz":"asia","code":null,"archived":false,"percentageOfSessions":null}, {"name":"Гагарье","state":"Chelyabinsk","territory":"","country":"Russia","latitude":54.3321262,"longitude":61.4838658,"population":44,"stateCapital":false,"nationalCapital":false,"pk":null,"quiz":"asia","code":null,"archived":false,"percentageOfSessions":null}, {"name":"Гаево","state":"Chelyabinsk","territory":"","country":"Russia","latitude":56.3054481,"longitude":61.4634767,"population":22,"stateCapital":false,"nationalCapital":false,"pk":null,"quiz":"asia","code":null,"archived":false,"percentageOfSessions":null}, {"name":"Гирьял","state":"Chelyabinsk","territory":"","country":"Russia","latitude":53.2736888,"longitude":60.8855512,"population":30,"stateCapital":false,"nationalCapital":false,"pk":null,"quiz":"asia","code":null,"archived":false,"percentageOfSessions":null}, {"name":"Глазуновка","state":"Chelyabinsk","territory":"","country":"Russia","latitude":54.3259823,"longitude":59.9150002,"population":406,"stateCapital":false,"nationalCapital":false,"pk":null,"quiz":"asia","code":null,"archived":false,"percentageOfSessions":null}, {"name":"Глинка","state":"Chelyabinsk","territory":"","country":"Russia","latitude":54.9643462,"longitude":61.3606916,"population":28,"stateCapital":false,"nationalCapital":false,"pk":null,"quiz":"asia","code":null,"archived":false,"percentageOfSessions":null}, {"name":"Глухой Остров","state":"Chelyabinsk","territory":"","country":"Russia","latitude":55.3747101,"longitude":59.2663553,"population":19,"stateCapital":false,"nationalCapital":false,"pk":null,"quiz":"asia","code":null,"archived":false,"percentageOfSessions":null}, {"name":"Гогино","state":"Chelyabinsk","territory":"","country":"Russia","latitude":52.707684,"longitude":60.497341,"population":593,"stateCapital":false,"nationalCapital":false,"pk":null,"quiz":"asia","code":null,"archived":false,"percentageOfSessions":null}, {"name":"Голубинка","state":"Chelyabinsk","territory":"","country":"Russia","latitude":55.8333157,"longitude":61.1648379,"population":235,"stateCapital":false,"nationalCapital":false,"pk":null,"quiz":"asia","code":null,"archived":false,"percentageOfSessions":null}, {"name":"Горбуновский","state":"Chelyabinsk","territory":"","country":"Russia","latitude":53.9963677,"longitude":59.7514531,"population":272,"stateCapital":false,"nationalCapital":false,"pk":null,"quiz":"asia","code":null,"archived":false,"percentageOfSessions":null}, {"name":"Горелое","state":"Chelyabinsk","territory":"","country":"Russia","latitude":54.5000719,"longitude":63.0029513,"population":120,"stateCapital":false,"nationalCapital":false,"pk":null,"quiz":"asia","code":null,"archived":false,"percentageOfSessions":null}, {"name":"Горки","state":"Chelyabinsk","territory":"","country":"Russia","latitude":54.3473016,"longitude":60.0144711,"population":192,"stateCapital":false,"nationalCapital":false,"pk":null,"quiz":"asia","code":null,"archived":false,"percentageOfSessions":null}, {"name":"Горки","state":"Chelyabinsk","territory":"","country":"Russia","latitude":54.8259711,"longitude":60.2729157,"population":37,"stateCapital":false,"nationalCapital":false,"pk":null,"quiz":"asia","code":null,"archived":false,"percentageOfSessions":null}, {"name":"Горная","state":"Chelyabinsk","territory":"","country":"Russia","latitude":53.3405611,"longitude":60.4721406,"population":202,"stateCapital":false,"nationalCapital":false,"pk":null,"quiz":"asia","code":null,"archived":false,"percentageOfSessions":null}, {"name":"Горный","state":"Chelyabinsk","territory":"","country":"Russia","latitude":54.981995,"longitude":59.862743,"population":135,"stateCapital":false,"nationalCapital":false,"pk":null,"quiz":"asia","code":null,"archived":false,"percentageOfSessions":null}, {"name":"Горный","state":"Chelyabinsk","territory":"","country":"Russia","latitude":53.1271119,"longitude":59.1590082,"population":221,"stateCapital":false,"nationalCapital":false,"pk":null,"quiz":"asia","code":null,"archived":false,"percentageOfSessions":null}, {"name":"Горный","state":"Chelyabinsk","territory":"","country":"Russia","latitude":55.573231,"longitude":60.773338,"population":124,"stateCapital":false,"nationalCapital":false,"pk":null,"quiz":"asia","code":null,"archived":false,"percentageOfSessions":null}, {"name":"Городище","state":"Chelyabinsk","territory":"","country":"Russia","latitude":52.998932,"longitude":61.139069,"population":328,"stateCapital":false,"nationalCapital":false,"pk":null,"quiz":"asia","code":null,"archived":false,"percentageOfSessions":null}, {"name":"Горшенина","state":"Chelyabinsk","territory":"","country":"Russia","latitude":55.95298,"longitude":59.445694,"population":50,"stateCapital":false,"nationalCapital":false,"pk":null,"quiz":"asia","code":null,"archived":false,"percentageOfSessions":null}, {"name":"Гражданский","state":"Chelyabinsk","territory":"","country":"Russia","latitude":52.8333076,"longitude":60.8628845,"population":76,"stateCapital":false,"nationalCapital":false,"pk":null,"quiz":"asia","code":null,"archived":false,"percentageOfSessions":null}, {"name":"Гранитный","state":"Chelyabinsk","territory":"","country":"Russia","latitude":52.9757274,"longitude":58.9680296,"population":797,"stateCapital":false,"nationalCapital":false,"pk":null,"quiz":"asia","code":null,"archived":false,"percentageOfSessions":null}, {"name":"Грибановка","state":"Chelyabinsk","territory":"","country":"Russia","latitude":54.3615054,"longitude":60.1296242,"population":132,"stateCapital":false,"nationalCapital":false,"pk":null,"quiz":"asia","code":null,"archived":false,"percentageOfSessions":null}, {"name":"Гривенка","state":"Chelyabinsk","territory":"","country":"Russia","latitude":55.6246414,"longitude":59.6082492,"population":139,"stateCapital":false,"nationalCapital":false,"pk":null,"quiz":"asia","code":null,"archived":false,"percentageOfSessions":null}, {"name":"Григорьевка","state":"Chelyabinsk","territory":"","country":"Russia","latitude":56.159557,"longitude":60.934265,"population":243,"stateCapital":false,"nationalCapital":false,"pk":null,"quiz":"asia","code":null,"archived":false,"percentageOfSessions":null}, {"name":"Грознецкий","state":"Chelyabinsk","territory":"","country":"Russia","latitude":54.6439479,"longitude":61.5563757,"population":148,"stateCapital":false,"nationalCapital":false,"pk":null,"quiz":"asia","code":null,"archived":false,"percentageOfSessions":null}, {"name":"Грязнушинский","state":"Chelyabinsk","territory":"","country":"Russia","latitude":52.548634,"longitude":58.968357,"population":323,"stateCapital":false,"nationalCapital":false,"pk":null,"quiz":"asia","code":null,"archived":false,"percentageOfSessions":null}, {"name":"Губернское","state":"Chelyabinsk","territory":"","country":"Russia","latitude":55.4798002,"longitude":60.5980513,"population":751,"stateCapital":false,"nationalCapital":false,"pk":null,"quiz":"asia","code":null,"archived":false,"percentageOfSessions":null}, {"name":"Гумбейка","state":"Chelyabinsk","territory":"","country":"Russia","latitude":53.3289989,"longitude":59.4418888,"population":390,"stateCapital":false,"nationalCapital":false,"pk":null,"quiz":"asia","code":null,"archived":false,"percentageOfSessions":null}, {"name":"Гумбейский","state":"Chelyabinsk","territory":"","country":"Russia","latitude":53.274598,"longitude":59.2433642,"population":576,"stateCapital":false,"nationalCapital":false,"pk":null,"quiz":"asia","code":null,"archived":false,"percentageOfSessions":null}, {"name":"Гумбейский","state":"Chelyabinsk","territory":"","country":"Russia","latitude":53.569675,"longitude":59.743317,"population":632,"stateCapital":false,"nationalCapital":false,"pk":null,"quiz":"asia","code":null,"archived":false,"percentageOfSessions":null}, {"name":"Гусары","state":"Chelyabinsk","territory":"","country":"Russia","latitude":54.180416,"longitude":60.277454,"population":216,"stateCapital":false,"nationalCapital":false,"pk":null,"quiz":"asia","code":null,"archived":false,"percentageOfSessions":null}, {"name":"Давлетбаева","state":"Chelyabinsk","territory":"","country":"Russia","latitude":55.2048874,"longitude":60.7253776,"population":152,"stateCapital":false,"nationalCapital":false,"pk":null,"quiz":"asia","code":null,"archived":false,"percentageOfSessions":null}, {"name":"Даутово","state":"Chelyabinsk","territory":"","country":"Russia","latitude":56.182713,"longitude":60.520672,"population":107,"stateCapital":false,"nationalCapital":false,"pk":null,"quiz":"asia","code":null,"archived":false,"percentageOfSessions":null}, {"name":"Дачный","state":"Chelyabinsk","territory":"","country":"Russia","latitude":54.1681615,"longitude":60.9630335,"population":105,"stateCapital":false,"nationalCapital":false,"pk":null,"quiz":"asia","code":null,"archived":false,"percentageOfSessions":null}, {"name":"Движенец","state":"Chelyabinsk","territory":"","country":"Russia","latitude":55.4003208,"longitude":59.4594794,"population":42,"stateCapital":false,"nationalCapital":false,"pk":null,"quiz":"asia","code":null,"archived":false,"percentageOfSessions":null}, {"name":"Деево","state":"Chelyabinsk","territory":"","country":"Russia","latitude":55.900414,"longitude":59.410656,"population":54,"stateCapital":false,"nationalCapital":false,"pk":null,"quiz":"asia","code":null,"archived":false,"percentageOfSessions":null}, {"name":"Демарино","state":"Chelyabinsk","territory":"","country":"Russia","latitude":54.450729,"longitude":60.671551,"population":1049,"stateCapital":false,"nationalCapital":false,"pk":null,"quiz":"asia","code":null,"archived":false,"percentageOfSessions":null}, {"name":"Деньгино","state":"Chelyabinsk","territory":"","country":"Russia","latitude":54.2657587,"longitude":62.7139154,"population":134,"stateCapital":false,"nationalCapital":false,"pk":null,"quiz":"asia","code":null,"archived":false,"percentageOfSessions":null}, {"name":"Депутатский","state":"Chelyabinsk","territory":"","country":"Russia","latitude":54.8408485,"longitude":61.1269918,"population":322,"stateCapital":false,"nationalCapital":false,"pk":null,"quiz":"asia","code":null,"archived":false,"percentageOfSessions":null}, {"name":"Дербишева","state":"Chelyabinsk","territory":"","country":"Russia","latitude":55.4664313,"longitude":61.1147867,"population":1344,"stateCapital":false,"nationalCapital":false,"pk":null,"quiz":"asia","code":null,"archived":false,"percentageOfSessions":null}, {"name":"Десятилетие","state":"Chelyabinsk","territory":"","country":"Russia","latitude":54.90707,"longitude":60.303169,"population":321,"stateCapital":false,"nationalCapital":false,"pk":null,"quiz":"asia","code":null,"archived":false,"percentageOfSessions":null}, {"name":"Джабык","state":"Chelyabinsk","territory":"","country":"Russia","latitude":53.164833,"longitude":59.957188,"population":757,"stateCapital":false,"nationalCapital":false,"pk":null,"quiz":"asia","code":null,"archived":false,"percentageOfSessions":null}, {"name":"Дзержинка","state":"Chelyabinsk","territory":"","country":"Russia","latitude":53.8418441,"longitude":59.1743954,"population":443,"stateCapital":false,"nationalCapital":false,"pk":null,"quiz":"asia","code":null,"archived":false,"percentageOfSessions":null}, {"name":"Долговка","state":"Chelyabinsk","territory":"","country":"Russia","latitude":54.7901257,"longitude":60.9413989,"population":440,"stateCapital":false,"nationalCapital":false,"pk":null,"quiz":"asia","code":null,"archived":false,"percentageOfSessions":null}, {"name":"Долгодеревенское","state":"Chelyabinsk","territory":"","country":"Russia","latitude":55.3462664,"longitude":61.341587,"population":7700,"stateCapital":false,"nationalCapital":false,"pk":null,"quiz":"asia","code":null,"archived":false,"percentageOfSessions":null}, {"name":"Дробышево","state":"Chelyabinsk","territory":"","country":"Russia","latitude":54.204464,"longitude":61.666393,"population":524,"stateCapital":false,"nationalCapital":false,"pk":null,"quiz":"asia","code":null,"archived":false,"percentageOfSessions":null}, {"name":"Дружный","state":"Chelyabinsk","territory":"","country":"Russia","latitude":53.5558699,"longitude":60.9215881,"population":317,"stateCapital":false,"nationalCapital":false,"pk":null,"quiz":"asia","code":null,"archived":false,"percentageOfSessions":null}, {"name":"Дружный","state":"Chelyabinsk","territory":"","country":"Russia","latitude":55.825569,"longitude":61.347008,"population":969,"stateCapital":false,"nationalCapital":false,"pk":null,"quiz":"asia","code":null,"archived":false,"percentageOfSessions":null}, {"name":"Дружный","state":"Chelyabinsk","territory":"","country":"Russia","latitude":54.2985351,"longitude":61.3258142,"population":3,"stateCapital":false,"nationalCapital":false,"pk":null,"quiz":"asia","code":null,"archived":false,"percentageOfSessions":null}, {"name":"Дубровка","state":"Chelyabinsk","territory":"","country":"Russia","latitude":54.950066,"longitude":61.347088,"population":142,"stateCapital":false,"nationalCapital":false,"pk":null,"quiz":"asia","code":null,"archived":false,"percentageOfSessions":null}, {"name":"Дубровка","state":"Chelyabinsk","territory":"","country":"Russia","latitude":55.436127,"longitude":61.653206,"population":1430,"stateCapital":false,"nationalCapital":false,"pk":null,"quiz":"asia","code":null,"archived":false,"percentageOfSessions":null}, {"name":"Дубровка","state":"Chelyabinsk","territory":"","country":"Russia","latitude":54.2284309,"longitude":62.3118866,"population":72,"stateCapital":false,"nationalCapital":false,"pk":null,"quiz":"asia","code":null,"archived":false,"percentageOfSessions":null}, {"name":"Дубровка-Челябинская","state":"Chelyabinsk","territory":"","country":"Russia","latitude":54.9443138,"longitude":61.3189788,"population":810,"stateCapital":false,"nationalCapital":false,"pk":null,"quiz":"asia","code":null,"archived":false,"percentageOfSessions":null}, {"name":"Дуванкуль","state":"Chelyabinsk","territory":"","country":"Russia","latitude":54.5353778,"longitude":61.575249,"population":501,"stateCapital":false,"nationalCapital":false,"pk":null,"quiz":"asia","code":null,"archived":false,"percentageOfSessions":null}, {"name":"Единовер","state":"Chelyabinsk","territory":"","country":"Russia","latitude":55.191861,"longitude":59.0053619,"population":114,"stateCapital":false,"nationalCapital":false,"pk":null,"quiz":"asia","code":null,"archived":false,"percentageOfSessions":null}, {"name":"Екатериновка","state":"Chelyabinsk","territory":"","country":"Russia","latitude":54.7252467,"longitude":58.505635,"population":0,"stateCapital":false,"nationalCapital":false,"pk":null,"quiz":"asia","code":null,"archived":false,"percentageOfSessions":null}, {"name":"Еленинка","state":"Chelyabinsk","territory":"","country":"Russia","latitude":53.1178722,"longitude":59.8769813,"population":994,"stateCapital":false,"nationalCapital":false,"pk":null,"quiz":"asia","code":null,"archived":false,"percentageOfSessions":null}, {"name":"Елизаветопольское","state":"Chelyabinsk","territory":"","country":"Russia","latitude":52.8350927,"longitude":60.6097266,"population":531,"stateCapital":false,"nationalCapital":false,"pk":null,"quiz":"asia","code":null,"archived":false,"percentageOfSessions":null}, {"name":"Ельничный","state":"Chelyabinsk","territory":"","country":"Russia","latitude":54.953903,"longitude":58.879963,"population":157,"stateCapital":false,"nationalCapital":false,"pk":null,"quiz":"asia","code":null,"archived":false,"percentageOfSessions":null}, {"name":"Еманжелинка","state":"Chelyabinsk","territory":"","country":"Russia","latitude":54.7994404,"longitude":61.2927407,"population":4453,"stateCapital":false,"nationalCapital":false,"pk":null,"quiz":"asia","code":null,"archived":false,"percentageOfSessions":null}, {"name":"Еманжелинск","state":"Chelyabinsk","territory":"","country":"Russia","latitude":54.759121,"longitude":61.313198,"population":30216,"stateCapital":false,"nationalCapital":false,"pk":null,"quiz":"asia","code":null,"archived":false,"percentageOfSessions":null}, {"name":"Епанишниково","state":"Chelyabinsk","territory":"","country":"Russia","latitude":54.2364143,"longitude":62.2255965,"population":189,"stateCapital":false,"nationalCapital":false,"pk":null,"quiz":"asia","code":null,"archived":false,"percentageOfSessions":null}, {"name":"Ерал","state":"Chelyabinsk","territory":"","country":"Russia","latitude":55.0277772,"longitude":57.926594,"population":572,"stateCapital":false,"nationalCapital":false,"pk":null,"quiz":"asia","code":null,"archived":false,"percentageOfSessions":null}, {"name":"Ерал","state":"Chelyabinsk","territory":"","country":"Russia","latitude":55.0277772,"longitude":57.926594,"population":15,"stateCapital":false,"nationalCapital":false,"pk":null,"quiz":"asia","code":null,"archived":false,"percentageOfSessions":null}, {"name":"Ерлыгас","state":"Chelyabinsk","territory":"","country":"Russia","latitude":52.5814742,"longitude":59.2550653,"population":113,"stateCapital":false,"nationalCapital":false,"pk":null,"quiz":"asia","code":null,"archived":false,"percentageOfSessions":null}, {"name":"Ершовский","state":"Chelyabinsk","territory":"","country":"Russia","latitude":52.4870678,"longitude":59.1375695,"population":174,"stateCapital":false,"nationalCapital":false,"pk":null,"quiz":"asia","code":null,"archived":false,"percentageOfSessions":null}, {"name":"Есаульский","state":"Chelyabinsk","territory":"","country":"Russia","latitude":55.301537,"longitude":61.222759,"population":2619,"stateCapital":false,"nationalCapital":false,"pk":null,"quiz":"asia","code":null,"archived":false,"percentageOfSessions":null}, {"name":"Еткуль","state":"Chelyabinsk","territory":"","country":"Russia","latitude":54.828304,"longitude":61.592037,"population":6760,"stateCapital":false,"nationalCapital":false,"pk":null,"quiz":"asia","code":null,"archived":false,"percentageOfSessions":null}, {"name":"Жарки","state":"Chelyabinsk","territory":"","country":"Russia","latitude":55.0633905,"longitude":61.9184668,"population":3,"stateCapital":false,"nationalCapital":false,"pk":null,"quiz":"asia","code":null,"archived":false,"percentageOfSessions":null}, {"name":"Ждановский","state":"Chelyabinsk","territory":"","country":"Russia","latitude":52.6068545,"longitude":59.1915545,"population":215,"stateCapital":false,"nationalCapital":false,"pk":null,"quiz":"asia","code":null,"archived":false,"percentageOfSessions":null}, {"name":"Желтинский","state":"Chelyabinsk","territory":"","country":"Russia","latitude":53.562176,"longitude":59.220016,"population":1252,"stateCapital":false,"nationalCapital":false,"pk":null,"quiz":"asia","code":null,"archived":false,"percentageOfSessions":null}, {"name":"Жохово","state":"Chelyabinsk","territory":"","country":"Russia","latitude":54.4651943,"longitude":62.8489071,"population":65,"stateCapital":false,"nationalCapital":false,"pk":null,"quiz":"asia","code":null,"archived":false,"percentageOfSessions":null}, {"name":"Жукатау","state":"Chelyabinsk","territory":"","country":"Russia","latitude":55.1724068,"longitude":59.1908973,"population":480,"stateCapital":false,"nationalCapital":false,"pk":null,"quiz":"asia","code":null,"archived":false,"percentageOfSessions":null}, {"name":"Жуково","state":"Chelyabinsk","territory":"","country":"Russia","latitude":56.185204,"longitude":61.555733,"population":1,"stateCapital":false,"nationalCapital":false,"pk":null,"quiz":"asia","code":null,"archived":false,"percentageOfSessions":null}, {"name":"Жуковский","state":"Chelyabinsk","territory":"","country":"Russia","latitude":53.8911423,"longitude":59.0140707,"population":26,"stateCapital":false,"nationalCapital":false,"pk":null,"quiz":"asia","code":null,"archived":false,"percentageOfSessions":null}, {"name":"Журавлево","state":"Chelyabinsk","territory":"","country":"Russia","latitude":54.8539336,"longitude":61.6691665,"population":280,"stateCapital":false,"nationalCapital":false,"pk":null,"quiz":"asia","code":null,"archived":false,"percentageOfSessions":null}, {"name":"Журавлиное","state":"Chelyabinsk","territory":"","country":"Russia","latitude":54.5467217,"longitude":62.8393026,"population":224,"stateCapital":false,"nationalCapital":false,"pk":null,"quiz":"asia","code":null,"archived":false,"percentageOfSessions":null}, {"name":"Заварухино","state":"Chelyabinsk","territory":"","country":"Russia","latitude":55.2879766,"longitude":61.2092556,"population":157,"stateCapital":false,"nationalCapital":false,"pk":null,"quiz":"asia","code":null,"archived":false,"percentageOfSessions":null}, {"name":"Загребино","state":"Chelyabinsk","territory":"","country":"Russia","latitude":54.5420972,"longitude":63.0869264,"population":25,"stateCapital":false,"nationalCapital":false,"pk":null,"quiz":"asia","code":null,"archived":false,"percentageOfSessions":null}, {"name":"Замериново","state":"Chelyabinsk","territory":"","country":"Russia","latitude":54.6762354,"longitude":62.4224664,"population":31,"stateCapital":false,"nationalCapital":false,"pk":null,"quiz":"asia","code":null,"archived":false,"percentageOfSessions":null}, {"name":"Замотохина","state":"Chelyabinsk","territory":"","country":"Russia","latitude":54.4903102,"longitude":59.9535951,"population":266,"stateCapital":false,"nationalCapital":false,"pk":null,"quiz":"asia","code":null,"archived":false,"percentageOfSessions":null}, {"name":"Заозерный","state":"Chelyabinsk","territory":"","country":"Russia","latitude":55.0101346,"longitude":61.5524203,"population":363,"stateCapital":false,"nationalCapital":false,"pk":null,"quiz":"asia","code":null,"archived":false,"percentageOfSessions":null}, {"name":"Заозерный","state":"Chelyabinsk","territory":"","country":"Russia","latitude":52.5591801,"longitude":60.5382211,"population":272,"stateCapital":false,"nationalCapital":false,"pk":null,"quiz":"asia","code":null,"archived":false,"percentageOfSessions":null}, {"name":"Заозерный","state":"Chelyabinsk","territory":"","country":"Russia","latitude":54.5042208,"longitude":60.3568193,"population":274,"stateCapital":false,"nationalCapital":false,"pk":null,"quiz":"asia","code":null,"archived":false,"percentageOfSessions":null}, {"name":"Западный","state":"Chelyabinsk","territory":"","country":"Russia","latitude":55.1166534,"longitude":61.2652157,"population":197,"stateCapital":false,"nationalCapital":false,"pk":null,"quiz":"asia","code":null,"archived":false,"percentageOfSessions":null}, {"name":"Запасное","state":"Chelyabinsk","territory":"","country":"Russia","latitude":53.110775,"longitude":60.041981,"population":282,"stateCapital":false,"nationalCapital":false,"pk":null,"quiz":"asia","code":null,"archived":false,"percentageOfSessions":null}, {"name":"Запивалово","state":"Chelyabinsk","territory":"","country":"Russia","latitude":54.966553,"longitude":60.619267,"population":192,"stateCapital":false,"nationalCapital":false,"pk":null,"quiz":"asia","code":null,"archived":false,"percentageOfSessions":null}, {"name":"Заречный","state":"Chelyabinsk","territory":"","country":"Russia","latitude":53.3183533,"longitude":59.5020424,"population":43,"stateCapital":false,"nationalCapital":false,"pk":null,"quiz":"asia","code":null,"archived":false,"percentageOfSessions":null}, {"name":"Заречный","state":"Chelyabinsk","territory":"","country":"Russia","latitude":53.4028168,"longitude":59.7394339,"population":145,"stateCapital":false,"nationalCapital":false,"pk":null,"quiz":"asia","code":null,"archived":false,"percentageOfSessions":null}, {"name":"Заречье","state":"Chelyabinsk","territory":"","country":"Russia","latitude":53.4584352,"longitude":61.0850701,"population":189,"stateCapital":false,"nationalCapital":false,"pk":null,"quiz":"asia","code":null,"archived":false,"percentageOfSessions":null}, {"name":"Заря","state":"Chelyabinsk","territory":"","country":"Russia","latitude":53.0118183,"longitude":59.7491141,"population":83,"stateCapital":false,"nationalCapital":false,"pk":null,"quiz":"asia","code":null,"archived":false,"percentageOfSessions":null}, {"name":"Зауралово","state":"Chelyabinsk","territory":"","country":"Russia","latitude":54.6589854,"longitude":60.2052135,"population":221,"stateCapital":false,"nationalCapital":false,"pk":null,"quiz":"asia","code":null,"archived":false,"percentageOfSessions":null}, {"name":"Зауральский","state":"Chelyabinsk","territory":"","country":"Russia","latitude":54.787491,"longitude":61.236465,"population":7884,"stateCapital":false,"nationalCapital":false,"pk":null,"quiz":"asia","code":null,"archived":false,"percentageOfSessions":null}, {"name":"Звягино","state":"Chelyabinsk","territory":"","country":"Russia","latitude":54.7461767,"longitude":60.7499526,"population":697,"stateCapital":false,"nationalCapital":false,"pk":null,"quiz":"asia","code":null,"archived":false,"percentageOfSessions":null}, {"name":"Зеленая Долина","state":"Chelyabinsk","territory":"","country":"Russia","latitude":53.843067,"longitude":60.14344,"population":188,"stateCapital":false,"nationalCapital":false,"pk":null,"quiz":"asia","code":null,"archived":false,"percentageOfSessions":null}, {"name":"Зеленая Роща","state":"Chelyabinsk","territory":"","country":"Russia","latitude":54.939648,"longitude":59.714642,"population":0,"stateCapital":false,"nationalCapital":false,"pk":null,"quiz":"asia","code":null,"archived":false,"percentageOfSessions":null}, {"name":"Зеленый Лог","state":"Chelyabinsk","territory":"","country":"Russia","latitude":54.5023893,"longitude":60.9572637,"population":206,"stateCapital":false,"nationalCapital":false,"pk":null,"quiz":"asia","code":null,"archived":false,"percentageOfSessions":null}, {"name":"Зерновой","state":"Chelyabinsk","territory":"","country":"Russia","latitude":54.4520756,"longitude":60.3348831,"population":367,"stateCapital":false,"nationalCapital":false,"pk":null,"quiz":"asia","code":null,"archived":false,"percentageOfSessions":null}, {"name":"Зингейка","state":"Chelyabinsk","territory":"","country":"Russia","latitude":53.1081404,"longitude":59.2778066,"population":393,"stateCapital":false,"nationalCapital":false,"pk":null,"quiz":"asia","code":null,"archived":false,"percentageOfSessions":null}, {"name":"Зингейский","state":"Chelyabinsk","territory":"","country":"Russia","latitude":52.998825,"longitude":59.533886,"population":1222,"stateCapital":false,"nationalCapital":false,"pk":null,"quiz":"asia","code":null,"archived":false,"percentageOfSessions":null}, {"name":"Златоуст","state":"Chelyabinsk","territory":"","country":"Russia","latitude":55.1674213,"longitude":59.6792625,"population":174962,"stateCapital":false,"nationalCapital":false,"pk":null,"quiz":"asia","code":null,"archived":false,"percentageOfSessions":null}, {"name":"Злоказово","state":"Chelyabinsk","territory":"","country":"Russia","latitude":55.463516,"longitude":59.452179,"population":940,"stateCapital":false,"nationalCapital":false,"pk":null,"quiz":"asia","code":null,"archived":false,"percentageOfSessions":null}, {"name":"Знаменка","state":"Chelyabinsk","territory":"","country":"Russia","latitude":56.1147049,"longitude":60.8852406,"population":76,"stateCapital":false,"nationalCapital":false,"pk":null,"quiz":"asia","code":null,"archived":false,"percentageOfSessions":null}, {"name":"Знаменка","state":"Chelyabinsk","territory":"","country":"Russia","latitude":53.5327328,"longitude":59.9704797,"population":324,"stateCapital":false,"nationalCapital":false,"pk":null,"quiz":"asia","code":null,"archived":false,"percentageOfSessions":null}, {"name":"Знойное","state":"Chelyabinsk","territory":"","country":"Russia","latitude":52.9771243,"longitude":60.629666,"population":4,"stateCapital":false,"nationalCapital":false,"pk":null,"quiz":"asia","code":null,"archived":false,"percentageOfSessions":null}, {"name":"Золотой Пляж","state":"Chelyabinsk","territory":"","country":"Russia","latitude":55.181232,"longitude":60.087368,"population":60,"stateCapital":false,"nationalCapital":false,"pk":null,"quiz":"asia","code":null,"archived":false,"percentageOfSessions":null}, {"name":"Зотино","state":"Chelyabinsk","territory":"","country":"Russia","latitude":56.195,"longitude":61.665558,"population":47,"stateCapital":false,"nationalCapital":false,"pk":null,"quiz":"asia","code":null,"archived":false,"percentageOfSessions":null}, {"name":"Зуевка","state":"Chelyabinsk","territory":"","country":"Russia","latitude":54.6386383,"longitude":62.3465049,"population":73,"stateCapital":false,"nationalCapital":false,"pk":null,"quiz":"asia","code":null,"archived":false,"percentageOfSessions":null}, {"name":"Зырянкуль","state":"Chelyabinsk","territory":"","country":"Russia","latitude":55.991268,"longitude":61.351147,"population":6,"stateCapital":false,"nationalCapital":false,"pk":null,"quiz":"asia","code":null,"archived":false,"percentageOfSessions":null}, {"name":"Зюраткуль","state":"Chelyabinsk","territory":"","country":"Russia","latitude":54.9257912,"longitude":59.2307248,"population":86,"stateCapital":false,"nationalCapital":false,"pk":null,"quiz":"asia","code":null,"archived":false,"percentageOfSessions":null}, {"name":"Ибрагимова","state":"Chelyabinsk","territory":"","country":"Russia","latitude":55.7440616,"longitude":61.181942,"population":223,"stateCapital":false,"nationalCapital":false,"pk":null,"quiz":"asia","code":null,"archived":false,"percentageOfSessions":null}, {"name":"Иванково","state":"Chelyabinsk","territory":"","country":"Russia","latitude":54.2809754,"longitude":61.6260099,"population":13,"stateCapital":false,"nationalCapital":false,"pk":null,"quiz":"asia","code":null,"archived":false,"percentageOfSessions":null}, {"name":"Ивановский","state":"Chelyabinsk","territory":"","country":"Russia","latitude":53.6141538,"longitude":59.2210943,"population":205,"stateCapital":false,"nationalCapital":false,"pk":null,"quiz":"asia","code":null,"archived":false,"percentageOfSessions":null}, {"name":"Измайловский","state":"Chelyabinsk","territory":"","country":"Russia","latitude":52.6625111,"longitude":59.3088996,"population":1221,"stateCapital":false,"nationalCapital":false,"pk":null,"quiz":"asia","code":null,"archived":false,"percentageOfSessions":null}, {"name":"Иксанова","state":"Chelyabinsk","territory":"","country":"Russia","latitude":56.0693346,"longitude":62.0337586,"population":131,"stateCapital":false,"nationalCapital":false,"pk":null,"quiz":"asia","code":null,"archived":false,"percentageOfSessions":null}, {"name":"Илек","state":"Chelyabinsk","territory":"","country":"Russia","latitude":55.2301565,"longitude":57.9985764,"population":81,"stateCapital":false,"nationalCapital":false,"pk":null,"quiz":"asia","code":null,"archived":false,"percentageOfSessions":null}, {"name":"Илимбетова","state":"Chelyabinsk","territory":"","country":"Russia","latitude":55.4634359,"longitude":61.2348494,"population":420,"stateCapital":false,"nationalCapital":false,"pk":null,"quiz":"asia","code":null,"archived":false,"percentageOfSessions":null}, {"name":"Ильинка","state":"Chelyabinsk","territory":"","country":"Russia","latitude":52.842995,"longitude":58.894791,"population":164,"stateCapital":false,"nationalCapital":false,"pk":null,"quiz":"asia","code":null,"archived":false,"percentageOfSessions":null}, {"name":"Ильино","state":"Chelyabinsk","territory":"","country":"Russia","latitude":55.2765534,"longitude":61.7774557,"population":32,"stateCapital":false,"nationalCapital":false,"pk":null,"quiz":"asia","code":null,"archived":false,"percentageOfSessions":null}, {"name":"Искра","state":"Chelyabinsk","territory":"","country":"Russia","latitude":53.9691988,"longitude":60.8258255,"population":107,"stateCapital":false,"nationalCapital":false,"pk":null,"quiz":"asia","code":null,"archived":false,"percentageOfSessions":null}, {"name":"Иструть","state":"Chelyabinsk","territory":"","country":"Russia","latitude":55.243439,"longitude":58.965141,"population":14,"stateCapital":false,"nationalCapital":false,"pk":null,"quiz":"asia","code":null,"archived":false,"percentageOfSessions":null}, {"name":"Иткуль","state":"Chelyabinsk","territory":"","country":"Russia","latitude":56.171913,"longitude":60.558781,"population":122,"stateCapital":false,"nationalCapital":false,"pk":null,"quiz":"asia","code":null,"archived":false,"percentageOfSessions":null}, {"name":"Иткуль","state":"Chelyabinsk","territory":"","country":"Russia","latitude":56.171913,"longitude":60.558781,"population":27,"stateCapital":false,"nationalCapital":false,"pk":null,"quiz":"asia","code":null,"archived":false,"percentageOfSessions":null}, {"name":"Ишалино","state":"Chelyabinsk","territory":"","country":"Russia","latitude":55.414855,"longitude":61.0025707,"population":636,"stateCapital":false,"nationalCapital":false,"pk":null,"quiz":"asia","code":null,"archived":false,"percentageOfSessions":null}, {"name":"Ишалино","state":"Chelyabinsk","territory":"","country":"Russia","latitude":55.414855,"longitude":61.0025707,"population":2089,"stateCapital":false,"nationalCapital":false,"pk":null,"quiz":"asia","code":null,"archived":false,"percentageOfSessions":null}, {"name":"Кабанка","state":"Chelyabinsk","territory":"","country":"Russia","latitude":54.4709754,"longitude":61.0520894,"population":183,"stateCapital":false,"nationalCapital":false,"pk":null,"quiz":"asia","code":null,"archived":false,"percentageOfSessions":null}, {"name":"Кабанское","state":"Chelyabinsk","territory":"","country":"Russia","latitude":56.142033,"longitude":61.744881,"population":33,"stateCapital":false,"nationalCapital":false,"pk":null,"quiz":"asia","code":null,"archived":false,"percentageOfSessions":null}, {"name":"Кадкуль","state":"Chelyabinsk","territory":"","country":"Russia","latitude":55.5600775,"longitude":62.2496052,"population":22,"stateCapital":false,"nationalCapital":false,"pk":null,"quiz":"asia","code":null,"archived":false,"percentageOfSessions":null}, {"name":"Кадымцево","state":"Chelyabinsk","territory":"","country":"Russia","latitude":54.2913064,"longitude":61.4997284,"population":558,"stateCapital":false,"nationalCapital":false,"pk":null,"quiz":"asia","code":null,"archived":false,"percentageOfSessions":null}, {"name":"Казановка","state":"Chelyabinsk","territory":"","country":"Russia","latitude":53.505802,"longitude":61.229328,"population":528,"stateCapital":false,"nationalCapital":false,"pk":null,"quiz":"asia","code":null,"archived":false,"percentageOfSessions":null}, {"name":"Казанцево","state":"Chelyabinsk","territory":"","country":"Russia","latitude":55.274132,"longitude":61.352165,"population":666,"stateCapital":false,"nationalCapital":false,"pk":null,"quiz":"asia","code":null,"archived":false,"percentageOfSessions":null}, {"name":"Казанцевский","state":"Chelyabinsk","territory":"","country":"Russia","latitude":53.6775049,"longitude":58.9891985,"population":190,"stateCapital":false,"nationalCapital":false,"pk":null,"quiz":"asia","code":null,"archived":false,"percentageOfSessions":null}, {"name":"Казбаево","state":"Chelyabinsk","territory":"","country":"Russia","latitude":54.858303,"longitude":60.7964647,"population":358,"stateCapital":false,"nationalCapital":false,"pk":null,"quiz":"asia","code":null,"archived":false,"percentageOfSessions":null}, {"name":"Казырова","state":"Chelyabinsk","territory":"","country":"Russia","latitude":55.2061848,"longitude":60.5920509,"population":140,"stateCapital":false,"nationalCapital":false,"pk":null,"quiz":"asia","code":null,"archived":false,"percentageOfSessions":null}, {"name":"Кайгородово","state":"Chelyabinsk","territory":"","country":"Russia","latitude":55.129509,"longitude":61.066067,"population":287,"stateCapital":false,"nationalCapital":false,"pk":null,"quiz":"asia","code":null,"archived":false,"percentageOfSessions":null}, {"name":"Каинкуль","state":"Chelyabinsk","territory":"","country":"Russia","latitude":55.7300931,"longitude":61.3115907,"population":253,"stateCapital":false,"nationalCapital":false,"pk":null,"quiz":"asia","code":null,"archived":false,"percentageOfSessions":null}, {"name":"Калачево","state":"Chelyabinsk","territory":"","country":"Russia","latitude":54.9377371,"longitude":61.5343808,"population":1452,"stateCapital":false,"nationalCapital":false,"pk":null,"quiz":"asia","code":null,"archived":false,"percentageOfSessions":null}, {"name":"Калининский","state":"Chelyabinsk","territory":"","country":"Russia","latitude":52.511967,"longitude":59.688744,"population":1267,"stateCapital":false,"nationalCapital":false,"pk":null,"quiz":"asia","code":null,"archived":false,"percentageOfSessions":null}, {"name":"Калининский","state":"Chelyabinsk","territory":"","country":"Russia","latitude":53.6836607,"longitude":59.9445639,"population":184,"stateCapital":false,"nationalCapital":false,"pk":null,"quiz":"asia","code":null,"archived":false,"percentageOfSessions":null},