{"cities":[{"name":"Абаевский","state":"Tyumen","territory":"","country":"Russia","latitude":57.5422085,"longitude":66.8534792,"population":138,"stateCapital":false,"nationalCapital":false,"pk":null,"quiz":"asia","code":null,"archived":false,"percentageOfSessions":null}, {"name":"Абалак","state":"Tyumen","territory":"","country":"Russia","latitude":58.13028,"longitude":68.595909,"population":806,"stateCapital":false,"nationalCapital":false,"pk":null,"quiz":"asia","code":null,"archived":false,"percentageOfSessions":null}, {"name":"Абатское","state":"Tyumen","territory":"","country":"Russia","latitude":56.289024,"longitude":70.453026,"population":7959,"stateCapital":false,"nationalCapital":false,"pk":null,"quiz":"asia","code":null,"archived":false,"percentageOfSessions":null}, {"name":"Абаул","state":"Tyumen","territory":"","country":"Russia","latitude":57.8748851,"longitude":70.3764393,"population":319,"stateCapital":false,"nationalCapital":false,"pk":null,"quiz":"asia","code":null,"archived":false,"percentageOfSessions":null}, {"name":"Абрамова","state":"Tyumen","territory":"","country":"Russia","latitude":58.4081617,"longitude":68.4250696,"population":58,"stateCapital":false,"nationalCapital":false,"pk":null,"quiz":"asia","code":null,"archived":false,"percentageOfSessions":null}, {"name":"Авазбакеева","state":"Tyumen","territory":"","country":"Russia","latitude":56.9243334,"longitude":66.5722716,"population":205,"stateCapital":false,"nationalCapital":false,"pk":null,"quiz":"asia","code":null,"archived":false,"percentageOfSessions":null}, {"name":"Агалья","state":"Tyumen","territory":"","country":"Russia","latitude":57.4184261,"longitude":67.5939722,"population":49,"stateCapital":false,"nationalCapital":false,"pk":null,"quiz":"asia","code":null,"archived":false,"percentageOfSessions":null}, {"name":"Агарак","state":"Tyumen","territory":"","country":"Russia","latitude":56.9704549,"longitude":67.9454427,"population":383,"stateCapital":false,"nationalCapital":false,"pk":null,"quiz":"asia","code":null,"archived":false,"percentageOfSessions":null}, {"name":"Аксарина","state":"Tyumen","territory":"","country":"Russia","latitude":57.7425656,"longitude":67.2582553,"population":243,"stateCapital":false,"nationalCapital":false,"pk":null,"quiz":"asia","code":null,"archived":false,"percentageOfSessions":null}, {"name":"Аксурка","state":"Tyumen","territory":"","country":"Russia","latitude":57.9782081,"longitude":70.0992054,"population":297,"stateCapital":false,"nationalCapital":false,"pk":null,"quiz":"asia","code":null,"archived":false,"percentageOfSessions":null}, {"name":"Алга","state":"Tyumen","territory":"","country":"Russia","latitude":57.7593681,"longitude":67.6219304,"population":103,"stateCapital":false,"nationalCapital":false,"pk":null,"quiz":"asia","code":null,"archived":false,"percentageOfSessions":null}, {"name":"Александровка","state":"Tyumen","territory":"","country":"Russia","latitude":56.845081,"longitude":71.2122,"population":4,"stateCapital":false,"nationalCapital":false,"pk":null,"quiz":"asia","code":null,"archived":false,"percentageOfSessions":null}, {"name":"Александровка","state":"Tyumen","territory":"","country":"Russia","latitude":57.6755956,"longitude":66.8305494,"population":0,"stateCapital":false,"nationalCapital":false,"pk":null,"quiz":"asia","code":null,"archived":false,"percentageOfSessions":null}, {"name":"Александровка","state":"Tyumen","territory":"","country":"Russia","latitude":55.2699663,"longitude":69.9498325,"population":629,"stateCapital":false,"nationalCapital":false,"pk":null,"quiz":"asia","code":null,"archived":false,"percentageOfSessions":null}, {"name":"Александровка","state":"Tyumen","territory":"","country":"Russia","latitude":56.6070085,"longitude":69.7304552,"population":549,"stateCapital":false,"nationalCapital":false,"pk":null,"quiz":"asia","code":null,"archived":false,"percentageOfSessions":null}, {"name":"Алексеевка","state":"Tyumen","territory":"","country":"Russia","latitude":56.5346648,"longitude":68.2482655,"population":74,"stateCapital":false,"nationalCapital":false,"pk":null,"quiz":"asia","code":null,"archived":false,"percentageOfSessions":null}, {"name":"Аллагуловская","state":"Tyumen","territory":"","country":"Russia","latitude":57.9654843,"longitude":70.1897987,"population":14,"stateCapital":false,"nationalCapital":false,"pk":null,"quiz":"asia","code":null,"archived":false,"percentageOfSessions":null}, {"name":"Алымка","state":"Tyumen","territory":"","country":"Russia","latitude":59.0256181,"longitude":68.7956714,"population":272,"stateCapital":false,"nationalCapital":false,"pk":null,"quiz":"asia","code":null,"archived":false,"percentageOfSessions":null}, {"name":"Аманадское","state":"Tyumen","territory":"","country":"Russia","latitude":56.8664522,"longitude":66.0434906,"population":150,"stateCapital":false,"nationalCapital":false,"pk":null,"quiz":"asia","code":null,"archived":false,"percentageOfSessions":null}, {"name":"Ангарка","state":"Tyumen","territory":"","country":"Russia","latitude":57.1302354,"longitude":69.1547002,"population":163,"stateCapital":false,"nationalCapital":false,"pk":null,"quiz":"asia","code":null,"archived":false,"percentageOfSessions":null}, {"name":"Андреева","state":"Tyumen","territory":"","country":"Russia","latitude":56.8957237,"longitude":67.9164207,"population":19,"stateCapital":false,"nationalCapital":false,"pk":null,"quiz":"asia","code":null,"archived":false,"percentageOfSessions":null}, {"name":"Андреевский","state":"Tyumen","territory":"","country":"Russia","latitude":57.0669952,"longitude":65.8040352,"population":1501,"stateCapital":false,"nationalCapital":false,"pk":null,"quiz":"asia","code":null,"archived":false,"percentageOfSessions":null}, {"name":"Андрюшино","state":"Tyumen","territory":"","country":"Russia","latitude":57.7572043,"longitude":65.9585526,"population":479,"stateCapital":false,"nationalCapital":false,"pk":null,"quiz":"asia","code":null,"archived":false,"percentageOfSessions":null}, {"name":"Анисимовка","state":"Tyumen","territory":"","country":"Russia","latitude":56.6921996,"longitude":66.3010332,"population":307,"stateCapital":false,"nationalCapital":false,"pk":null,"quiz":"asia","code":null,"archived":false,"percentageOfSessions":null}, {"name":"Антипина","state":"Tyumen","territory":"","country":"Russia","latitude":57.7144055,"longitude":67.2335916,"population":21,"stateCapital":false,"nationalCapital":false,"pk":null,"quiz":"asia","code":null,"archived":false,"percentageOfSessions":null}, {"name":"Антипино","state":"Tyumen","territory":"","country":"Russia","latitude":57.8219402,"longitude":66.5701482,"population":445,"stateCapital":false,"nationalCapital":false,"pk":null,"quiz":"asia","code":null,"archived":false,"percentageOfSessions":null}, {"name":"Антропово","state":"Tyumen","territory":"","country":"Russia","latitude":57.8130659,"longitude":65.8655048,"population":206,"stateCapital":false,"nationalCapital":false,"pk":null,"quiz":"asia","code":null,"archived":false,"percentageOfSessions":null}, {"name":"Анценск","state":"Tyumen","territory":"","country":"Russia","latitude":56.7742829,"longitude":70.9403444,"population":18,"stateCapital":false,"nationalCapital":false,"pk":null,"quiz":"asia","code":null,"archived":false,"percentageOfSessions":null}, {"name":"Араксул","state":"Tyumen","territory":"","country":"Russia","latitude":57.9669561,"longitude":69.4468424,"population":62,"stateCapital":false,"nationalCapital":false,"pk":null,"quiz":"asia","code":null,"archived":false,"percentageOfSessions":null}, {"name":"Аракчина","state":"Tyumen","territory":"","country":"Russia","latitude":57.4585547,"longitude":65.6134284,"population":20,"stateCapital":false,"nationalCapital":false,"pk":null,"quiz":"asia","code":null,"archived":false,"percentageOfSessions":null}, {"name":"Араповская","state":"Tyumen","territory":"","country":"Russia","latitude":58.1265248,"longitude":68.5178733,"population":6,"stateCapital":false,"nationalCapital":false,"pk":null,"quiz":"asia","code":null,"archived":false,"percentageOfSessions":null}, {"name":"Армизонское","state":"Tyumen","territory":"","country":"Russia","latitude":55.945129,"longitude":67.685402,"population":4776,"stateCapital":false,"nationalCapital":false,"pk":null,"quiz":"asia","code":null,"archived":false,"percentageOfSessions":null}, {"name":"Аромашево","state":"Tyumen","territory":"","country":"Russia","latitude":56.865017,"longitude":68.6473468,"population":5373,"stateCapital":false,"nationalCapital":false,"pk":null,"quiz":"asia","code":null,"archived":false,"percentageOfSessions":null}, {"name":"Артамонова","state":"Tyumen","territory":"","country":"Russia","latitude":56.1089936,"longitude":70.1788219,"population":16,"stateCapital":false,"nationalCapital":false,"pk":null,"quiz":"asia","code":null,"archived":false,"percentageOfSessions":null}, {"name":"Артамонова","state":"Tyumen","territory":"","country":"Russia","latitude":57.4994856,"longitude":67.1294583,"population":7,"stateCapital":false,"nationalCapital":false,"pk":null,"quiz":"asia","code":null,"archived":false,"percentageOfSessions":null}, {"name":"Архангельское","state":"Tyumen","territory":"","country":"Russia","latitude":56.5270695,"longitude":65.6634214,"population":838,"stateCapital":false,"nationalCapital":false,"pk":null,"quiz":"asia","code":null,"archived":false,"percentageOfSessions":null}, {"name":"Аслана","state":"Tyumen","territory":"","country":"Russia","latitude":56.8682896,"longitude":66.5189703,"population":630,"stateCapital":false,"nationalCapital":false,"pk":null,"quiz":"asia","code":null,"archived":false,"percentageOfSessions":null}, {"name":"Афонькино","state":"Tyumen","territory":"","country":"Russia","latitude":55.4504796,"longitude":69.4250622,"population":681,"stateCapital":false,"nationalCapital":false,"pk":null,"quiz":"asia","code":null,"archived":false,"percentageOfSessions":null}, {"name":"Ахманай","state":"Tyumen","territory":"","country":"Russia","latitude":57.8860596,"longitude":67.8166103,"population":61,"stateCapital":false,"nationalCapital":false,"pk":null,"quiz":"asia","code":null,"archived":false,"percentageOfSessions":null}, {"name":"Ахманский","state":"Tyumen","territory":"","country":"Russia","latitude":57.6172039,"longitude":65.2161374,"population":51,"stateCapital":false,"nationalCapital":false,"pk":null,"quiz":"asia","code":null,"archived":false,"percentageOfSessions":null}, {"name":"Ахманы","state":"Tyumen","territory":"","country":"Russia","latitude":57.5302787,"longitude":64.9742315,"population":104,"stateCapital":false,"nationalCapital":false,"pk":null,"quiz":"asia","code":null,"archived":false,"percentageOfSessions":null}, {"name":"Ачимово","state":"Tyumen","territory":"","country":"Russia","latitude":56.8027791,"longitude":71.3444695,"population":134,"stateCapital":false,"nationalCapital":false,"pk":null,"quiz":"asia","code":null,"archived":false,"percentageOfSessions":null}, {"name":"Ачиры","state":"Tyumen","territory":"","country":"Russia","latitude":58.792794,"longitude":67.3069565,"population":356,"stateCapital":false,"nationalCapital":false,"pk":null,"quiz":"asia","code":null,"archived":false,"percentageOfSessions":null}, {"name":"Ашлык","state":"Tyumen","territory":"","country":"Russia","latitude":57.533206,"longitude":68.6693929,"population":114,"stateCapital":false,"nationalCapital":false,"pk":null,"quiz":"asia","code":null,"archived":false,"percentageOfSessions":null}, {"name":"Бабандина","state":"Tyumen","territory":"","country":"Russia","latitude":58.466694,"longitude":68.490547,"population":16,"stateCapital":false,"nationalCapital":false,"pk":null,"quiz":"asia","code":null,"archived":false,"percentageOfSessions":null}, {"name":"Базариха","state":"Tyumen","territory":"","country":"Russia","latitude":56.7935973,"longitude":71.0755665,"population":174,"stateCapital":false,"nationalCapital":false,"pk":null,"quiz":"asia","code":null,"archived":false,"percentageOfSessions":null}, {"name":"Байгара","state":"Tyumen","territory":"","country":"Russia","latitude":58.03019,"longitude":68.849831,"population":106,"stateCapital":false,"nationalCapital":false,"pk":null,"quiz":"asia","code":null,"archived":false,"percentageOfSessions":null}, {"name":"Байкал","state":"Tyumen","territory":"","country":"Russia","latitude":57.605492,"longitude":66.450134,"population":99,"stateCapital":false,"nationalCapital":false,"pk":null,"quiz":"asia","code":null,"archived":false,"percentageOfSessions":null}, {"name":"Байкалово","state":"Tyumen","territory":"","country":"Russia","latitude":57.7764388,"longitude":67.6566401,"population":1720,"stateCapital":false,"nationalCapital":false,"pk":null,"quiz":"asia","code":null,"archived":false,"percentageOfSessions":null}, {"name":"Баишевская","state":"Tyumen","territory":"","country":"Russia","latitude":58.0534293,"longitude":69.2158551,"population":99,"stateCapital":false,"nationalCapital":false,"pk":null,"quiz":"asia","code":null,"archived":false,"percentageOfSessions":null}, {"name":"Бакшеева","state":"Tyumen","territory":"","country":"Russia","latitude":58.0651697,"longitude":68.6074555,"population":13,"stateCapital":false,"nationalCapital":false,"pk":null,"quiz":"asia","code":null,"archived":false,"percentageOfSessions":null}, {"name":"Балаганы","state":"Tyumen","territory":"","country":"Russia","latitude":56.8995893,"longitude":68.4157798,"population":11,"stateCapital":false,"nationalCapital":false,"pk":null,"quiz":"asia","code":null,"archived":false,"percentageOfSessions":null}, {"name":"Балаганы","state":"Tyumen","territory":"","country":"Russia","latitude":56.66004,"longitude":70.6440489,"population":598,"stateCapital":false,"nationalCapital":false,"pk":null,"quiz":"asia","code":null,"archived":false,"percentageOfSessions":null}, {"name":"Балаир","state":"Tyumen","territory":"","country":"Russia","latitude":56.0925497,"longitude":70.4776159,"population":105,"stateCapital":false,"nationalCapital":false,"pk":null,"quiz":"asia","code":null,"archived":false,"percentageOfSessions":null}, {"name":"Баландина","state":"Tyumen","territory":"","country":"Russia","latitude":55.487267,"longitude":69.342125,"population":290,"stateCapital":false,"nationalCapital":false,"pk":null,"quiz":"asia","code":null,"archived":false,"percentageOfSessions":null}, {"name":"Балахлей","state":"Tyumen","territory":"","country":"Russia","latitude":57.13702,"longitude":69.2049438,"population":74,"stateCapital":false,"nationalCapital":false,"pk":null,"quiz":"asia","code":null,"archived":false,"percentageOfSessions":null}, {"name":"Банниково","state":"Tyumen","territory":"","country":"Russia","latitude":56.121159,"longitude":70.288116,"population":594,"stateCapital":false,"nationalCapital":false,"pk":null,"quiz":"asia","code":null,"archived":false,"percentageOfSessions":null}, {"name":"Барсуки","state":"Tyumen","territory":"","country":"Russia","latitude":56.7608841,"longitude":67.116375,"population":5,"stateCapital":false,"nationalCapital":false,"pk":null,"quiz":"asia","code":null,"archived":false,"percentageOfSessions":null}, {"name":"Бархатово","state":"Tyumen","territory":"","country":"Russia","latitude":56.4762424,"longitude":65.2245778,"population":707,"stateCapital":false,"nationalCapital":false,"pk":null,"quiz":"asia","code":null,"archived":false,"percentageOfSessions":null}, {"name":"Басаргина","state":"Tyumen","territory":"","country":"Russia","latitude":56.260561,"longitude":68.4610026,"population":8,"stateCapital":false,"nationalCapital":false,"pk":null,"quiz":"asia","code":null,"archived":false,"percentageOfSessions":null}, {"name":"Батени","state":"Tyumen","territory":"","country":"Russia","latitude":56.361732,"longitude":65.305672,"population":125,"stateCapital":false,"nationalCapital":false,"pk":null,"quiz":"asia","code":null,"archived":false,"percentageOfSessions":null}, {"name":"Батурина","state":"Tyumen","territory":"","country":"Russia","latitude":56.9710849,"longitude":68.8571787,"population":14,"stateCapital":false,"nationalCapital":false,"pk":null,"quiz":"asia","code":null,"archived":false,"percentageOfSessions":null}, {"name":"Бачелино","state":"Tyumen","territory":"","country":"Russia","latitude":57.779148,"longitude":67.269539,"population":203,"stateCapital":false,"nationalCapital":false,"pk":null,"quiz":"asia","code":null,"archived":false,"percentageOfSessions":null}, {"name":"Бачкун","state":"Tyumen","territory":"","country":"Russia","latitude":57.6904888,"longitude":67.0974895,"population":59,"stateCapital":false,"nationalCapital":false,"pk":null,"quiz":"asia","code":null,"archived":false,"percentageOfSessions":null}, {"name":"Башкова","state":"Tyumen","territory":"","country":"Russia","latitude":58.30008,"longitude":68.2987797,"population":532,"stateCapital":false,"nationalCapital":false,"pk":null,"quiz":"asia","code":null,"archived":false,"percentageOfSessions":null}, {"name":"Бегитино","state":"Tyumen","territory":"","country":"Russia","latitude":57.4002955,"longitude":69.0919104,"population":149,"stateCapital":false,"nationalCapital":false,"pk":null,"quiz":"asia","code":null,"archived":false,"percentageOfSessions":null}, {"name":"Бегишево","state":"Tyumen","territory":"","country":"Russia","latitude":58.044285,"longitude":69.097931,"population":247,"stateCapital":false,"nationalCapital":false,"pk":null,"quiz":"asia","code":null,"archived":false,"percentageOfSessions":null}, {"name":"Бегишевское","state":"Tyumen","territory":"","country":"Russia","latitude":58.0204851,"longitude":68.9916243,"population":246,"stateCapital":false,"nationalCapital":false,"pk":null,"quiz":"asia","code":null,"archived":false,"percentageOfSessions":null}, {"name":"Беково","state":"Tyumen","territory":"","country":"Russia","latitude":55.66835,"longitude":70.219284,"population":73,"stateCapital":false,"nationalCapital":false,"pk":null,"quiz":"asia","code":null,"archived":false,"percentageOfSessions":null}, {"name":"Белая Дуброва","state":"Tyumen","territory":"","country":"Russia","latitude":57.5960759,"longitude":65.6066256,"population":250,"stateCapital":false,"nationalCapital":false,"pk":null,"quiz":"asia","code":null,"archived":false,"percentageOfSessions":null}, {"name":"Беломоина","state":"Tyumen","territory":"","country":"Russia","latitude":58.349422,"longitude":68.2213576,"population":0,"stateCapital":false,"nationalCapital":false,"pk":null,"quiz":"asia","code":null,"archived":false,"percentageOfSessions":null}, {"name":"Бельховка","state":"Tyumen","territory":"","country":"Russia","latitude":56.9226474,"longitude":68.2571898,"population":164,"stateCapital":false,"nationalCapital":false,"pk":null,"quiz":"asia","code":null,"archived":false,"percentageOfSessions":null}, {"name":"Беляковка","state":"Tyumen","territory":"","country":"Russia","latitude":56.2283296,"longitude":67.2598098,"population":28,"stateCapital":false,"nationalCapital":false,"pk":null,"quiz":"asia","code":null,"archived":false,"percentageOfSessions":null}, {"name":"Бердюгина","state":"Tyumen","territory":"","country":"Russia","latitude":55.959846,"longitude":67.446533,"population":102,"stateCapital":false,"nationalCapital":false,"pk":null,"quiz":"asia","code":null,"archived":false,"percentageOfSessions":null}, {"name":"Бердюгино","state":"Tyumen","territory":"","country":"Russia","latitude":56.163593,"longitude":66.438828,"population":128,"stateCapital":false,"nationalCapital":false,"pk":null,"quiz":"asia","code":null,"archived":false,"percentageOfSessions":null}, {"name":"Бердюгино","state":"Tyumen","territory":"","country":"Russia","latitude":56.8125,"longitude":66.405022,"population":689,"stateCapital":false,"nationalCapital":false,"pk":null,"quiz":"asia","code":null,"archived":false,"percentageOfSessions":null}, {"name":"Бердюжье","state":"Tyumen","territory":"","country":"Russia","latitude":55.805538,"longitude":68.308907,"population":5158,"stateCapital":false,"nationalCapital":false,"pk":null,"quiz":"asia","code":null,"archived":false,"percentageOfSessions":null}, {"name":"Береговая","state":"Tyumen","territory":"","country":"Russia","latitude":57.9898591,"longitude":69.2905481,"population":7,"stateCapital":false,"nationalCapital":false,"pk":null,"quiz":"asia","code":null,"archived":false,"percentageOfSessions":null}, {"name":"Березино","state":"Tyumen","territory":"","country":"Russia","latitude":56.8175799,"longitude":70.4486847,"population":285,"stateCapital":false,"nationalCapital":false,"pk":null,"quiz":"asia","code":null,"archived":false,"percentageOfSessions":null}, {"name":"Березов Яр","state":"Tyumen","territory":"","country":"Russia","latitude":57.5685878,"longitude":67.0958791,"population":68,"stateCapital":false,"nationalCapital":false,"pk":null,"quiz":"asia","code":null,"archived":false,"percentageOfSessions":null}, {"name":"Березовка","state":"Tyumen","territory":"","country":"Russia","latitude":58.031147,"longitude":69.367523,"population":45,"stateCapital":false,"nationalCapital":false,"pk":null,"quiz":"asia","code":null,"archived":false,"percentageOfSessions":null}, {"name":"Березовка","state":"Tyumen","territory":"","country":"Russia","latitude":59.06538,"longitude":68.947868,"population":1,"stateCapital":false,"nationalCapital":false,"pk":null,"quiz":"asia","code":null,"archived":false,"percentageOfSessions":null}, {"name":"Березовка","state":"Tyumen","territory":"","country":"Russia","latitude":57.6717103,"longitude":65.7978222,"population":585,"stateCapital":false,"nationalCapital":false,"pk":null,"quiz":"asia","code":null,"archived":false,"percentageOfSessions":null}, {"name":"Берендеева","state":"Tyumen","territory":"","country":"Russia","latitude":56.2942011,"longitude":70.1023815,"population":70,"stateCapital":false,"nationalCapital":false,"pk":null,"quiz":"asia","code":null,"archived":false,"percentageOfSessions":null}, {"name":"Беркут","state":"Tyumen","territory":"","country":"Russia","latitude":56.7416158,"longitude":66.0540962,"population":982,"stateCapital":false,"nationalCapital":false,"pk":null,"quiz":"asia","code":null,"archived":false,"percentageOfSessions":null}, {"name":"Беркутский","state":"Tyumen","territory":"","country":"Russia","latitude":56.7808106,"longitude":66.0588992,"population":61,"stateCapital":false,"nationalCapital":false,"pk":null,"quiz":"asia","code":null,"archived":false,"percentageOfSessions":null}, {"name":"Бескозобово","state":"Tyumen","territory":"","country":"Russia","latitude":56.6945153,"longitude":68.5174276,"population":327,"stateCapital":false,"nationalCapital":false,"pk":null,"quiz":"asia","code":null,"archived":false,"percentageOfSessions":null}, {"name":"Бигила","state":"Tyumen","territory":"","country":"Russia","latitude":57.3707739,"longitude":67.2032535,"population":24,"stateCapital":false,"nationalCapital":false,"pk":null,"quiz":"asia","code":null,"archived":false,"percentageOfSessions":null}, {"name":"Бигила","state":"Tyumen","territory":"","country":"Russia","latitude":56.404228,"longitude":66.6568229,"population":579,"stateCapital":false,"nationalCapital":false,"pk":null,"quiz":"asia","code":null,"archived":false,"percentageOfSessions":null}, {"name":"Бизино","state":"Tyumen","territory":"","country":"Russia","latitude":58.1401258,"longitude":68.2696874,"population":817,"stateCapital":false,"nationalCapital":false,"pk":null,"quiz":"asia","code":null,"archived":false,"percentageOfSessions":null}, {"name":"Бития","state":"Tyumen","territory":"","country":"Russia","latitude":56.3683268,"longitude":70.8661971,"population":209,"stateCapital":false,"nationalCapital":false,"pk":null,"quiz":"asia","code":null,"archived":false,"percentageOfSessions":null}, {"name":"Битюки","state":"Tyumen","territory":"","country":"Russia","latitude":56.3876764,"longitude":65.3329355,"population":187,"stateCapital":false,"nationalCapital":false,"pk":null,"quiz":"asia","code":null,"archived":false,"percentageOfSessions":null}, {"name":"Бишура","state":"Tyumen","territory":"","country":"Russia","latitude":57.8300082,"longitude":67.8971,"population":0,"stateCapital":false,"nationalCapital":false,"pk":null,"quiz":"asia","code":null,"archived":false,"percentageOfSessions":null}, {"name":"Благодатное","state":"Tyumen","territory":"","country":"Russia","latitude":55.3934212,"longitude":69.1703158,"population":287,"stateCapital":false,"nationalCapital":false,"pk":null,"quiz":"asia","code":null,"archived":false,"percentageOfSessions":null}, {"name":"Блиниха","state":"Tyumen","territory":"","country":"Russia","latitude":56.7143213,"longitude":70.7495309,"population":1,"stateCapital":false,"nationalCapital":false,"pk":null,"quiz":"asia","code":null,"archived":false,"percentageOfSessions":null}, {"name":"Бобова","state":"Tyumen","territory":"","country":"Russia","latitude":57.7898886,"longitude":67.9688324,"population":52,"stateCapital":false,"nationalCapital":false,"pk":null,"quiz":"asia","code":null,"archived":false,"percentageOfSessions":null}, {"name":"Бобровка","state":"Tyumen","territory":"","country":"Russia","latitude":56.724974,"longitude":68.7691863,"population":56,"stateCapital":false,"nationalCapital":false,"pk":null,"quiz":"asia","code":null,"archived":false,"percentageOfSessions":null}, {"name":"Бобры","state":"Tyumen","territory":"","country":"Russia","latitude":57.1319191,"longitude":70.7871007,"population":59,"stateCapital":false,"nationalCapital":false,"pk":null,"quiz":"asia","code":null,"archived":false,"percentageOfSessions":null}, {"name":"Бобылево","state":"Tyumen","territory":"","country":"Russia","latitude":56.5362306,"longitude":65.0957645,"population":490,"stateCapital":false,"nationalCapital":false,"pk":null,"quiz":"asia","code":null,"archived":false,"percentageOfSessions":null}, {"name":"Бобыльск","state":"Tyumen","territory":"","country":"Russia","latitude":56.3194771,"longitude":70.5309019,"population":178,"stateCapital":false,"nationalCapital":false,"pk":null,"quiz":"asia","code":null,"archived":false,"percentageOfSessions":null}, {"name":"Богандинский","state":"Tyumen","territory":"","country":"Russia","latitude":56.8940348,"longitude":65.8893873,"population":9894,"stateCapital":false,"nationalCapital":false,"pk":null,"quiz":"asia","code":null,"archived":false,"percentageOfSessions":null}, {"name":"Богандинское","state":"Tyumen","territory":"","country":"Russia","latitude":56.9533906,"longitude":65.8209239,"population":362,"stateCapital":false,"nationalCapital":false,"pk":null,"quiz":"asia","code":null,"archived":false,"percentageOfSessions":null}, {"name":"Бокаревка","state":"Tyumen","territory":"","country":"Russia","latitude":56.2103411,"longitude":69.6395949,"population":296,"stateCapital":false,"nationalCapital":false,"pk":null,"quiz":"asia","code":null,"archived":false,"percentageOfSessions":null}, {"name":"Бокова","state":"Tyumen","territory":"","country":"Russia","latitude":56.170296,"longitude":70.3009241,"population":122,"stateCapital":false,"nationalCapital":false,"pk":null,"quiz":"asia","code":null,"archived":false,"percentageOfSessions":null}, {"name":"Боково","state":"Tyumen","territory":"","country":"Russia","latitude":56.8047064,"longitude":70.266552,"population":288,"stateCapital":false,"nationalCapital":false,"pk":null,"quiz":"asia","code":null,"archived":false,"percentageOfSessions":null}, {"name":"Болдырево","state":"Tyumen","territory":"","country":"Russia","latitude":56.3192146,"longitude":70.1320062,"population":510,"stateCapital":false,"nationalCapital":false,"pk":null,"quiz":"asia","code":null,"archived":false,"percentageOfSessions":null}, {"name":"Большая Блинникова","state":"Tyumen","territory":"","country":"Russia","latitude":57.9649035,"longitude":68.0774108,"population":43,"stateCapital":false,"nationalCapital":false,"pk":null,"quiz":"asia","code":null,"archived":false,"percentageOfSessions":null}, {"name":"Большая Заморозовка","state":"Tyumen","territory":"","country":"Russia","latitude":57.6953869,"longitude":65.4922982,"population":119,"stateCapital":false,"nationalCapital":false,"pk":null,"quiz":"asia","code":null,"archived":false,"percentageOfSessions":null}, {"name":"Большая Плесовская","state":"Tyumen","territory":"","country":"Russia","latitude":57.6611931,"longitude":69.204702,"population":36,"stateCapital":false,"nationalCapital":false,"pk":null,"quiz":"asia","code":null,"archived":false,"percentageOfSessions":null}, {"name":"Большая Ченчерь","state":"Tyumen","territory":"","country":"Russia","latitude":55.790825,"longitude":69.440178,"population":427,"stateCapital":false,"nationalCapital":false,"pk":null,"quiz":"asia","code":null,"archived":false,"percentageOfSessions":null}, {"name":"Большекрутинская","state":"Tyumen","territory":"","country":"Russia","latitude":56.45155,"longitude":67.360168,"population":259,"stateCapital":false,"nationalCapital":false,"pk":null,"quiz":"asia","code":null,"archived":false,"percentageOfSessions":null}, {"name":"Большескаредная","state":"Tyumen","territory":"","country":"Russia","latitude":56.8217442,"longitude":68.6569349,"population":127,"stateCapital":false,"nationalCapital":false,"pk":null,"quiz":"asia","code":null,"archived":false,"percentageOfSessions":null}, {"name":"Большеудалово","state":"Tyumen","territory":"","country":"Russia","latitude":56.1733308,"longitude":69.3609035,"population":220,"stateCapital":false,"nationalCapital":false,"pk":null,"quiz":"asia","code":null,"archived":false,"percentageOfSessions":null}, {"name":"Большие Акияры","state":"Tyumen","territory":"","country":"Russia","latitude":56.9525131,"longitude":65.3804023,"population":908,"stateCapital":false,"nationalCapital":false,"pk":null,"quiz":"asia","code":null,"archived":false,"percentageOfSessions":null}, {"name":"Большие Чирки","state":"Tyumen","territory":"","country":"Russia","latitude":56.0850087,"longitude":68.3192451,"population":42,"stateCapital":false,"nationalCapital":false,"pk":null,"quiz":"asia","code":null,"archived":false,"percentageOfSessions":null}, {"name":"Большие Ярки","state":"Tyumen","territory":"","country":"Russia","latitude":55.591782,"longitude":69.304192,"population":1052,"stateCapital":false,"nationalCapital":false,"pk":null,"quiz":"asia","code":null,"archived":false,"percentageOfSessions":null}, {"name":"Большое","state":"Tyumen","territory":"","country":"Russia","latitude":55.492332,"longitude":70.311111,"population":221,"stateCapital":false,"nationalCapital":false,"pk":null,"quiz":"asia","code":null,"archived":false,"percentageOfSessions":null}, {"name":"Большое Сорокино","state":"Tyumen","territory":"","country":"Russia","latitude":56.6295759,"longitude":69.8076705,"population":5317,"stateCapital":false,"nationalCapital":false,"pk":null,"quiz":"asia","code":null,"archived":false,"percentageOfSessions":null}, {"name":"Большое Тихвино","state":"Tyumen","territory":"","country":"Russia","latitude":57.0357631,"longitude":66.7284466,"population":140,"stateCapital":false,"nationalCapital":false,"pk":null,"quiz":"asia","code":null,"archived":false,"percentageOfSessions":null}, {"name":"Большой Карагай","state":"Tyumen","territory":"","country":"Russia","latitude":57.9519753,"longitude":70.2360152,"population":498,"stateCapital":false,"nationalCapital":false,"pk":null,"quiz":"asia","code":null,"archived":false,"percentageOfSessions":null}, {"name":"Большой Краснояр","state":"Tyumen","territory":"","country":"Russia","latitude":57.7429313,"longitude":67.1334339,"population":231,"stateCapital":false,"nationalCapital":false,"pk":null,"quiz":"asia","code":null,"archived":false,"percentageOfSessions":null}, {"name":"Большой Краснояр","state":"Tyumen","territory":"","country":"Russia","latitude":56.564495,"longitude":67.720919,"population":876,"stateCapital":false,"nationalCapital":false,"pk":null,"quiz":"asia","code":null,"archived":false,"percentageOfSessions":null}, {"name":"Большой Куртал","state":"Tyumen","territory":"","country":"Russia","latitude":55.5628115,"longitude":69.9173793,"population":55,"stateCapital":false,"nationalCapital":false,"pk":null,"quiz":"asia","code":null,"archived":false,"percentageOfSessions":null}, {"name":"Большой Кусеряк","state":"Tyumen","territory":"","country":"Russia","latitude":57.0601327,"longitude":69.4054115,"population":117,"stateCapital":false,"nationalCapital":false,"pk":null,"quiz":"asia","code":null,"archived":false,"percentageOfSessions":null}, {"name":"Большой Остров","state":"Tyumen","territory":"","country":"Russia","latitude":56.110241,"longitude":69.621353,"population":260,"stateCapital":false,"nationalCapital":false,"pk":null,"quiz":"asia","code":null,"archived":false,"percentageOfSessions":null}, {"name":"Большой Хутор","state":"Tyumen","territory":"","country":"Russia","latitude":57.6092331,"longitude":65.7290306,"population":79,"stateCapital":false,"nationalCapital":false,"pk":null,"quiz":"asia","code":null,"archived":false,"percentageOfSessions":null}, {"name":"Бор","state":"Tyumen","territory":"","country":"Russia","latitude":57.367023,"longitude":67.166176,"population":32,"stateCapital":false,"nationalCapital":false,"pk":null,"quiz":"asia","code":null,"archived":false,"percentageOfSessions":null}, {"name":"Борисовка","state":"Tyumen","territory":"","country":"Russia","latitude":56.347095,"longitude":69.055252,"population":272,"stateCapital":false,"nationalCapital":false,"pk":null,"quiz":"asia","code":null,"archived":false,"percentageOfSessions":null}, {"name":"Борки","state":"Tyumen","territory":"","country":"Russia","latitude":56.8436289,"longitude":70.7228708,"population":121,"stateCapital":false,"nationalCapital":false,"pk":null,"quiz":"asia","code":null,"archived":false,"percentageOfSessions":null}, {"name":"Борки","state":"Tyumen","territory":"","country":"Russia","latitude":57.1726391,"longitude":66.064166,"population":1811,"stateCapital":false,"nationalCapital":false,"pk":null,"quiz":"asia","code":null,"archived":false,"percentageOfSessions":null}, {"name":"Боровинка","state":"Tyumen","territory":"","country":"Russia","latitude":56.628448,"longitude":67.04554,"population":719,"stateCapital":false,"nationalCapital":false,"pk":null,"quiz":"asia","code":null,"archived":false,"percentageOfSessions":null}, {"name":"Боровлянка","state":"Tyumen","territory":"","country":"Russia","latitude":56.5273833,"longitude":68.2752013,"population":407,"stateCapital":false,"nationalCapital":false,"pk":null,"quiz":"asia","code":null,"archived":false,"percentageOfSessions":null}, {"name":"Боровлянка","state":"Tyumen","territory":"","country":"Russia","latitude":55.6418,"longitude":69.371948,"population":4,"stateCapital":false,"nationalCapital":false,"pk":null,"quiz":"asia","code":null,"archived":false,"percentageOfSessions":null}, {"name":"Боровое","state":"Tyumen","territory":"","country":"Russia","latitude":56.1693531,"longitude":69.6832931,"population":652,"stateCapital":false,"nationalCapital":false,"pk":null,"quiz":"asia","code":null,"archived":false,"percentageOfSessions":null}, {"name":"Боровский","state":"Tyumen","territory":"","country":"Russia","latitude":57.041527,"longitude":65.727104,"population":17489,"stateCapital":false,"nationalCapital":false,"pk":null,"quiz":"asia","code":null,"archived":false,"percentageOfSessions":null}, {"name":"Боровушка","state":"Tyumen","territory":"","country":"Russia","latitude":56.1380992,"longitude":65.9925825,"population":113,"stateCapital":false,"nationalCapital":false,"pk":null,"quiz":"asia","code":null,"archived":false,"percentageOfSessions":null}, {"name":"Бородино","state":"Tyumen","territory":"","country":"Russia","latitude":56.8108312,"longitude":71.1607472,"population":137,"stateCapital":false,"nationalCapital":false,"pk":null,"quiz":"asia","code":null,"archived":false,"percentageOfSessions":null}, {"name":"Босоногова","state":"Tyumen","territory":"","country":"Russia","latitude":55.9766577,"longitude":68.26021,"population":156,"stateCapital":false,"nationalCapital":false,"pk":null,"quiz":"asia","code":null,"archived":false,"percentageOfSessions":null}, {"name":"Ботники","state":"Tyumen","territory":"","country":"Russia","latitude":56.47876,"longitude":65.468468,"population":148,"stateCapital":false,"nationalCapital":false,"pk":null,"quiz":"asia","code":null,"archived":false,"percentageOfSessions":null}, {"name":"Брованова","state":"Tyumen","territory":"","country":"Russia","latitude":56.2395288,"longitude":68.4905192,"population":74,"stateCapital":false,"nationalCapital":false,"pk":null,"quiz":"asia","code":null,"archived":false,"percentageOfSessions":null}, {"name":"Бронниково","state":"Tyumen","territory":"","country":"Russia","latitude":58.4928519,"longitude":68.4033518,"population":26,"stateCapital":false,"nationalCapital":false,"pk":null,"quiz":"asia","code":null,"archived":false,"percentageOfSessions":null}, {"name":"Бугры","state":"Tyumen","territory":"","country":"Russia","latitude":57.7083357,"longitude":66.0173072,"population":7,"stateCapital":false,"nationalCapital":false,"pk":null,"quiz":"asia","code":null,"archived":false,"percentageOfSessions":null}, {"name":"Бузаны","state":"Tyumen","territory":"","country":"Russia","latitude":56.0710275,"longitude":67.3326448,"population":48,"stateCapital":false,"nationalCapital":false,"pk":null,"quiz":"asia","code":null,"archived":false,"percentageOfSessions":null}, {"name":"Булановка","state":"Tyumen","territory":"","country":"Russia","latitude":55.9382386,"longitude":69.8123792,"population":86,"stateCapital":false,"nationalCapital":false,"pk":null,"quiz":"asia","code":null,"archived":false,"percentageOfSessions":null}, {"name":"Булашово","state":"Tyumen","territory":"","country":"Russia","latitude":57.7727072,"longitude":67.8487719,"population":540,"stateCapital":false,"nationalCapital":false,"pk":null,"quiz":"asia","code":null,"archived":false,"percentageOfSessions":null}, {"name":"Бунькова","state":"Tyumen","territory":"","country":"Russia","latitude":56.7545982,"longitude":70.0727101,"population":77,"stateCapital":false,"nationalCapital":false,"pk":null,"quiz":"asia","code":null,"archived":false,"percentageOfSessions":null}, {"name":"Буньково","state":"Tyumen","territory":"","country":"Russia","latitude":56.1701503,"longitude":66.1263385,"population":476,"stateCapital":false,"nationalCapital":false,"pk":null,"quiz":"asia","code":null,"archived":false,"percentageOfSessions":null}, {"name":"Бурдина","state":"Tyumen","territory":"","country":"Russia","latitude":56.1603505,"longitude":70.0873336,"population":39,"stateCapital":false,"nationalCapital":false,"pk":null,"quiz":"asia","code":null,"archived":false,"percentageOfSessions":null}, {"name":"Бурлаки","state":"Tyumen","territory":"","country":"Russia","latitude":55.8825413,"longitude":67.7412887,"population":121,"stateCapital":false,"nationalCapital":false,"pk":null,"quiz":"asia","code":null,"archived":false,"percentageOfSessions":null}, {"name":"Бурлаки","state":"Tyumen","territory":"","country":"Russia","latitude":57.8207421,"longitude":69.2419752,"population":16,"stateCapital":false,"nationalCapital":false,"pk":null,"quiz":"asia","code":null,"archived":false,"percentageOfSessions":null}, {"name":"Бурлаки","state":"Tyumen","territory":"","country":"Russia","latitude":56.517593,"longitude":69.457069,"population":0,"stateCapital":false,"nationalCapital":false,"pk":null,"quiz":"asia","code":null,"archived":false,"percentageOfSessions":null}, {"name":"Бурмистрова","state":"Tyumen","territory":"","country":"Russia","latitude":56.6400675,"longitude":70.7371452,"population":0,"stateCapital":false,"nationalCapital":false,"pk":null,"quiz":"asia","code":null,"archived":false,"percentageOfSessions":null}, {"name":"Бусаровка","state":"Tyumen","territory":"","country":"Russia","latitude":57.158262,"longitude":68.9481075,"population":4,"stateCapital":false,"nationalCapital":false,"pk":null,"quiz":"asia","code":null,"archived":false,"percentageOfSessions":null}, {"name":"Бутусово","state":"Tyumen","territory":"","country":"Russia","latitude":56.422161,"longitude":69.190498,"population":356,"stateCapital":false,"nationalCapital":false,"pk":null,"quiz":"asia","code":null,"archived":false,"percentageOfSessions":null}, {"name":"Бутырки","state":"Tyumen","territory":"","country":"Russia","latitude":56.088169,"longitude":69.667686,"population":44,"stateCapital":false,"nationalCapital":false,"pk":null,"quiz":"asia","code":null,"archived":false,"percentageOfSessions":null}, {"name":"Бухтал","state":"Tyumen","territory":"","country":"Russia","latitude":57.5066871,"longitude":65.1623322,"population":747,"stateCapital":false,"nationalCapital":false,"pk":null,"quiz":"asia","code":null,"archived":false,"percentageOfSessions":null}, {"name":"Бучиха","state":"Tyumen","territory":"","country":"Russia","latitude":56.9730062,"longitude":67.0946081,"population":3,"stateCapital":false,"nationalCapital":false,"pk":null,"quiz":"asia","code":null,"archived":false,"percentageOfSessions":null}, {"name":"Бушмина","state":"Tyumen","territory":"","country":"Russia","latitude":57.752473,"longitude":68.9759522,"population":119,"stateCapital":false,"nationalCapital":false,"pk":null,"quiz":"asia","code":null,"archived":false,"percentageOfSessions":null}, {"name":"Бушуево","state":"Tyumen","territory":"","country":"Russia","latitude":56.7352717,"longitude":67.3586185,"population":533,"stateCapital":false,"nationalCapital":false,"pk":null,"quiz":"asia","code":null,"archived":false,"percentageOfSessions":null}, {"name":"Бызово","state":"Tyumen","territory":"","country":"Russia","latitude":56.3061624,"longitude":66.1950781,"population":572,"stateCapital":false,"nationalCapital":false,"pk":null,"quiz":"asia","code":null,"archived":false,"percentageOfSessions":null}, {"name":"Быкова","state":"Tyumen","territory":"","country":"Russia","latitude":57.946147,"longitude":69.6035304,"population":41,"stateCapital":false,"nationalCapital":false,"pk":null,"quiz":"asia","code":null,"archived":false,"percentageOfSessions":null}, {"name":"Быкова","state":"Tyumen","territory":"","country":"Russia","latitude":56.062695,"longitude":69.277061,"population":277,"stateCapital":false,"nationalCapital":false,"pk":null,"quiz":"asia","code":null,"archived":false,"percentageOfSessions":null}, {"name":"Быстрая","state":"Tyumen","territory":"","country":"Russia","latitude":56.3236999,"longitude":68.315641,"population":38,"stateCapital":false,"nationalCapital":false,"pk":null,"quiz":"asia","code":null,"archived":false,"percentageOfSessions":null}, {"name":"Быструха","state":"Tyumen","territory":"","country":"Russia","latitude":56.4245196,"longitude":70.6252341,"population":775,"stateCapital":false,"nationalCapital":false,"pk":null,"quiz":"asia","code":null,"archived":false,"percentageOfSessions":null}, {"name":"Вагай","state":"Tyumen","territory":"","country":"Russia","latitude":57.9352224,"longitude":69.0125864,"population":5013,"stateCapital":false,"nationalCapital":false,"pk":null,"quiz":"asia","code":null,"archived":false,"percentageOfSessions":null}, {"name":"Вагай","state":"Tyumen","territory":"","country":"Russia","latitude":56.476372,"longitude":67.311279,"population":2671,"stateCapital":false,"nationalCapital":false,"pk":null,"quiz":"asia","code":null,"archived":false,"percentageOfSessions":null}, {"name":"Вагайская","state":"Tyumen","territory":"","country":"Russia","latitude":56.482788,"longitude":67.287704,"population":310,"stateCapital":false,"nationalCapital":false,"pk":null,"quiz":"asia","code":null,"archived":false,"percentageOfSessions":null}, {"name":"Вагина","state":"Tyumen","territory":"","country":"Russia","latitude":56.7401068,"longitude":68.6113749,"population":183,"stateCapital":false,"nationalCapital":false,"pk":null,"quiz":"asia","code":null,"archived":false,"percentageOfSessions":null}, {"name":"Вакарино","state":"Tyumen","territory":"","country":"Russia","latitude":55.6585879,"longitude":69.6680775,"population":14,"stateCapital":false,"nationalCapital":false,"pk":null,"quiz":"asia","code":null,"archived":false,"percentageOfSessions":null}, {"name":"Валгина","state":"Tyumen","territory":"","country":"Russia","latitude":56.9172725,"longitude":68.7445501,"population":189,"stateCapital":false,"nationalCapital":false,"pk":null,"quiz":"asia","code":null,"archived":false,"percentageOfSessions":null}, {"name":"Ваньковка","state":"Tyumen","territory":"","country":"Russia","latitude":56.090794,"longitude":69.374023,"population":659,"stateCapital":false,"nationalCapital":false,"pk":null,"quiz":"asia","code":null,"archived":false,"percentageOfSessions":null}, {"name":"Варвара","state":"Tyumen","territory":"","country":"Russia","latitude":57.4467981,"longitude":67.2332767,"population":575,"stateCapital":false,"nationalCapital":false,"pk":null,"quiz":"asia","code":null,"archived":false,"percentageOfSessions":null}, {"name":"Варваринский","state":"Tyumen","territory":"","country":"Russia","latitude":57.445111,"longitude":67.2492502,"population":326,"stateCapital":false,"nationalCapital":false,"pk":null,"quiz":"asia","code":null,"archived":false,"percentageOfSessions":null}, {"name":"Вармахли","state":"Tyumen","territory":"","country":"Russia","latitude":58.2492137,"longitude":67.4432864,"population":65,"stateCapital":false,"nationalCapital":false,"pk":null,"quiz":"asia","code":null,"archived":false,"percentageOfSessions":null}, {"name":"Вахрушева","state":"Tyumen","territory":"","country":"Russia","latitude":58.1129457,"longitude":68.7008912,"population":25,"stateCapital":false,"nationalCapital":false,"pk":null,"quiz":"asia","code":null,"archived":false,"percentageOfSessions":null}, {"name":"Велижаны","state":"Tyumen","territory":"","country":"Russia","latitude":57.551327,"longitude":65.762093,"population":1416,"stateCapital":false,"nationalCapital":false,"pk":null,"quiz":"asia","code":null,"archived":false,"percentageOfSessions":null}, {"name":"Верхнебешкиль","state":"Tyumen","territory":"","country":"Russia","latitude":56.521164,"longitude":65.522423,"population":591,"stateCapital":false,"nationalCapital":false,"pk":null,"quiz":"asia","code":null,"archived":false,"percentageOfSessions":null}, {"name":"Верхнеманай","state":"Tyumen","territory":"","country":"Russia","latitude":56.0388868,"longitude":66.8159179,"population":101,"stateCapital":false,"nationalCapital":false,"pk":null,"quiz":"asia","code":null,"archived":false,"percentageOfSessions":null}, {"name":"Верхнепинигина","state":"Tyumen","territory":"","country":"Russia","latitude":56.508007,"longitude":69.9530557,"population":62,"stateCapital":false,"nationalCapital":false,"pk":null,"quiz":"asia","code":null,"archived":false,"percentageOfSessions":null}, {"name":"Верхнесидорово","state":"Tyumen","territory":"","country":"Russia","latitude":57.769733,"longitude":66.9439276,"population":166,"stateCapital":false,"nationalCapital":false,"pk":null,"quiz":"asia","code":null,"archived":false,"percentageOfSessions":null}, {"name":"Верхние Аремзяны","state":"Tyumen","territory":"","country":"Russia","latitude":58.309223,"longitude":68.590332,"population":275,"stateCapital":false,"nationalCapital":false,"pk":null,"quiz":"asia","code":null,"archived":false,"percentageOfSessions":null}, {"name":"Верхний Ингал","state":"Tyumen","territory":"","country":"Russia","latitude":56.437317,"longitude":65.792221,"population":484,"stateCapital":false,"nationalCapital":false,"pk":null,"quiz":"asia","code":null,"archived":false,"percentageOfSessions":null}, {"name":"Верхний Роман","state":"Tyumen","territory":"","country":"Russia","latitude":59.3750865,"longitude":68.9070756,"population":14,"stateCapital":false,"nationalCapital":false,"pk":null,"quiz":"asia","code":null,"archived":false,"percentageOfSessions":null}, {"name":"Вершина","state":"Tyumen","territory":"","country":"Russia","latitude":57.8483707,"longitude":66.4027065,"population":57,"stateCapital":false,"nationalCapital":false,"pk":null,"quiz":"asia","code":null,"archived":false,"percentageOfSessions":null}, {"name":"Вершинская","state":"Tyumen","territory":"","country":"Russia","latitude":57.3609226,"longitude":70.1165434,"population":149,"stateCapital":false,"nationalCapital":false,"pk":null,"quiz":"asia","code":null,"archived":false,"percentageOfSessions":null}, {"name":"Веселая Грива","state":"Tyumen","territory":"","country":"Russia","latitude":57.6092152,"longitude":65.2212182,"population":161,"stateCapital":false,"nationalCapital":false,"pk":null,"quiz":"asia","code":null,"archived":false,"percentageOfSessions":null}, {"name":"Веселинская","state":"Tyumen","territory":"","country":"Russia","latitude":57.5264426,"longitude":70.6112718,"population":183,"stateCapital":false,"nationalCapital":false,"pk":null,"quiz":"asia","code":null,"archived":false,"percentageOfSessions":null}, {"name":"Веселый","state":"Tyumen","territory":"","country":"Russia","latitude":57.1756554,"longitude":66.5951034,"population":532,"stateCapital":false,"nationalCapital":false,"pk":null,"quiz":"asia","code":null,"archived":false,"percentageOfSessions":null}, {"name":"Веснина","state":"Tyumen","territory":"","country":"Russia","latitude":58.3078279,"longitude":68.1484385,"population":21,"stateCapital":false,"nationalCapital":false,"pk":null,"quiz":"asia","code":null,"archived":false,"percentageOfSessions":null}, {"name":"Видонова","state":"Tyumen","territory":"","country":"Russia","latitude":56.0374861,"longitude":66.6034347,"population":323,"stateCapital":false,"nationalCapital":false,"pk":null,"quiz":"asia","code":null,"archived":false,"percentageOfSessions":null}, {"name":"Викторовка","state":"Tyumen","territory":"","country":"Russia","latitude":55.3478953,"longitude":69.4589597,"population":128,"stateCapital":false,"nationalCapital":false,"pk":null,"quiz":"asia","code":null,"archived":false,"percentageOfSessions":null}, {"name":"Викуловка","state":"Tyumen","territory":"","country":"Russia","latitude":55.8977584,"longitude":70.4137689,"population":35,"stateCapital":false,"nationalCapital":false,"pk":null,"quiz":"asia","code":null,"archived":false,"percentageOfSessions":null}, {"name":"Викулово","state":"Tyumen","territory":"","country":"Russia","latitude":56.815155,"longitude":70.605362,"population":6995,"stateCapital":false,"nationalCapital":false,"pk":null,"quiz":"asia","code":null,"archived":false,"percentageOfSessions":null}, {"name":"Вилижаны","state":"Tyumen","territory":"","country":"Russia","latitude":57.1699237,"longitude":65.892178,"population":122,"stateCapital":false,"nationalCapital":false,"pk":null,"quiz":"asia","code":null,"archived":false,"percentageOfSessions":null}, {"name":"Вилкова","state":"Tyumen","territory":"","country":"Russia","latitude":56.9041377,"longitude":69.1912136,"population":138,"stateCapital":false,"nationalCapital":false,"pk":null,"quiz":"asia","code":null,"archived":false,"percentageOfSessions":null}, {"name":"Винзили","state":"Tyumen","territory":"","country":"Russia","latitude":56.964119,"longitude":65.780586,"population":12320,"stateCapital":false,"nationalCapital":false,"pk":null,"quiz":"asia","code":null,"archived":false,"percentageOfSessions":null}, {"name":"Винокурова","state":"Tyumen","territory":"","country":"Russia","latitude":56.5506267,"longitude":68.5230342,"population":60,"stateCapital":false,"nationalCapital":false,"pk":null,"quiz":"asia","code":null,"archived":false,"percentageOfSessions":null}, {"name":"Винокурова","state":"Tyumen","territory":"","country":"Russia","latitude":58.3411838,"longitude":68.3374783,"population":61,"stateCapital":false,"nationalCapital":false,"pk":null,"quiz":"asia","code":null,"archived":false,"percentageOfSessions":null}, {"name":"Власова","state":"Tyumen","territory":"","country":"Russia","latitude":55.4561785,"longitude":68.5510018,"population":138,"stateCapital":false,"nationalCapital":false,"pk":null,"quiz":"asia","code":null,"archived":false,"percentageOfSessions":null}, {"name":"Водолазово","state":"Tyumen","territory":"","country":"Russia","latitude":56.1653068,"longitude":70.0285197,"population":151,"stateCapital":false,"nationalCapital":false,"pk":null,"quiz":"asia","code":null,"archived":false,"percentageOfSessions":null}, {"name":"Вознесенка","state":"Tyumen","territory":"","country":"Russia","latitude":55.853073,"longitude":70.014641,"population":25,"stateCapital":false,"nationalCapital":false,"pk":null,"quiz":"asia","code":null,"archived":false,"percentageOfSessions":null}, {"name":"Вознесенка","state":"Tyumen","territory":"","country":"Russia","latitude":56.7053738,"longitude":69.6962867,"population":51,"stateCapital":false,"nationalCapital":false,"pk":null,"quiz":"asia","code":null,"archived":false,"percentageOfSessions":null}, {"name":"Вознесенка","state":"Tyumen","territory":"","country":"Russia","latitude":55.814632,"longitude":69.4327832,"population":76,"stateCapital":false,"nationalCapital":false,"pk":null,"quiz":"asia","code":null,"archived":false,"percentageOfSessions":null}, {"name":"Володино","state":"Tyumen","territory":"","country":"Russia","latitude":56.7371309,"longitude":67.4998523,"population":454,"stateCapital":false,"nationalCapital":false,"pk":null,"quiz":"asia","code":null,"archived":false,"percentageOfSessions":null}, {"name":"Волостная","state":"Tyumen","territory":"","country":"Russia","latitude":56.1505034,"longitude":70.803798,"population":63,"stateCapital":false,"nationalCapital":false,"pk":null,"quiz":"asia","code":null,"archived":false,"percentageOfSessions":null}, {"name":"Воробьево","state":"Tyumen","territory":"","country":"Russia","latitude":55.6416094,"longitude":68.2276698,"population":118,"stateCapital":false,"nationalCapital":false,"pk":null,"quiz":"asia","code":null,"archived":false,"percentageOfSessions":null}, {"name":"Ворогушино","state":"Tyumen","territory":"","country":"Russia","latitude":58.1055365,"longitude":68.2781964,"population":315,"stateCapital":false,"nationalCapital":false,"pk":null,"quiz":"asia","code":null,"archived":false,"percentageOfSessions":null}, {"name":"Воронина","state":"Tyumen","territory":"","country":"Russia","latitude":55.902023,"longitude":69.432594,"population":169,"stateCapital":false,"nationalCapital":false,"pk":null,"quiz":"asia","code":null,"archived":false,"percentageOfSessions":null}, {"name":"Ворсиха","state":"Tyumen","territory":"","country":"Russia","latitude":56.7552863,"longitude":69.7534422,"population":456,"stateCapital":false,"nationalCapital":false,"pk":null,"quiz":"asia","code":null,"archived":false,"percentageOfSessions":null}, {"name":"Воскресенка","state":"Tyumen","territory":"","country":"Russia","latitude":56.5209174,"longitude":69.7577991,"population":35,"stateCapital":false,"nationalCapital":false,"pk":null,"quiz":"asia","code":null,"archived":false,"percentageOfSessions":null}, {"name":"Восток","state":"Tyumen","territory":"","country":"Russia","latitude":56.028095,"longitude":70.547089,"population":67,"stateCapital":false,"nationalCapital":false,"pk":null,"quiz":"asia","code":null,"archived":false,"percentageOfSessions":null}, {"name":"Второвагайское","state":"Tyumen","territory":"","country":"Russia","latitude":58.0100851,"longitude":68.9630869,"population":237,"stateCapital":false,"nationalCapital":false,"pk":null,"quiz":"asia","code":null,"archived":false,"percentageOfSessions":null}, {"name":"Второпесьяново","state":"Tyumen","territory":"","country":"Russia","latitude":55.87442,"longitude":69.127907,"population":422,"stateCapital":false,"nationalCapital":false,"pk":null,"quiz":"asia","code":null,"archived":false,"percentageOfSessions":null}, {"name":"Второсалинская","state":"Tyumen","territory":"","country":"Russia","latitude":57.9904064,"longitude":69.9362531,"population":227,"stateCapital":false,"nationalCapital":false,"pk":null,"quiz":"asia","code":null,"archived":false,"percentageOfSessions":null}, {"name":"Выдумка","state":"Tyumen","territory":"","country":"Russia","latitude":58.0432563,"longitude":69.4171331,"population":11,"stateCapital":false,"nationalCapital":false,"pk":null,"quiz":"asia","code":null,"archived":false,"percentageOfSessions":null}, {"name":"Высоцкая","state":"Tyumen","territory":"","country":"Russia","latitude":56.4099816,"longitude":69.6441134,"population":5,"stateCapital":false,"nationalCapital":false,"pk":null,"quiz":"asia","code":null,"archived":false,"percentageOfSessions":null}, {"name":"Выстрел","state":"Tyumen","territory":"","country":"Russia","latitude":55.87859,"longitude":70.28289,"population":64,"stateCapital":false,"nationalCapital":false,"pk":null,"quiz":"asia","code":null,"archived":false,"percentageOfSessions":null}, {"name":"Вьялково","state":"Tyumen","territory":"","country":"Russia","latitude":55.9468847,"longitude":67.4470837,"population":80,"stateCapital":false,"nationalCapital":false,"pk":null,"quiz":"asia","code":null,"archived":false,"percentageOfSessions":null}, {"name":"Вяткина","state":"Tyumen","territory":"","country":"Russia","latitude":56.71302,"longitude":69.057304,"population":0,"stateCapital":false,"nationalCapital":false,"pk":null,"quiz":"asia","code":null,"archived":false,"percentageOfSessions":null}, {"name":"Гагарина","state":"Tyumen","territory":"","country":"Russia","latitude":55.7937459,"longitude":68.2480861,"population":246,"stateCapital":false,"nationalCapital":false,"pk":null,"quiz":"asia","code":null,"archived":false,"percentageOfSessions":null}, {"name":"Гагарино","state":"Tyumen","territory":"","country":"Russia","latitude":56.0103726,"longitude":69.3789506,"population":883,"stateCapital":false,"nationalCapital":false,"pk":null,"quiz":"asia","code":null,"archived":false,"percentageOfSessions":null}, {"name":"Гагарье","state":"Tyumen","territory":"","country":"Russia","latitude":55.739704,"longitude":69.225708,"population":575,"stateCapital":false,"nationalCapital":false,"pk":null,"quiz":"asia","code":null,"archived":false,"percentageOfSessions":null}, {"name":"Гаева","state":"Tyumen","territory":"","country":"Russia","latitude":56.458851,"longitude":65.217514,"population":302,"stateCapital":false,"nationalCapital":false,"pk":null,"quiz":"asia","code":null,"archived":false,"percentageOfSessions":null}, {"name":"Ганихина","state":"Tyumen","territory":"","country":"Russia","latitude":57.5914233,"longitude":67.1181224,"population":5,"stateCapital":false,"nationalCapital":false,"pk":null,"quiz":"asia","code":null,"archived":false,"percentageOfSessions":null}, {"name":"Герасимовка","state":"Tyumen","territory":"","country":"Russia","latitude":57.6549809,"longitude":65.2736449,"population":6,"stateCapital":false,"nationalCapital":false,"pk":null,"quiz":"asia","code":null,"archived":false,"percentageOfSessions":null}, {"name":"Герасимовка","state":"Tyumen","territory":"","country":"Russia","latitude":58.601582,"longitude":71.9057109,"population":38,"stateCapital":false,"nationalCapital":false,"pk":null,"quiz":"asia","code":null,"archived":false,"percentageOfSessions":null}, {"name":"Гилево","state":"Tyumen","territory":"","country":"Russia","latitude":56.5221602,"longitude":66.4364898,"population":686,"stateCapital":false,"nationalCapital":false,"pk":null,"quiz":"asia","code":null,"archived":false,"percentageOfSessions":null}, {"name":"Гилево","state":"Tyumen","territory":"","country":"Russia","latitude":57.6110663,"longitude":67.084097,"population":516,"stateCapital":false,"nationalCapital":false,"pk":null,"quiz":"asia","code":null,"archived":false,"percentageOfSessions":null}, {"name":"Гладилово","state":"Tyumen","territory":"","country":"Russia","latitude":56.3775099,"longitude":68.5512702,"population":876,"stateCapital":false,"nationalCapital":false,"pk":null,"quiz":"asia","code":null,"archived":false,"percentageOfSessions":null}, {"name":"Глубокая","state":"Tyumen","territory":"","country":"Russia","latitude":56.4472522,"longitude":68.1863423,"population":123,"stateCapital":false,"nationalCapital":false,"pk":null,"quiz":"asia","code":null,"archived":false,"percentageOfSessions":null}, {"name":"Глубокое","state":"Tyumen","territory":"","country":"Russia","latitude":55.7611913,"longitude":68.4521583,"population":52,"stateCapital":false,"nationalCapital":false,"pk":null,"quiz":"asia","code":null,"archived":false,"percentageOfSessions":null}, {"name":"Гляден","state":"Tyumen","territory":"","country":"Russia","latitude":55.7155,"longitude":70.484909,"population":78,"stateCapital":false,"nationalCapital":false,"pk":null,"quiz":"asia","code":null,"archived":false,"percentageOfSessions":null}, {"name":"Гоглина","state":"Tyumen","territory":"","country":"Russia","latitude":55.8477894,"longitude":67.7001691,"population":28,"stateCapital":false,"nationalCapital":false,"pk":null,"quiz":"asia","code":null,"archived":false,"percentageOfSessions":null}, {"name":"Голдобино","state":"Tyumen","territory":"","country":"Russia","latitude":56.0703838,"longitude":70.0006568,"population":167,"stateCapital":false,"nationalCapital":false,"pk":null,"quiz":"asia","code":null,"archived":false,"percentageOfSessions":null}, {"name":"Головина","state":"Tyumen","territory":"","country":"Russia","latitude":56.898048,"longitude":65.638443,"population":270,"stateCapital":false,"nationalCapital":false,"pk":null,"quiz":"asia","code":null,"archived":false,"percentageOfSessions":null}, {"name":"Голышманово","state":"Tyumen","territory":"","country":"Russia","latitude":56.3955,"longitude":68.375,"population":13634,"stateCapital":false,"nationalCapital":false,"pk":null,"quiz":"asia","code":null,"archived":false,"percentageOfSessions":null}, {"name":"Голышманово","state":"Tyumen","territory":"","country":"Russia","latitude":56.3955,"longitude":68.375,"population":540,"stateCapital":false,"nationalCapital":false,"pk":null,"quiz":"asia","code":null,"archived":false,"percentageOfSessions":null}, {"name":"Горбунова","state":"Tyumen","territory":"","country":"Russia","latitude":56.5194375,"longitude":68.2393824,"population":135,"stateCapital":false,"nationalCapital":false,"pk":null,"quiz":"asia","code":null,"archived":false,"percentageOfSessions":null}, {"name":"Горки","state":"Tyumen","territory":"","country":"Russia","latitude":56.1303676,"longitude":70.3004937,"population":125,"stateCapital":false,"nationalCapital":false,"pk":null,"quiz":"asia","code":null,"archived":false,"percentageOfSessions":null}, {"name":"Горнослинкино","state":"Tyumen","territory":"","country":"Russia","latitude":58.7625543,"longitude":68.8011402,"population":554,"stateCapital":false,"nationalCapital":false,"pk":null,"quiz":"asia","code":null,"archived":false,"percentageOfSessions":null}, {"name":"Городище","state":"Tyumen","territory":"","country":"Russia","latitude":56.4711972,"longitude":69.958138,"population":144,"stateCapital":false,"nationalCapital":false,"pk":null,"quiz":"asia","code":null,"archived":false,"percentageOfSessions":null}, {"name":"Горьковка","state":"Tyumen","territory":"","country":"Russia","latitude":57.141444,"longitude":65.2612495,"population":2396,"stateCapital":false,"nationalCapital":false,"pk":null,"quiz":"asia","code":null,"archived":false,"percentageOfSessions":null}, {"name":"Горюново","state":"Tyumen","territory":"","country":"Russia","latitude":56.2734772,"longitude":66.5751554,"population":479,"stateCapital":false,"nationalCapital":false,"pk":null,"quiz":"asia","code":null,"archived":false,"percentageOfSessions":null}, {"name":"Готопутово","state":"Tyumen","territory":"","country":"Russia","latitude":56.7721974,"longitude":70.1578045,"population":737,"stateCapital":false,"nationalCapital":false,"pk":null,"quiz":"asia","code":null,"archived":false,"percentageOfSessions":null}, {"name":"Грачи","state":"Tyumen","territory":"","country":"Russia","latitude":55.566078,"longitude":68.863594,"population":601,"stateCapital":false,"nationalCapital":false,"pk":null,"quiz":"asia","code":null,"archived":false,"percentageOfSessions":null}, {"name":"Гришина","state":"Tyumen","territory":"","country":"Russia","latitude":56.5155221,"longitude":68.1315169,"population":54,"stateCapital":false,"nationalCapital":false,"pk":null,"quiz":"asia","code":null,"archived":false,"percentageOfSessions":null}, {"name":"Губина","state":"Tyumen","territory":"","country":"Russia","latitude":56.2016507,"longitude":65.9817955,"population":23,"stateCapital":false,"nationalCapital":false,"pk":null,"quiz":"asia","code":null,"archived":false,"percentageOfSessions":null}, {"name":"Гужевое","state":"Tyumen","territory":"","country":"Russia","latitude":57.1115045,"longitude":65.0079418,"population":32,"stateCapital":false,"nationalCapital":false,"pk":null,"quiz":"asia","code":null,"archived":false,"percentageOfSessions":null}, {"name":"Гузенеевский","state":"Tyumen","territory":"","country":"Russia","latitude":57.3776998,"longitude":65.9509458,"population":4,"stateCapital":false,"nationalCapital":false,"pk":null,"quiz":"asia","code":null,"archived":false,"percentageOfSessions":null}, {"name":"Гуляй-Поле","state":"Tyumen","territory":"","country":"Russia","latitude":55.348843,"longitude":70.34169,"population":107,"stateCapital":false,"nationalCapital":false,"pk":null,"quiz":"asia","code":null,"archived":false,"percentageOfSessions":null}, {"name":"Гусево","state":"Tyumen","territory":"","country":"Russia","latitude":57.0850424,"longitude":65.3098926,"population":313,"stateCapital":false,"nationalCapital":false,"pk":null,"quiz":"asia","code":null,"archived":false,"percentageOfSessions":null}, {"name":"Дальнетравное","state":"Tyumen","territory":"","country":"Russia","latitude":55.70927,"longitude":68.987473,"population":168,"stateCapital":false,"nationalCapital":false,"pk":null,"quiz":"asia","code":null,"archived":false,"percentageOfSessions":null}, {"name":"Данькова","state":"Tyumen","territory":"","country":"Russia","latitude":55.8616735,"longitude":67.8052509,"population":5,"stateCapital":false,"nationalCapital":false,"pk":null,"quiz":"asia","code":null,"archived":false,"percentageOfSessions":null}, {"name":"Девятково","state":"Tyumen","territory":"","country":"Russia","latitude":57.7748243,"longitude":65.9173861,"population":201,"stateCapital":false,"nationalCapital":false,"pk":null,"quiz":"asia","code":null,"archived":false,"percentageOfSessions":null}, {"name":"Дегтярева","state":"Tyumen","territory":"","country":"Russia","latitude":56.8755665,"longitude":67.6446435,"population":63,"stateCapital":false,"nationalCapital":false,"pk":null,"quiz":"asia","code":null,"archived":false,"percentageOfSessions":null}, {"name":"Дегтярево","state":"Tyumen","territory":"","country":"Russia","latitude":57.8940115,"longitude":68.0849823,"population":309,"stateCapital":false,"nationalCapital":false,"pk":null,"quiz":"asia","code":null,"archived":false,"percentageOfSessions":null}, {"name":"Демьянка","state":"Tyumen","territory":"","country":"Russia","latitude":59.54018,"longitude":69.996078,"population":2710,"stateCapital":false,"nationalCapital":false,"pk":null,"quiz":"asia","code":null,"archived":false,"percentageOfSessions":null}, {"name":"Демьянское","state":"Tyumen","territory":"","country":"Russia","latitude":59.592312,"longitude":69.32473,"population":1816,"stateCapital":false,"nationalCapital":false,"pk":null,"quiz":"asia","code":null,"archived":false,"percentageOfSessions":null}, {"name":"Денисова","state":"Tyumen","territory":"","country":"Russia","latitude":58.2635337,"longitude":68.3794012,"population":28,"stateCapital":false,"nationalCapital":false,"pk":null,"quiz":"asia","code":null,"archived":false,"percentageOfSessions":null}, {"name":"Денисово","state":"Tyumen","territory":"","country":"Russia","latitude":56.6584354,"longitude":65.650388,"population":514,"stateCapital":false,"nationalCapital":false,"pk":null,"quiz":"asia","code":null,"archived":false,"percentageOfSessions":null}, {"name":"Дербень","state":"Tyumen","territory":"","country":"Russia","latitude":56.5383859,"longitude":68.3962845,"population":127,"stateCapital":false,"nationalCapital":false,"pk":null,"quiz":"asia","code":null,"archived":false,"percentageOfSessions":null}, {"name":"Дербыши","state":"Tyumen","territory":"","country":"Russia","latitude":57.1143689,"longitude":65.4464301,"population":201,"stateCapital":false,"nationalCapital":false,"pk":null,"quiz":"asia","code":null,"archived":false,"percentageOfSessions":null}, {"name":"Десятова","state":"Tyumen","territory":"","country":"Russia","latitude":56.259239,"longitude":68.903931,"population":552,"stateCapital":false,"nationalCapital":false,"pk":null,"quiz":"asia","code":null,"archived":false,"percentageOfSessions":null}, {"name":"Детский дом N 29","state":"Tyumen","territory":"","country":"Russia","latitude":56.034012,"longitude":69.460083,"population":36,"stateCapital":false,"nationalCapital":false,"pk":null,"quiz":"asia","code":null,"archived":false,"percentageOfSessions":null}, {"name":"Детский санаторий","state":"Tyumen","territory":"","country":"Russia","latitude":56.038357,"longitude":69.483604,"population":38,"stateCapital":false,"nationalCapital":false,"pk":null,"quiz":"asia","code":null,"archived":false,"percentageOfSessions":null}, {"name":"Дмитриевка","state":"Tyumen","territory":"","country":"Russia","latitude":56.3008865,"longitude":67.8109491,"population":80,"stateCapital":false,"nationalCapital":false,"pk":null,"quiz":"asia","code":null,"archived":false,"percentageOfSessions":null}, {"name":"Долбилова","state":"Tyumen","territory":"","country":"Russia","latitude":58.0037389,"longitude":68.1223874,"population":12,"stateCapital":false,"nationalCapital":false,"pk":null,"quiz":"asia","code":null,"archived":false,"percentageOfSessions":null}, {"name":"Долговская","state":"Tyumen","territory":"","country":"Russia","latitude":58.0414096,"longitude":69.0190097,"population":0,"stateCapital":false,"nationalCapital":false,"pk":null,"quiz":"asia","code":null,"archived":false,"percentageOfSessions":null}, {"name":"Долгушино","state":"Tyumen","territory":"","country":"Russia","latitude":56.9087777,"longitude":70.6716076,"population":129,"stateCapital":false,"nationalCapital":false,"pk":null,"quiz":"asia","code":null,"archived":false,"percentageOfSessions":null}, {"name":"Долматово","state":"Tyumen","territory":"","country":"Russia","latitude":55.7723394,"longitude":69.7284502,"population":107,"stateCapital":false,"nationalCapital":false,"pk":null,"quiz":"asia","code":null,"archived":false,"percentageOfSessions":null}, {"name":"Дом отдыха","state":"Tyumen","territory":"","country":"Russia","latitude":56.0222902,"longitude":69.477432,"population":186,"stateCapital":false,"nationalCapital":false,"pk":null,"quiz":"asia","code":null,"archived":false,"percentageOfSessions":null}, {"name":"Домнино","state":"Tyumen","territory":"","country":"Russia","latitude":57.7995812,"longitude":69.3114692,"population":34,"stateCapital":false,"nationalCapital":false,"pk":null,"quiz":"asia","code":null,"archived":false,"percentageOfSessions":null}, {"name":"Доронина","state":"Tyumen","territory":"","country":"Russia","latitude":58.0230413,"longitude":69.2862729,"population":1,"stateCapital":false,"nationalCapital":false,"pk":null,"quiz":"asia","code":null,"archived":false,"percentageOfSessions":null}, {"name":"Доставалово","state":"Tyumen","territory":"","country":"Russia","latitude":56.7262626,"longitude":70.5763369,"population":188,"stateCapital":false,"nationalCapital":false,"pk":null,"quiz":"asia","code":null,"archived":false,"percentageOfSessions":null}, {"name":"Дранкова","state":"Tyumen","territory":"","country":"Russia","latitude":56.546917,"longitude":68.4413918,"population":130,"stateCapital":false,"nationalCapital":false,"pk":null,"quiz":"asia","code":null,"archived":false,"percentageOfSessions":null}, {"name":"Дробинина","state":"Tyumen","territory":"","country":"Russia","latitude":56.113658,"longitude":66.0128735,"population":31,"stateCapital":false,"nationalCapital":false,"pk":null,"quiz":"asia","code":null,"archived":false,"percentageOfSessions":null}, {"name":"Дронова","state":"Tyumen","territory":"","country":"Russia","latitude":56.353298,"longitude":66.747047,"population":455,"stateCapital":false,"nationalCapital":false,"pk":null,"quiz":"asia","code":null,"archived":false,"percentageOfSessions":null}, {"name":"Друганова","state":"Tyumen","territory":"","country":"Russia","latitude":56.9625284,"longitude":65.3330238,"population":451,"stateCapital":false,"nationalCapital":false,"pk":null,"quiz":"asia","code":null,"archived":false,"percentageOfSessions":null}, {"name":"Дуброва","state":"Tyumen","territory":"","country":"Russia","latitude":57.6192775,"longitude":67.0800673,"population":26,"stateCapital":false,"nationalCapital":false,"pk":null,"quiz":"asia","code":null,"archived":false,"percentageOfSessions":null}, {"name":"Дубровинский","state":"Tyumen","territory":"","country":"Russia","latitude":56.0108766,"longitude":66.5225287,"population":160,"stateCapital":false,"nationalCapital":false,"pk":null,"quiz":"asia","code":null,"archived":false,"percentageOfSessions":null}, {"name":"Дубровное","state":"Tyumen","territory":"","country":"Russia","latitude":57.9564105,"longitude":69.4238017,"population":1187,"stateCapital":false,"nationalCapital":false,"pk":null,"quiz":"asia","code":null,"archived":false,"percentageOfSessions":null}, {"name":"Дубровное","state":"Tyumen","territory":"","country":"Russia","latitude":57.1756115,"longitude":66.5849826,"population":649,"stateCapital":false,"nationalCapital":false,"pk":null,"quiz":"asia","code":null,"archived":false,"percentageOfSessions":null}, {"name":"Дубынка","state":"Tyumen","territory":"","country":"Russia","latitude":55.48658,"longitude":68.902863,"population":566,"stateCapital":false,"nationalCapital":false,"pk":null,"quiz":"asia","code":null,"archived":false,"percentageOfSessions":null}, {"name":"Дударева","state":"Tyumen","territory":"","country":"Russia","latitude":57.1144824,"longitude":65.4665434,"population":113,"stateCapital":false,"nationalCapital":false,"pk":null,"quiz":"asia","code":null,"archived":false,"percentageOfSessions":null}, {"name":"Дулепина","state":"Tyumen","territory":"","country":"Russia","latitude":57.1578356,"longitude":66.7089237,"population":31,"stateCapital":false,"nationalCapital":false,"pk":null,"quiz":"asia","code":null,"archived":false,"percentageOfSessions":null}, {"name":"Дурынина","state":"Tyumen","territory":"","country":"Russia","latitude":58.3364536,"longitude":68.3113279,"population":14,"stateCapital":false,"nationalCapital":false,"pk":null,"quiz":"asia","code":null,"archived":false,"percentageOfSessions":null}, {"name":"Евсино","state":"Tyumen","territory":"","country":"Russia","latitude":56.7027785,"longitude":68.2923112,"population":391,"stateCapital":false,"nationalCapital":false,"pk":null,"quiz":"asia","code":null,"archived":false,"percentageOfSessions":null}, {"name":"Екатериновка","state":"Tyumen","territory":"","country":"Russia","latitude":56.289272,"longitude":69.440117,"population":101,"stateCapital":false,"nationalCapital":false,"pk":null,"quiz":"asia","code":null,"archived":false,"percentageOfSessions":null}, {"name":"Еланская","state":"Tyumen","territory":"","country":"Russia","latitude":57.9533649,"longitude":70.3758312,"population":34,"stateCapital":false,"nationalCapital":false,"pk":null,"quiz":"asia","code":null,"archived":false,"percentageOfSessions":null}, {"name":"Елань","state":"Tyumen","territory":"","country":"Russia","latitude":57.9533991,"longitude":68.8722205,"population":5,"stateCapital":false,"nationalCapital":false,"pk":null,"quiz":"asia","code":null,"archived":false,"percentageOfSessions":null}, {"name":"Елань","state":"Tyumen","territory":"","country":"Russia","latitude":57.9726303,"longitude":67.7354572,"population":72,"stateCapital":false,"nationalCapital":false,"pk":null,"quiz":"asia","code":null,"archived":false,"percentageOfSessions":null}, {"name":"Елань","state":"Tyumen","territory":"","country":"Russia","latitude":57.100399,"longitude":65.127991,"population":57,"stateCapital":false,"nationalCapital":false,"pk":null,"quiz":"asia","code":null,"archived":false,"percentageOfSessions":null}, {"name":"Елань","state":"Tyumen","territory":"","country":"Russia","latitude":57.8350401,"longitude":66.668681,"population":99,"stateCapital":false,"nationalCapital":false,"pk":null,"quiz":"asia","code":null,"archived":false,"percentageOfSessions":null}, {"name":"Елань-Яр","state":"Tyumen","territory":"","country":"Russia","latitude":57.9297274,"longitude":69.7205407,"population":25,"stateCapital":false,"nationalCapital":false,"pk":null,"quiz":"asia","code":null,"archived":false,"percentageOfSessions":null}, {"name":"Еловка","state":"Tyumen","territory":"","country":"Russia","latitude":57.2226921,"longitude":70.9243312,"population":46,"stateCapital":false,"nationalCapital":false,"pk":null,"quiz":"asia","code":null,"archived":false,"percentageOfSessions":null}, {"name":"Ельцово","state":"Tyumen","territory":"","country":"Russia","latitude":55.3987563,"longitude":69.3395537,"population":342,"stateCapital":false,"nationalCapital":false,"pk":null,"quiz":"asia","code":null,"archived":false,"percentageOfSessions":null}, {"name":"Еманаул","state":"Tyumen","territory":"","country":"Russia","latitude":58.0600973,"longitude":66.9448893,"population":1,"stateCapital":false,"nationalCapital":false,"pk":null,"quiz":"asia","code":null,"archived":false,"percentageOfSessions":null}, {"name":"Ембаево","state":"Tyumen","territory":"","country":"Russia","latitude":57.1497144,"longitude":65.7737534,"population":2959,"stateCapital":false,"nationalCapital":false,"pk":null,"quiz":"asia","code":null,"archived":false,"percentageOfSessions":null}, {"name":"Емуртла","state":"Tyumen","territory":"","country":"Russia","latitude":56.1601031,"longitude":66.4681718,"population":724,"stateCapital":false,"nationalCapital":false,"pk":null,"quiz":"asia","code":null,"archived":false,"percentageOfSessions":null}, {"name":"Емуртлинский","state":"Tyumen","territory":"","country":"Russia","latitude":56.1548282,"longitude":66.4990548,"population":701,"stateCapital":false,"nationalCapital":false,"pk":null,"quiz":"asia","code":null,"archived":false,"percentageOfSessions":null}, {"name":"Епанчина","state":"Tyumen","territory":"","country":"Russia","latitude":58.0974605,"longitude":68.7248349,"population":217,"stateCapital":false,"nationalCapital":false,"pk":null,"quiz":"asia","code":null,"archived":false,"percentageOfSessions":null}, {"name":"Еремина","state":"Tyumen","territory":"","country":"Russia","latitude":56.3436716,"longitude":70.4730826,"population":103,"stateCapital":false,"nationalCapital":false,"pk":null,"quiz":"asia","code":null,"archived":false,"percentageOfSessions":null}, {"name":"Еремино","state":"Tyumen","territory":"","country":"Russia","latitude":57.7251819,"longitude":65.9718796,"population":94,"stateCapital":false,"nationalCapital":false,"pk":null,"quiz":"asia","code":null,"archived":false,"percentageOfSessions":null}, {"name":"Ермаки","state":"Tyumen","territory":"","country":"Russia","latitude":57.8457198,"longitude":69.18321,"population":0,"stateCapital":false,"nationalCapital":false,"pk":null,"quiz":"asia","code":null,"archived":false,"percentageOfSessions":null}, {"name":"Ермаки","state":"Tyumen","territory":"","country":"Russia","latitude":57.2544058,"longitude":70.936495,"population":265,"stateCapital":false,"nationalCapital":false,"pk":null,"quiz":"asia","code":null,"archived":false,"percentageOfSessions":null}, {"name":"Ермаково","state":"Tyumen","territory":"","country":"Russia","latitude":58.1049336,"longitude":68.065956,"population":231,"stateCapital":false,"nationalCapital":false,"pk":null,"quiz":"asia","code":null,"archived":false,"percentageOfSessions":null}, {"name":"Ершина","state":"Tyumen","territory":"","country":"Russia","latitude":56.6190681,"longitude":65.1535573,"population":177,"stateCapital":false,"nationalCapital":false,"pk":null,"quiz":"asia","code":null,"archived":false,"percentageOfSessions":null}, {"name":"Ершово","state":"Tyumen","territory":"","country":"Russia","latitude":56.1778681,"longitude":69.3043329,"population":397,"stateCapital":false,"nationalCapital":false,"pk":null,"quiz":"asia","code":null,"archived":false,"percentageOfSessions":null}, {"name":"Есаулова","state":"Tyumen","territory":"","country":"Russia","latitude":57.1464824,"longitude":65.9385746,"population":417,"stateCapital":false,"nationalCapital":false,"pk":null,"quiz":"asia","code":null,"archived":false,"percentageOfSessions":null}, {"name":"Ефимова","state":"Tyumen","territory":"","country":"Russia","latitude":56.1996896,"longitude":70.152784,"population":64,"stateCapital":false,"nationalCapital":false,"pk":null,"quiz":"asia","code":null,"archived":false,"percentageOfSessions":null}, {"name":"Железный Перебор","state":"Tyumen","territory":"","country":"Russia","latitude":56.9757543,"longitude":66.018675,"population":282,"stateCapital":false,"nationalCapital":false,"pk":null,"quiz":"asia","code":null,"archived":false,"percentageOfSessions":null}, {"name":"Желнина","state":"Tyumen","territory":"","country":"Russia","latitude":56.697681,"longitude":70.125267,"population":146,"stateCapital":false,"nationalCapital":false,"pk":null,"quiz":"asia","code":null,"archived":false,"percentageOfSessions":null}, {"name":"Жигули","state":"Tyumen","territory":"","country":"Russia","latitude":57.1703406,"longitude":71.1672153,"population":62,"stateCapital":false,"nationalCapital":false,"pk":null,"quiz":"asia","code":null,"archived":false,"percentageOfSessions":null}, {"name":"Жидоусово","state":"Tyumen","territory":"","country":"Russia","latitude":56.7377538,"longitude":69.9891687,"population":206,"stateCapital":false,"nationalCapital":false,"pk":null,"quiz":"asia","code":null,"archived":false,"percentageOfSessions":null}, {"name":"Жиряково","state":"Tyumen","territory":"","country":"Russia","latitude":55.8197944,"longitude":67.5020036,"population":194,"stateCapital":false,"nationalCapital":false,"pk":null,"quiz":"asia","code":null,"archived":false,"percentageOfSessions":null}, {"name":"Журавлева","state":"Tyumen","territory":"","country":"Russia","latitude":57.8446622,"longitude":69.2093798,"population":5,"stateCapital":false,"nationalCapital":false,"pk":null,"quiz":"asia","code":null,"archived":false,"percentageOfSessions":null}, {"name":"Журавлевское","state":"Tyumen","territory":"","country":"Russia","latitude":56.2683221,"longitude":67.6823217,"population":372,"stateCapital":false,"nationalCapital":false,"pk":null,"quiz":"asia","code":null,"archived":false,"percentageOfSessions":null}, {"name":"Заборка","state":"Tyumen","territory":"","country":"Russia","latitude":56.6203159,"longitude":70.7410861,"population":187,"stateCapital":false,"nationalCapital":false,"pk":null,"quiz":"asia","code":null,"archived":false,"percentageOfSessions":null}, {"name":"Забошное","state":"Tyumen","territory":"","country":"Russia","latitude":55.9009989,"longitude":68.0026412,"population":54,"stateCapital":false,"nationalCapital":false,"pk":null,"quiz":"asia","code":null,"archived":false,"percentageOfSessions":null}, {"name":"Заводопетровское","state":"Tyumen","territory":"","country":"Russia","latitude":56.840256,"longitude":66.726006,"population":743,"stateCapital":false,"nationalCapital":false,"pk":null,"quiz":"asia","code":null,"archived":false,"percentageOfSessions":null}, {"name":"Заводоуковск","state":"Tyumen","territory":"","country":"Russia","latitude":56.509293,"longitude":66.539261,"population":25647,"stateCapital":false,"nationalCapital":false,"pk":null,"quiz":"asia","code":null,"archived":false,"percentageOfSessions":null}, {"name":"Заворохино","state":"Tyumen","territory":"","country":"Russia","latitude":56.162884,"longitude":69.631416,"population":148,"stateCapital":false,"nationalCapital":false,"pk":null,"quiz":"asia","code":null,"archived":false,"percentageOfSessions":null}, {"name":"Заворуева","state":"Tyumen","territory":"","country":"Russia","latitude":56.8428997,"longitude":67.3288213,"population":54,"stateCapital":false,"nationalCapital":false,"pk":null,"quiz":"asia","code":null,"archived":false,"percentageOfSessions":null}, {"name":"Завьялово","state":"Tyumen","territory":"","country":"Russia","latitude":56.1762008,"longitude":69.2133501,"population":203,"stateCapital":false,"nationalCapital":false,"pk":null,"quiz":"asia","code":null,"archived":false,"percentageOfSessions":null}, {"name":"Загваздина","state":"Tyumen","territory":"","country":"Russia","latitude":58.1203887,"longitude":68.6761138,"population":255,"stateCapital":false,"nationalCapital":false,"pk":null,"quiz":"asia","code":null,"archived":false,"percentageOfSessions":null}, {"name":"Задонка","state":"Tyumen","territory":"","country":"Russia","latitude":55.555637,"longitude":70.07074,"population":35,"stateCapital":false,"nationalCapital":false,"pk":null,"quiz":"asia","code":null,"archived":false,"percentageOfSessions":null}, {"name":"Заимка-Тренина","state":"Tyumen","territory":"","country":"Russia","latitude":58.5595674,"longitude":68.3858389,"population":1,"stateCapital":false,"nationalCapital":false,"pk":null,"quiz":"asia","code":null,"archived":false,"percentageOfSessions":null}, {"name":"Заозерная","state":"Tyumen","territory":"","country":"Russia","latitude":56.8383896,"longitude":67.3393274,"population":194,"stateCapital":false,"nationalCapital":false,"pk":null,"quiz":"asia","code":null,"archived":false,"percentageOfSessions":null}, {"name":"Заозерный","state":"Tyumen","territory":"","country":"Russia","latitude":56.326828,"longitude":69.516129,"population":526,"stateCapital":false,"nationalCapital":false,"pk":null,"quiz":"asia","code":null,"archived":false,"percentageOfSessions":null}, {"name":"Заречка","state":"Tyumen","territory":"","country":"Russia","latitude":55.495457,"longitude":68.891426,"population":240,"stateCapital":false,"nationalCapital":false,"pk":null,"quiz":"asia","code":null,"archived":false,"percentageOfSessions":null}, {"name":"Заречный","state":"Tyumen","territory":"","country":"Russia","latitude":57.8818238,"longitude":69.128834,"population":1382,"stateCapital":false,"nationalCapital":false,"pk":null,"quiz":"asia","code":null,"archived":false,"percentageOfSessions":null}, {"name":"Заречный","state":"Tyumen","territory":"","country":"Russia","latitude":57.4807046,"longitude":67.1058913,"population":148,"stateCapital":false,"nationalCapital":false,"pk":null,"quiz":"asia","code":null,"archived":false,"percentageOfSessions":null}, {"name":"Зарослое","state":"Tyumen","territory":"","country":"Russia","latitude":55.4781046,"longitude":68.6107358,"population":465,"stateCapital":false,"nationalCapital":false,"pk":null,"quiz":"asia","code":null,"archived":false,"percentageOfSessions":null}, {"name":"Зеленый","state":"Tyumen","territory":"","country":"Russia","latitude":56.1791069,"longitude":69.8623226,"population":33,"stateCapital":false,"nationalCapital":false,"pk":null,"quiz":"asia","code":null,"archived":false,"percentageOfSessions":null}, {"name":"Земляная","state":"Tyumen","territory":"","country":"Russia","latitude":56.16005,"longitude":69.914669,"population":6,"stateCapital":false,"nationalCapital":false,"pk":null,"quiz":"asia","code":null,"archived":false,"percentageOfSessions":null}, {"name":"Земляная","state":"Tyumen","territory":"","country":"Russia","latitude":56.2121866,"longitude":68.4618126,"population":486,"stateCapital":false,"nationalCapital":false,"pk":null,"quiz":"asia","code":null,"archived":false,"percentageOfSessions":null}, {"name":"Зерновой","state":"Tyumen","territory":"","country":"Russia","latitude":56.4636166,"longitude":66.7810316,"population":51,"stateCapital":false,"nationalCapital":false,"pk":null,"quiz":"asia","code":null,"archived":false,"percentageOfSessions":null}, {"name":"Зерновой","state":"Tyumen","territory":"","country":"Russia","latitude":56.6070121,"longitude":65.4022085,"population":150,"stateCapital":false,"nationalCapital":false,"pk":null,"quiz":"asia","code":null,"archived":false,"percentageOfSessions":null}, {"name":"Зимовье-Вагай","state":"Tyumen","territory":"","country":"Russia","latitude":56.500847,"longitude":67.311417,"population":153,"stateCapital":false,"nationalCapital":false,"pk":null,"quiz":"asia","code":null,"archived":false,"percentageOfSessions":null}, {"name":"Зиново","state":"Tyumen","territory":"","country":"Russia","latitude":56.6415403,"longitude":66.1292147,"population":671,"stateCapital":false,"nationalCapital":false,"pk":null,"quiz":"asia","code":null,"archived":false,"percentageOfSessions":null}, {"name":"Знаменщиково","state":"Tyumen","territory":"","country":"Russia","latitude":56.5707734,"longitude":70.2867158,"population":258,"stateCapital":false,"nationalCapital":false,"pk":null,"quiz":"asia","code":null,"archived":false,"percentageOfSessions":null}, {"name":"Зольникова","state":"Tyumen","territory":"","country":"Russia","latitude":58.480785,"longitude":68.1624258,"population":13,"stateCapital":false,"nationalCapital":false,"pk":null,"quiz":"asia","code":null,"archived":false,"percentageOfSessions":null}, {"name":"Зоново","state":"Tyumen","territory":"","country":"Russia","latitude":56.7180369,"longitude":67.0762356,"population":279,"stateCapital":false,"nationalCapital":false,"pk":null,"quiz":"asia","code":null,"archived":false,"percentageOfSessions":null}, {"name":"Зубарева","state":"Tyumen","territory":"","country":"Russia","latitude":57.0849646,"longitude":65.268045,"population":222,"stateCapital":false,"nationalCapital":false,"pk":null,"quiz":"asia","code":null,"archived":false,"percentageOfSessions":null}, {"name":"Зырянка","state":"Tyumen","territory":"","country":"Russia","latitude":56.135155,"longitude":69.4978024,"population":798,"stateCapital":false,"nationalCapital":false,"pk":null,"quiz":"asia","code":null,"archived":false,"percentageOfSessions":null}, {"name":"Зырянка","state":"Tyumen","territory":"","country":"Russia","latitude":57.133381,"longitude":65.029968,"population":860,"stateCapital":false,"nationalCapital":false,"pk":null,"quiz":"asia","code":null,"archived":false,"percentageOfSessions":null}, {"name":"Иванова","state":"Tyumen","territory":"","country":"Russia","latitude":56.9918137,"longitude":68.8751634,"population":21,"stateCapital":false,"nationalCapital":false,"pk":null,"quiz":"asia","code":null,"archived":false,"percentageOfSessions":null}, {"name":"Ивановка","state":"Tyumen","territory":"","country":"Russia","latitude":56.3079687,"longitude":69.3090614,"population":31,"stateCapital":false,"nationalCapital":false,"pk":null,"quiz":"asia","code":null,"archived":false,"percentageOfSessions":null}, {"name":"Ивановка","state":"Tyumen","territory":"","country":"Russia","latitude":59.0838644,"longitude":68.8946055,"population":439,"stateCapital":false,"nationalCapital":false,"pk":null,"quiz":"asia","code":null,"archived":false,"percentageOfSessions":null}, {"name":"Ивановка","state":"Tyumen","territory":"","country":"Russia","latitude":57.0647765,"longitude":66.7766887,"population":391,"stateCapital":false,"nationalCapital":false,"pk":null,"quiz":"asia","code":null,"archived":false,"percentageOfSessions":null}, {"name":"Иваново","state":"Tyumen","territory":"","country":"Russia","latitude":56.0879132,"longitude":67.7679647,"population":538,"stateCapital":false,"nationalCapital":false,"pk":null,"quiz":"asia","code":null,"archived":false,"percentageOfSessions":null}, {"name":"Ивашкина","state":"Tyumen","territory":"","country":"Russia","latitude":57.565318,"longitude":66.2930649,"population":30,"stateCapital":false,"nationalCapital":false,"pk":null,"quiz":"asia","code":null,"archived":false,"percentageOfSessions":null}, {"name":"Иевлево","state":"Tyumen","territory":"","country":"Russia","latitude":57.5747539,"longitude":67.1534206,"population":449,"stateCapital":false,"nationalCapital":false,"pk":null,"quiz":"asia","code":null,"archived":false,"percentageOfSessions":null}, {"name":"Иземеть","state":"Tyumen","territory":"","country":"Russia","latitude":58.649092,"longitude":67.6126697,"population":189,"stateCapital":false,"nationalCapital":false,"pk":null,"quiz":"asia","code":null,"archived":false,"percentageOfSessions":null}, {"name":"Изюк","state":"Tyumen","territory":"","country":"Russia","latitude":57.9574912,"longitude":69.0577871,"population":33,"stateCapital":false,"nationalCapital":false,"pk":null,"quiz":"asia","code":null,"archived":false,"percentageOfSessions":null}, {"name":"Иковское","state":"Tyumen","territory":"","country":"Russia","latitude":56.813291,"longitude":70.3732245,"population":123,"stateCapital":false,"nationalCapital":false,"pk":null,"quiz":"asia","code":null,"archived":false,"percentageOfSessions":null}, {"name":"Ильинка","state":"Tyumen","territory":"","country":"Russia","latitude":55.4475635,"longitude":69.3261641,"population":1592,"stateCapital":false,"nationalCapital":false,"pk":null,"quiz":"asia","code":null,"archived":false,"percentageOfSessions":null}, {"name":"Ингаир","state":"Tyumen","territory":"","country":"Russia","latitude":58.6071914,"longitude":68.7669441,"population":245,"stateCapital":false,"nationalCapital":false,"pk":null,"quiz":"asia","code":null,"archived":false,"percentageOfSessions":null}, {"name":"Ингалинское","state":"Tyumen","territory":"","country":"Russia","latitude":56.4235708,"longitude":65.946411,"population":609,"stateCapital":false,"nationalCapital":false,"pk":null,"quiz":"asia","code":null,"archived":false,"percentageOfSessions":null}, {"name":"Индери","state":"Tyumen","territory":"","country":"Russia","latitude":57.4934111,"longitude":69.2111033,"population":204,"stateCapital":false,"nationalCapital":false,"pk":null,"quiz":"asia","code":null,"archived":false,"percentageOfSessions":null}, {"name":"Инжура","state":"Tyumen","territory":"","country":"Russia","latitude":58.0634665,"longitude":69.1931744,"population":192,"stateCapital":false,"nationalCapital":false,"pk":null,"quiz":"asia","code":null,"archived":false,"percentageOfSessions":null}, {"name":"Ипкуль","state":"Tyumen","territory":"","country":"Russia","latitude":57.381041,"longitude":66.1129915,"population":93,"stateCapital":false,"nationalCapital":false,"pk":null,"quiz":"asia","code":null,"archived":false,"percentageOfSessions":null}, {"name":"Ирек","state":"Tyumen","territory":"","country":"Russia","latitude":57.7851713,"longitude":67.6160991,"population":130,"stateCapital":false,"nationalCapital":false,"pk":null,"quiz":"asia","code":null,"archived":false,"percentageOfSessions":null}, {"name":"Иртыш","state":"Tyumen","territory":"","country":"Russia","latitude":58.0421421,"longitude":69.4817931,"population":454,"stateCapital":false,"nationalCapital":false,"pk":null,"quiz":"asia","code":null,"archived":false,"percentageOfSessions":null}, {"name":"Иртышатские Юрты","state":"Tyumen","territory":"","country":"Russia","latitude":58.0834856,"longitude":68.2759733,"population":94,"stateCapital":false,"nationalCapital":false,"pk":null,"quiz":"asia","code":null,"archived":false,"percentageOfSessions":null}, {"name":"Исеневская","state":"Tyumen","territory":"","country":"Russia","latitude":58.1629529,"longitude":68.3149587,"population":8,"stateCapital":false,"nationalCapital":false,"pk":null,"quiz":"asia","code":null,"archived":false,"percentageOfSessions":null}, {"name":"Исетское","state":"Tyumen","territory":"","country":"Russia","latitude":56.475377,"longitude":65.3286838,"population":7479,"stateCapital":false,"nationalCapital":false,"pk":null,"quiz":"asia","code":null,"archived":false,"percentageOfSessions":null}, {"name":"Иска","state":"Tyumen","territory":"","country":"Russia","latitude":57.4670221,"longitude":67.1123591,"population":64,"stateCapital":false,"nationalCapital":false,"pk":null,"quiz":"asia","code":null,"archived":false,"percentageOfSessions":null}, {"name":"Иска","state":"Tyumen","territory":"","country":"Russia","latitude":57.5663857,"longitude":65.7846237,"population":1017,"stateCapital":false,"nationalCapital":false,"pk":null,"quiz":"asia","code":null,"archived":false,"percentageOfSessions":null}, {"name":"Иска-Чебаково","state":"Tyumen","territory":"","country":"Russia","latitude":57.4251102,"longitude":66.6101883,"population":5,"stateCapital":false,"nationalCapital":false,"pk":null,"quiz":"asia","code":null,"archived":false,"percentageOfSessions":null}, {"name":"Истомина","state":"Tyumen","territory":"","country":"Russia","latitude":58.02246,"longitude":69.3493371,"population":15,"stateCapital":false,"nationalCapital":false,"pk":null,"quiz":"asia","code":null,"archived":false,"percentageOfSessions":null}, {"name":"Источник","state":"Tyumen","territory":"","country":"Russia","latitude":57.1688658,"longitude":65.6896929,"population":687,"stateCapital":false,"nationalCapital":false,"pk":null,"quiz":"asia","code":null,"archived":false,"percentageOfSessions":null}, {"name":"Истошино","state":"Tyumen","territory":"","country":"Russia","latitude":55.9586154,"longitude":68.2355171,"population":496,"stateCapital":false,"nationalCapital":false,"pk":null,"quiz":"asia","code":null,"archived":false,"percentageOfSessions":null}, {"name":"Истяцкая","state":"Tyumen","territory":"","country":"Russia","latitude":57.318719,"longitude":69.1292962,"population":17,"stateCapital":false,"nationalCapital":false,"pk":null,"quiz":"asia","code":null,"archived":false,"percentageOfSessions":null}, {"name":"Ишаирская","state":"Tyumen","territory":"","country":"Russia","latitude":57.9683513,"longitude":70.3033975,"population":83,"stateCapital":false,"nationalCapital":false,"pk":null,"quiz":"asia","code":null,"archived":false,"percentageOfSessions":null}, {"name":"Ишим","state":"Tyumen","territory":"","country":"Russia","latitude":56.1092126,"longitude":69.457152,"population":65243,"stateCapital":false,"nationalCapital":false,"pk":null,"quiz":"asia","code":null,"archived":false,"percentageOfSessions":null}, {"name":"Ишимский","state":"Tyumen","territory":"","country":"Russia","latitude":56.583054,"longitude":65.291664,"population":160,"stateCapital":false,"nationalCapital":false,"pk":null,"quiz":"asia","code":null,"archived":false,"percentageOfSessions":null}, {"name":"Ишменева","state":"Tyumen","territory":"","country":"Russia","latitude":58.6084083,"longitude":67.4208441,"population":134,"stateCapital":false,"nationalCapital":false,"pk":null,"quiz":"asia","code":null,"archived":false,"percentageOfSessions":null}, {"name":"Ищик","state":"Tyumen","territory":"","country":"Russia","latitude":59.4685675,"longitude":69.0626256,"population":54,"stateCapital":false,"nationalCapital":false,"pk":null,"quiz":"asia","code":null,"archived":false,"percentageOfSessions":null}, {"name":"Кавдык","state":"Tyumen","territory":"","country":"Russia","latitude":56.7018403,"longitude":66.1909453,"population":8,"stateCapital":false,"nationalCapital":false,"pk":null,"quiz":"asia","code":null,"archived":false,"percentageOfSessions":null}, {"name":"Казанка","state":"Tyumen","territory":"","country":"Russia","latitude":56.3757081,"longitude":69.7490546,"population":144,"stateCapital":false,"nationalCapital":false,"pk":null,"quiz":"asia","code":null,"archived":false,"percentageOfSessions":null}, {"name":"Казанка","state":"Tyumen","territory":"","country":"Russia","latitude":57.5356869,"longitude":65.309035,"population":100,"stateCapital":false,"nationalCapital":false,"pk":null,"quiz":"asia","code":null,"archived":false,"percentageOfSessions":null}, {"name":"Казанское","state":"Tyumen","territory":"","country":"Russia","latitude":57.7925889,"longitude":69.6551003,"population":449,"stateCapital":false,"nationalCapital":false,"pk":null,"quiz":"asia","code":null,"archived":false,"percentageOfSessions":null}, {"name":"Казанское","state":"Tyumen","territory":"","country":"Russia","latitude":55.6434378,"longitude":69.2419265,"population":5932,"stateCapital":false,"nationalCapital":false,"pk":null,"quiz":"asia","code":null,"archived":false,"percentageOfSessions":null}, {"name":"Казарма 10 Км","state":"Tyumen","territory":"","country":"Russia","latitude":56.467102,"longitude":67.427391,"population":6,"stateCapital":false,"nationalCapital":false,"pk":null,"quiz":"asia","code":null,"archived":false,"percentageOfSessions":null},