{"cities":[{"name":"Абезь","state":"Komi","territory":"","country":"Russia","latitude":66.520378,"longitude":61.753105,"population":478,"stateCapital":false,"nationalCapital":false,"pk":null,"quiz":"asia","code":null,"archived":false,"percentageOfSessions":null}, {"name":"Абезь","state":"Komi","territory":"","country":"Russia","latitude":66.520378,"longitude":61.753105,"population":117,"stateCapital":false,"nationalCapital":false,"pk":null,"quiz":"asia","code":null,"archived":false,"percentageOfSessions":null}, {"name":"Аджером","state":"Komi","territory":"","country":"Russia","latitude":61.852875,"longitude":51.677208,"population":774,"stateCapital":false,"nationalCapital":false,"pk":null,"quiz":"asia","code":null,"archived":false,"percentageOfSessions":null}, {"name":"Адзьва","state":"Komi","territory":"","country":"Russia","latitude":66.5554,"longitude":59.4202,"population":0,"stateCapital":false,"nationalCapital":false,"pk":null,"quiz":"asia","code":null,"archived":false,"percentageOfSessions":null}, {"name":"Адзьвавом","state":"Komi","territory":"","country":"Russia","latitude":66.5952,"longitude":59.29557,"population":98,"stateCapital":false,"nationalCapital":false,"pk":null,"quiz":"asia","code":null,"archived":false,"percentageOfSessions":null}, {"name":"Айкино","state":"Komi","territory":"","country":"Russia","latitude":62.224483,"longitude":49.992413,"population":3367,"stateCapital":false,"nationalCapital":false,"pk":null,"quiz":"asia","code":null,"archived":false,"percentageOfSessions":null}, {"name":"Аким","state":"Komi","territory":"","country":"Russia","latitude":63.742893,"longitude":53.726051,"population":21,"stateCapital":false,"nationalCapital":false,"pk":null,"quiz":"asia","code":null,"archived":false,"percentageOfSessions":null}, {"name":"Акись","state":"Komi","territory":"","country":"Russia","latitude":65.83783,"longitude":56.753357,"population":130,"stateCapital":false,"nationalCapital":false,"pk":null,"quiz":"asia","code":null,"archived":false,"percentageOfSessions":null}, {"name":"Алексеевка","state":"Komi","territory":"","country":"Russia","latitude":62.389923,"longitude":52.929836,"population":103,"stateCapital":false,"nationalCapital":false,"pk":null,"quiz":"asia","code":null,"archived":false,"percentageOfSessions":null}, {"name":"Аникеевка","state":"Komi","territory":"","country":"Russia","latitude":61.898026,"longitude":52.058685,"population":9,"stateCapital":false,"nationalCapital":false,"pk":null,"quiz":"asia","code":null,"archived":false,"percentageOfSessions":null}, {"name":"Анкерская","state":"Komi","territory":"","country":"Russia","latitude":60.6831732,"longitude":48.7228212,"population":20,"stateCapital":false,"nationalCapital":false,"pk":null,"quiz":"asia","code":null,"archived":false,"percentageOfSessions":null}, {"name":"Ануфриевка","state":"Komi","territory":"","country":"Russia","latitude":61.884129,"longitude":52.035774,"population":2,"stateCapital":false,"nationalCapital":false,"pk":null,"quiz":"asia","code":null,"archived":false,"percentageOfSessions":null}, {"name":"Аныб","state":"Komi","territory":"","country":"Russia","latitude":61.8706735,"longitude":53.0135174,"population":204,"stateCapital":false,"nationalCapital":false,"pk":null,"quiz":"asia","code":null,"archived":false,"percentageOfSessions":null}, {"name":"Анюша","state":"Komi","territory":"","country":"Russia","latitude":62.7001953,"longitude":50.7425401,"population":21,"stateCapital":false,"nationalCapital":false,"pk":null,"quiz":"asia","code":null,"archived":false,"percentageOfSessions":null}, {"name":"Арабач","state":"Komi","territory":"","country":"Russia","latitude":62.1240789,"longitude":49.8256326,"population":115,"stateCapital":false,"nationalCapital":false,"pk":null,"quiz":"asia","code":null,"archived":false,"percentageOfSessions":null}, {"name":"Аранец","state":"Komi","territory":"","country":"Russia","latitude":64.8327023,"longitude":57.8455823,"population":49,"stateCapital":false,"nationalCapital":false,"pk":null,"quiz":"asia","code":null,"archived":false,"percentageOfSessions":null}, {"name":"Архиповка","state":"Komi","territory":"","country":"Russia","latitude":59.4961542,"longitude":49.4509912,"population":102,"stateCapital":false,"nationalCapital":false,"pk":null,"quiz":"asia","code":null,"archived":false,"percentageOfSessions":null}, {"name":"Бадьёль","state":"Komi","territory":"","country":"Russia","latitude":62.7684868,"longitude":55.6422276,"population":109,"stateCapital":false,"nationalCapital":false,"pk":null,"quiz":"asia","code":null,"archived":false,"percentageOfSessions":null}, {"name":"Бадьёльск","state":"Komi","territory":"","country":"Russia","latitude":62.257767,"longitude":54.039024,"population":238,"stateCapital":false,"nationalCapital":false,"pk":null,"quiz":"asia","code":null,"archived":false,"percentageOfSessions":null}, {"name":"Бакур","state":"Komi","territory":"","country":"Russia","latitude":65.0448327,"longitude":53.854694,"population":452,"stateCapital":false,"nationalCapital":false,"pk":null,"quiz":"asia","code":null,"archived":false,"percentageOfSessions":null}, {"name":"Баяркерес","state":"Komi","territory":"","country":"Russia","latitude":61.59034,"longitude":51.573475,"population":14,"stateCapital":false,"nationalCapital":false,"pk":null,"quiz":"asia","code":null,"archived":false,"percentageOfSessions":null}, {"name":"Бедьвож","state":"Komi","territory":"","country":"Russia","latitude":60.0315159,"longitude":49.3626741,"population":45,"stateCapital":false,"nationalCapital":false,"pk":null,"quiz":"asia","code":null,"archived":false,"percentageOfSessions":null}, {"name":"Белоборск","state":"Komi","territory":"","country":"Russia","latitude":61.483345,"longitude":55.567036,"population":244,"stateCapital":false,"nationalCapital":false,"pk":null,"quiz":"asia","code":null,"archived":false,"percentageOfSessions":null}, {"name":"Белый Бор","state":"Komi","territory":"","country":"Russia","latitude":62.5588495,"longitude":56.3991542,"population":222,"stateCapital":false,"nationalCapital":false,"pk":null,"quiz":"asia","code":null,"archived":false,"percentageOfSessions":null}, {"name":"Белый Ю","state":"Komi","territory":"","country":"Russia","latitude":65.275894,"longitude":57.119228,"population":108,"stateCapital":false,"nationalCapital":false,"pk":null,"quiz":"asia","code":null,"archived":false,"percentageOfSessions":null}, {"name":"Беляевская","state":"Komi","territory":"","country":"Russia","latitude":60.3114925,"longitude":49.6410522,"population":175,"stateCapital":false,"nationalCapital":false,"pk":null,"quiz":"asia","code":null,"archived":false,"percentageOfSessions":null}, {"name":"Бердыш","state":"Komi","territory":"","country":"Russia","latitude":61.609628,"longitude":57.9841998,"population":8,"stateCapital":false,"nationalCapital":false,"pk":null,"quiz":"asia","code":null,"archived":false,"percentageOfSessions":null}, {"name":"Березник","state":"Komi","territory":"","country":"Russia","latitude":61.2630643,"longitude":50.5474006,"population":3,"stateCapital":false,"nationalCapital":false,"pk":null,"quiz":"asia","code":null,"archived":false,"percentageOfSessions":null}, {"name":"Березники","state":"Komi","territory":"","country":"Russia","latitude":60.5061542,"longitude":49.5248495,"population":33,"stateCapital":false,"nationalCapital":false,"pk":null,"quiz":"asia","code":null,"archived":false,"percentageOfSessions":null}, {"name":"Берёзовка","state":"Komi","territory":"","country":"Russia","latitude":65.0131476,"longitude":56.5796345,"population":352,"stateCapital":false,"nationalCapital":false,"pk":null,"quiz":"asia","code":null,"archived":false,"percentageOfSessions":null}, {"name":"Берёзовка","state":"Komi","territory":"","country":"Russia","latitude":59.4199372,"longitude":49.6158028,"population":195,"stateCapital":false,"nationalCapital":false,"pk":null,"quiz":"asia","code":null,"archived":false,"percentageOfSessions":null}, {"name":"Благоево","state":"Komi","territory":"","country":"Russia","latitude":63.421181,"longitude":47.95454,"population":2221,"stateCapital":false,"nationalCapital":false,"pk":null,"quiz":"asia","code":null,"archived":false,"percentageOfSessions":null}, {"name":"Богомолово","state":"Komi","territory":"","country":"Russia","latitude":62.123165,"longitude":49.748295,"population":11,"stateCapital":false,"nationalCapital":false,"pk":null,"quiz":"asia","code":null,"archived":false,"percentageOfSessions":null}, {"name":"Богородск","state":"Komi","territory":"","country":"Russia","latitude":62.259823,"longitude":52.486385,"population":697,"stateCapital":false,"nationalCapital":false,"pk":null,"quiz":"asia","code":null,"archived":false,"percentageOfSessions":null}, {"name":"Большая Парма","state":"Komi","territory":"","country":"Russia","latitude":61.981316,"longitude":50.155838,"population":31,"stateCapital":false,"nationalCapital":false,"pk":null,"quiz":"asia","code":null,"archived":false,"percentageOfSessions":null}, {"name":"Большая Пучкома","state":"Komi","territory":"","country":"Russia","latitude":64.0701553,"longitude":46.9045108,"population":153,"stateCapital":false,"nationalCapital":false,"pk":null,"quiz":"asia","code":null,"archived":false,"percentageOfSessions":null}, {"name":"Большая Пысса","state":"Komi","territory":"","country":"Russia","latitude":64.1665162,"longitude":48.8276973,"population":338,"stateCapital":false,"nationalCapital":false,"pk":null,"quiz":"asia","code":null,"archived":false,"percentageOfSessions":null}, {"name":"Большая Слуда","state":"Komi","territory":"","country":"Russia","latitude":62.0094661,"longitude":50.5712488,"population":89,"stateCapital":false,"nationalCapital":false,"pk":null,"quiz":"asia","code":null,"archived":false,"percentageOfSessions":null}, {"name":"Большая Сойва","state":"Komi","territory":"","country":"Russia","latitude":62.6552304,"longitude":56.070435,"population":50,"stateCapital":false,"nationalCapital":false,"pk":null,"quiz":"asia","code":null,"archived":false,"percentageOfSessions":null}, {"name":"Большелуг","state":"Komi","territory":"","country":"Russia","latitude":62.132664,"longitude":52.50119,"population":680,"stateCapital":false,"nationalCapital":false,"pk":null,"quiz":"asia","code":null,"archived":false,"percentageOfSessions":null}, {"name":"Большие Чирки","state":"Komi","territory":"","country":"Russia","latitude":63.8790605,"longitude":47.3211973,"population":6,"stateCapital":false,"nationalCapital":false,"pk":null,"quiz":"asia","code":null,"archived":false,"percentageOfSessions":null}, {"name":"Большое Галово","state":"Komi","territory":"","country":"Russia","latitude":65.2819379,"longitude":53.110885,"population":271,"stateCapital":false,"nationalCapital":false,"pk":null,"quiz":"asia","code":null,"archived":false,"percentageOfSessions":null}, {"name":"Большое Острово","state":"Komi","territory":"","country":"Russia","latitude":64.04686,"longitude":46.996307,"population":6,"stateCapital":false,"nationalCapital":false,"pk":null,"quiz":"asia","code":null,"archived":false,"percentageOfSessions":null}, {"name":"Бор","state":"Komi","territory":"","country":"Russia","latitude":65.5037055,"longitude":51.9838547,"population":15,"stateCapital":false,"nationalCapital":false,"pk":null,"quiz":"asia","code":null,"archived":false,"percentageOfSessions":null}, {"name":"Борово","state":"Komi","territory":"","country":"Russia","latitude":63.535202,"longitude":49.524075,"population":6,"stateCapital":false,"nationalCapital":false,"pk":null,"quiz":"asia","code":null,"archived":false,"percentageOfSessions":null}, {"name":"Боровой","state":"Komi","territory":"","country":"Russia","latitude":63.22924,"longitude":52.890923,"population":1560,"stateCapital":false,"nationalCapital":false,"pk":null,"quiz":"asia","code":null,"archived":false,"percentageOfSessions":null}, {"name":"Боровская","state":"Komi","territory":"","country":"Russia","latitude":65.2438297,"longitude":51.8620619,"population":77,"stateCapital":false,"nationalCapital":false,"pk":null,"quiz":"asia","code":null,"archived":false,"percentageOfSessions":null}, {"name":"Бортом","state":"Komi","territory":"","country":"Russia","latitude":60.8771552,"longitude":50.1769797,"population":327,"stateCapital":false,"nationalCapital":false,"pk":null,"quiz":"asia","code":null,"archived":false,"percentageOfSessions":null}, {"name":"Бортом","state":"Komi","territory":"","country":"Russia","latitude":60.8771552,"longitude":50.1769797,"population":93,"stateCapital":false,"nationalCapital":false,"pk":null,"quiz":"asia","code":null,"archived":false,"percentageOfSessions":null}, {"name":"Брусничный","state":"Komi","territory":"","country":"Russia","latitude":62.8129698,"longitude":50.6340551,"population":75,"stateCapital":false,"nationalCapital":false,"pk":null,"quiz":"asia","code":null,"archived":false,"percentageOfSessions":null}, {"name":"Брыка","state":"Komi","territory":"","country":"Russia","latitude":65.0524701,"longitude":53.859792,"population":26,"stateCapital":false,"nationalCapital":false,"pk":null,"quiz":"asia","code":null,"archived":false,"percentageOfSessions":null}, {"name":"Брыкаланск","state":"Komi","territory":"","country":"Russia","latitude":65.4758318,"longitude":54.2727947,"population":585,"stateCapital":false,"nationalCapital":false,"pk":null,"quiz":"asia","code":null,"archived":false,"percentageOfSessions":null}, {"name":"Бубдор","state":"Komi","territory":"","country":"Russia","latitude":60.879631,"longitude":49.735641,"population":18,"stateCapital":false,"nationalCapital":false,"pk":null,"quiz":"asia","code":null,"archived":false,"percentageOfSessions":null}, {"name":"Буткан","state":"Komi","territory":"","country":"Russia","latitude":63.363558,"longitude":49.0947584,"population":306,"stateCapital":false,"nationalCapital":false,"pk":null,"quiz":"asia","code":null,"archived":false,"percentageOfSessions":null}, {"name":"Бызовая","state":"Komi","territory":"","country":"Russia","latitude":65.0175442,"longitude":57.3760784,"population":122,"stateCapital":false,"nationalCapital":false,"pk":null,"quiz":"asia","code":null,"archived":false,"percentageOfSessions":null}, {"name":"Бык","state":"Komi","territory":"","country":"Russia","latitude":65.7548,"longitude":52.241,"population":0,"stateCapital":false,"nationalCapital":false,"pk":null,"quiz":"asia","code":null,"archived":false,"percentageOfSessions":null}, {"name":"Вавиловка","state":"Komi","territory":"","country":"Russia","latitude":59.2887645,"longitude":49.6552747,"population":5,"stateCapital":false,"nationalCapital":false,"pk":null,"quiz":"asia","code":null,"archived":false,"percentageOfSessions":null}, {"name":"Вад","state":"Komi","territory":"","country":"Russia","latitude":61.586926,"longitude":54.983677,"population":23,"stateCapital":false,"nationalCapital":false,"pk":null,"quiz":"asia","code":null,"archived":false,"percentageOfSessions":null}, {"name":"Вадыб","state":"Komi","territory":"","country":"Russia","latitude":61.077259,"longitude":50.288776,"population":12,"stateCapital":false,"nationalCapital":false,"pk":null,"quiz":"asia","code":null,"archived":false,"percentageOfSessions":null}, {"name":"Важ Эжва","state":"Komi","territory":"","country":"Russia","latitude":61.631954,"longitude":54.917835,"population":4,"stateCapital":false,"nationalCapital":false,"pk":null,"quiz":"asia","code":null,"archived":false,"percentageOfSessions":null}, {"name":"Важгорт","state":"Komi","territory":"","country":"Russia","latitude":64.0126478,"longitude":47.0503302,"population":512,"stateCapital":false,"nationalCapital":false,"pk":null,"quiz":"asia","code":null,"archived":false,"percentageOfSessions":null}, {"name":"Важкуръя","state":"Komi","territory":"","country":"Russia","latitude":61.8604828,"longitude":51.9169236,"population":258,"stateCapital":false,"nationalCapital":false,"pk":null,"quiz":"asia","code":null,"archived":false,"percentageOfSessions":null}, {"name":"Ваймес","state":"Komi","territory":"","country":"Russia","latitude":60.1305049,"longitude":49.2225228,"population":252,"stateCapital":false,"nationalCapital":false,"pk":null,"quiz":"asia","code":null,"archived":false,"percentageOfSessions":null}, {"name":"Ваньпи","state":"Komi","territory":"","country":"Russia","latitude":63.2832353,"longitude":56.3229817,"population":1,"stateCapital":false,"nationalCapital":false,"pk":null,"quiz":"asia","code":null,"archived":false,"percentageOfSessions":null}, {"name":"Варыш","state":"Komi","territory":"","country":"Russia","latitude":65.0360108,"longitude":53.836706,"population":399,"stateCapital":false,"nationalCapital":false,"pk":null,"quiz":"asia","code":null,"archived":false,"percentageOfSessions":null}, {"name":"Васильевка","state":"Komi","territory":"","country":"Russia","latitude":65.354317,"longitude":52.8474048,"population":9,"stateCapital":false,"nationalCapital":false,"pk":null,"quiz":"asia","code":null,"archived":false,"percentageOfSessions":null}, {"name":"Васькино","state":"Komi","territory":"","country":"Russia","latitude":65.8617156,"longitude":55.1412382,"population":89,"stateCapital":false,"nationalCapital":false,"pk":null,"quiz":"asia","code":null,"archived":false,"percentageOfSessions":null}, {"name":"Вежайка","state":"Komi","territory":"","country":"Russia","latitude":62.5628907,"longitude":49.7371722,"population":598,"stateCapital":false,"nationalCapital":false,"pk":null,"quiz":"asia","code":null,"archived":false,"percentageOfSessions":null}, {"name":"Вежъю","state":"Komi","territory":"","country":"Russia","latitude":60.6499685,"longitude":51.1445301,"population":325,"stateCapital":false,"nationalCapital":false,"pk":null,"quiz":"asia","code":null,"archived":false,"percentageOfSessions":null}, {"name":"Вёздино","state":"Komi","territory":"","country":"Russia","latitude":62.1663116,"longitude":49.883391,"population":157,"stateCapital":false,"nationalCapital":false,"pk":null,"quiz":"asia","code":null,"archived":false,"percentageOfSessions":null}, {"name":"Векшор","state":"Komi","territory":"","country":"Russia","latitude":60.5392725,"longitude":49.4412809,"population":25,"stateCapital":false,"nationalCapital":false,"pk":null,"quiz":"asia","code":null,"archived":false,"percentageOfSessions":null}, {"name":"Велдоръя","state":"Komi","territory":"","country":"Russia","latitude":60.0552447,"longitude":49.093759,"population":118,"stateCapital":false,"nationalCapital":false,"pk":null,"quiz":"asia","code":null,"archived":false,"percentageOfSessions":null}, {"name":"Великополье","state":"Komi","territory":"","country":"Russia","latitude":62.0477844,"longitude":54.3208736,"population":181,"stateCapital":false,"nationalCapital":false,"pk":null,"quiz":"asia","code":null,"archived":false,"percentageOfSessions":null}, {"name":"Велпом","state":"Komi","territory":"","country":"Russia","latitude":61.072586,"longitude":50.364136,"population":6,"stateCapital":false,"nationalCapital":false,"pk":null,"quiz":"asia","code":null,"archived":false,"percentageOfSessions":null}, {"name":"Вендинга","state":"Komi","territory":"","country":"Russia","latitude":63.44104,"longitude":47.910652,"population":27,"stateCapital":false,"nationalCapital":false,"pk":null,"quiz":"asia","code":null,"archived":false,"percentageOfSessions":null}, {"name":"Вертеп","state":"Komi","territory":"","country":"Russia","latitude":65.298699,"longitude":53.205124,"population":600,"stateCapital":false,"nationalCapital":false,"pk":null,"quiz":"asia","code":null,"archived":false,"percentageOfSessions":null}, {"name":"Верхнее Бугаево","state":"Komi","territory":"","country":"Russia","latitude":65.9426841,"longitude":52.4627485,"population":85,"stateCapital":false,"nationalCapital":false,"pk":null,"quiz":"asia","code":null,"archived":false,"percentageOfSessions":null}, {"name":"Верхнеижемский","state":"Komi","territory":"","country":"Russia","latitude":63.0016123,"longitude":54.6904988,"population":852,"stateCapital":false,"nationalCapital":false,"pk":null,"quiz":"asia","code":null,"archived":false,"percentageOfSessions":null}, {"name":"Верхнеколвинск","state":"Komi","territory":"","country":"Russia","latitude":66.6729,"longitude":56.9768,"population":0,"stateCapital":false,"nationalCapital":false,"pk":null,"quiz":"asia","code":null,"archived":false,"percentageOfSessions":null}, {"name":"Верхнемезенск","state":"Komi","territory":"","country":"Russia","latitude":64.1634,"longitude":49.515,"population":0,"stateCapital":false,"nationalCapital":false,"pk":null,"quiz":"asia","code":null,"archived":false,"percentageOfSessions":null}, {"name":"Верхний Воч","state":"Komi","territory":"","country":"Russia","latitude":61.138031,"longitude":54.18922,"population":206,"stateCapital":false,"nationalCapital":false,"pk":null,"quiz":"asia","code":null,"archived":false,"percentageOfSessions":null}, {"name":"Верхний Выльыб","state":"Komi","territory":"","country":"Russia","latitude":63.490143,"longitude":49.456635,"population":59,"stateCapital":false,"nationalCapital":false,"pk":null,"quiz":"asia","code":null,"archived":false,"percentageOfSessions":null}, {"name":"Верхний Мыртыю","state":"Komi","territory":"","country":"Russia","latitude":61.549122,"longitude":50.90797,"population":86,"stateCapital":false,"nationalCapital":false,"pk":null,"quiz":"asia","code":null,"archived":false,"percentageOfSessions":null}, {"name":"Верхний Турунъю","state":"Komi","territory":"","country":"Russia","latitude":60.3980726,"longitude":52.0203736,"population":52,"stateCapital":false,"nationalCapital":false,"pk":null,"quiz":"asia","code":null,"archived":false,"percentageOfSessions":null}, {"name":"Верхняя Инта","state":"Komi","territory":"","country":"Russia","latitude":65.988403,"longitude":60.323444,"population":1106,"stateCapital":false,"nationalCapital":false,"pk":null,"quiz":"asia","code":null,"archived":false,"percentageOfSessions":null}, {"name":"Верхняя Максаковка","state":"Komi","territory":"","country":"Russia","latitude":61.634743,"longitude":50.968395,"population":4198,"stateCapital":false,"nationalCapital":false,"pk":null,"quiz":"asia","code":null,"archived":false,"percentageOfSessions":null}, {"name":"Верхняя Омра","state":"Komi","territory":"","country":"Russia","latitude":62.8037697,"longitude":55.4373026,"population":39,"stateCapital":false,"nationalCapital":false,"pk":null,"quiz":"asia","code":null,"archived":false,"percentageOfSessions":null}, {"name":"Верхняя Отла","state":"Komi","territory":"","country":"Russia","latitude":62.7430402,"longitude":50.615818,"population":28,"stateCapital":false,"nationalCapital":false,"pk":null,"quiz":"asia","code":null,"archived":false,"percentageOfSessions":null}, {"name":"Верхняя Седка","state":"Komi","territory":"","country":"Russia","latitude":60.191,"longitude":49.627,"population":0,"stateCapital":false,"nationalCapital":false,"pk":null,"quiz":"asia","code":null,"archived":false,"percentageOfSessions":null}, {"name":"Верховская","state":"Komi","territory":"","country":"Russia","latitude":64.9238734,"longitude":51.6929166,"population":0,"stateCapital":false,"nationalCapital":false,"pk":null,"quiz":"asia","code":null,"archived":false,"percentageOfSessions":null}, {"name":"Верхозерье","state":"Komi","territory":"","country":"Russia","latitude":64.1354,"longitude":46.7585,"population":0,"stateCapital":false,"nationalCapital":false,"pk":null,"quiz":"asia","code":null,"archived":false,"percentageOfSessions":null}, {"name":"Верхолузье","state":"Komi","territory":"","country":"Russia","latitude":59.90289,"longitude":48.7007866,"population":122,"stateCapital":false,"nationalCapital":false,"pk":null,"quiz":"asia","code":null,"archived":false,"percentageOfSessions":null}, {"name":"Веселовка","state":"Komi","territory":"","country":"Russia","latitude":61.471359,"longitude":51.587082,"population":181,"stateCapital":false,"nationalCapital":false,"pk":null,"quiz":"asia","code":null,"archived":false,"percentageOfSessions":null}, {"name":"Весёлый Кут","state":"Komi","territory":"","country":"Russia","latitude":63.4739525,"longitude":53.136229,"population":55,"stateCapital":false,"nationalCapital":false,"pk":null,"quiz":"asia","code":null,"archived":false,"percentageOfSessions":null}, {"name":"Весляна","state":"Komi","territory":"","country":"Russia","latitude":62.9974398,"longitude":50.8901507,"population":24,"stateCapital":false,"nationalCapital":false,"pk":null,"quiz":"asia","code":null,"archived":false,"percentageOfSessions":null}, {"name":"Ветью","state":"Komi","territory":"","country":"Russia","latitude":62.946313,"longitude":50.7909453,"population":141,"stateCapital":false,"nationalCapital":false,"pk":null,"quiz":"asia","code":null,"archived":false,"percentageOfSessions":null}, {"name":"Визинга","state":"Komi","territory":"","country":"Russia","latitude":61.076214,"longitude":50.084496,"population":6810,"stateCapital":false,"nationalCapital":false,"pk":null,"quiz":"asia","code":null,"archived":false,"percentageOfSessions":null}, {"name":"Визиндор","state":"Komi","territory":"","country":"Russia","latitude":60.9692145,"longitude":49.6879045,"population":452,"stateCapital":false,"nationalCapital":false,"pk":null,"quiz":"asia","code":null,"archived":false,"percentageOfSessions":null}, {"name":"Визябож","state":"Komi","territory":"","country":"Russia","latitude":61.7430487,"longitude":51.2105353,"population":127,"stateCapital":false,"nationalCapital":false,"pk":null,"quiz":"asia","code":null,"archived":false,"percentageOfSessions":null}, {"name":"Визябож","state":"Komi","territory":"","country":"Russia","latitude":61.7430487,"longitude":51.2105353,"population":471,"stateCapital":false,"nationalCapital":false,"pk":null,"quiz":"asia","code":null,"archived":false,"percentageOfSessions":null}, {"name":"Винла","state":"Komi","territory":"","country":"Russia","latitude":63.9841911,"longitude":53.6105556,"population":77,"stateCapital":false,"nationalCapital":false,"pk":null,"quiz":"asia","code":null,"archived":false,"percentageOfSessions":null}, {"name":"Вис","state":"Komi","territory":"","country":"Russia","latitude":63.9097168,"longitude":54.4487515,"population":370,"stateCapital":false,"nationalCapital":false,"pk":null,"quiz":"asia","code":null,"archived":false,"percentageOfSessions":null}, {"name":"Вогваздино","state":"Komi","territory":"","country":"Russia","latitude":62.1990886,"longitude":50.4383447,"population":133,"stateCapital":false,"nationalCapital":false,"pk":null,"quiz":"asia","code":null,"archived":false,"percentageOfSessions":null}, {"name":"Водный","state":"Komi","territory":"","country":"Russia","latitude":63.505032,"longitude":53.408073,"population":6382,"stateCapital":false,"nationalCapital":false,"pk":null,"quiz":"asia","code":null,"archived":false,"percentageOfSessions":null}, {"name":"Вожаёль","state":"Komi","territory":"","country":"Russia","latitude":62.845032,"longitude":51.330761,"population":135,"stateCapital":false,"nationalCapital":false,"pk":null,"quiz":"asia","code":null,"archived":false,"percentageOfSessions":null}, {"name":"Вожский","state":"Komi","territory":"","country":"Russia","latitude":62.828928,"longitude":49.304903,"population":2159,"stateCapital":false,"nationalCapital":false,"pk":null,"quiz":"asia","code":null,"archived":false,"percentageOfSessions":null}, {"name":"Возей","state":"Komi","territory":"","country":"Russia","latitude":66.4692,"longitude":57.2038,"population":0,"stateCapital":false,"nationalCapital":false,"pk":null,"quiz":"asia","code":null,"archived":false,"percentageOfSessions":null}, {"name":"Вознесенская","state":"Komi","territory":"","country":"Russia","latitude":60.717239,"longitude":50.269875,"population":9,"stateCapital":false,"nationalCapital":false,"pk":null,"quiz":"asia","code":null,"archived":false,"percentageOfSessions":null}, {"name":"Войвож","state":"Komi","territory":"","country":"Russia","latitude":62.8934678,"longitude":54.963917,"population":3387,"stateCapital":false,"nationalCapital":false,"pk":null,"quiz":"asia","code":null,"archived":false,"percentageOfSessions":null}, {"name":"Волим","state":"Komi","territory":"","country":"Russia","latitude":60.894016,"longitude":49.704048,"population":1,"stateCapital":false,"nationalCapital":false,"pk":null,"quiz":"asia","code":null,"archived":false,"percentageOfSessions":null}, {"name":"Волокпом","state":"Komi","territory":"","country":"Russia","latitude":60.959393,"longitude":50.219124,"population":25,"stateCapital":false,"nationalCapital":false,"pk":null,"quiz":"asia","code":null,"archived":false,"percentageOfSessions":null}, {"name":"Волосница","state":"Komi","territory":"","country":"Russia","latitude":61.7202324,"longitude":57.16666,"population":20,"stateCapital":false,"nationalCapital":false,"pk":null,"quiz":"asia","code":null,"archived":false,"percentageOfSessions":null}, {"name":"Воль","state":"Komi","territory":"","country":"Russia","latitude":61.14513,"longitude":54.362885,"population":15,"stateCapital":false,"nationalCapital":false,"pk":null,"quiz":"asia","code":null,"archived":false,"percentageOfSessions":null}, {"name":"Вольдино","state":"Komi","territory":"","country":"Russia","latitude":62.262226,"longitude":54.186398,"population":256,"stateCapital":false,"nationalCapital":false,"pk":null,"quiz":"asia","code":null,"archived":false,"percentageOfSessions":null}, {"name":"Вомын","state":"Komi","territory":"","country":"Russia","latitude":61.939873,"longitude":52.55619,"population":470,"stateCapital":false,"nationalCapital":false,"pk":null,"quiz":"asia","code":null,"archived":false,"percentageOfSessions":null}, {"name":"Вомын","state":"Komi","territory":"","country":"Russia","latitude":62.194466,"longitude":49.936211,"population":8,"stateCapital":false,"nationalCapital":false,"pk":null,"quiz":"asia","code":null,"archived":false,"percentageOfSessions":null}, {"name":"Вомынбож","state":"Komi","territory":"","country":"Russia","latitude":61.974621,"longitude":54.305805,"population":142,"stateCapital":false,"nationalCapital":false,"pk":null,"quiz":"asia","code":null,"archived":false,"percentageOfSessions":null}, {"name":"Воргашор","state":"Komi","territory":"","country":"Russia","latitude":67.581192,"longitude":63.783737,"population":12044,"stateCapital":false,"nationalCapital":false,"pk":null,"quiz":"asia","code":null,"archived":false,"percentageOfSessions":null}, {"name":"Воркута","state":"Komi","territory":"","country":"Russia","latitude":67.5035662,"longitude":64.0627028,"population":70548,"stateCapital":false,"nationalCapital":false,"pk":null,"quiz":"asia","code":null,"archived":false,"percentageOfSessions":null}, {"name":"Вотинская","state":"Komi","territory":"","country":"Russia","latitude":60.5364302,"longitude":48.7861633,"population":21,"stateCapital":false,"nationalCapital":false,"pk":null,"quiz":"asia","code":null,"archived":false,"percentageOfSessions":null}, {"name":"Вотча","state":"Komi","territory":"","country":"Russia","latitude":61.085213,"longitude":50.342999,"population":40,"stateCapital":false,"nationalCapital":false,"pk":null,"quiz":"asia","code":null,"archived":false,"percentageOfSessions":null}, {"name":"Вуктыл","state":"Komi","territory":"","country":"Russia","latitude":63.844337,"longitude":57.300171,"population":12356,"stateCapital":false,"nationalCapital":false,"pk":null,"quiz":"asia","code":null,"archived":false,"percentageOfSessions":null}, {"name":"Вухтым","state":"Komi","territory":"","country":"Russia","latitude":60.4524071,"longitude":49.6587993,"population":755,"stateCapital":false,"nationalCapital":false,"pk":null,"quiz":"asia","code":null,"archived":false,"percentageOfSessions":null}, {"name":"Выльвидзь","state":"Komi","territory":"","country":"Russia","latitude":63.964116,"longitude":47.1640628,"population":0,"stateCapital":false,"nationalCapital":false,"pk":null,"quiz":"asia","code":null,"archived":false,"percentageOfSessions":null}, {"name":"Выльгорт","state":"Komi","territory":"","country":"Russia","latitude":61.627003,"longitude":50.768478,"population":10289,"stateCapital":false,"nationalCapital":false,"pk":null,"quiz":"asia","code":null,"archived":false,"percentageOfSessions":null}, {"name":"Выльгорт","state":"Komi","territory":"","country":"Russia","latitude":64.060471,"longitude":46.998238,"population":29,"stateCapital":false,"nationalCapital":false,"pk":null,"quiz":"asia","code":null,"archived":false,"percentageOfSessions":null}, {"name":"Выльгорт","state":"Komi","territory":"","country":"Russia","latitude":62.207035,"longitude":54.171505,"population":491,"stateCapital":false,"nationalCapital":false,"pk":null,"quiz":"asia","code":null,"archived":false,"percentageOfSessions":null}, {"name":"Выльтыдор","state":"Komi","territory":"","country":"Russia","latitude":61.6644753,"longitude":50.9364751,"population":622,"stateCapital":false,"nationalCapital":false,"pk":null,"quiz":"asia","code":null,"archived":false,"percentageOfSessions":null}, {"name":"Выльыб","state":"Komi","territory":"","country":"Russia","latitude":62.150444,"longitude":52.467972,"population":226,"stateCapital":false,"nationalCapital":false,"pk":null,"quiz":"asia","code":null,"archived":false,"percentageOfSessions":null}, {"name":"Высокая Гора","state":"Komi","territory":"","country":"Russia","latitude":65.4612,"longitude":52.148,"population":0,"stateCapital":false,"nationalCapital":false,"pk":null,"quiz":"asia","code":null,"archived":false,"percentageOfSessions":null}, {"name":"Габово","state":"Komi","territory":"","country":"Russia","latitude":60.977913,"longitude":53.741215,"population":23,"stateCapital":false,"nationalCapital":false,"pk":null,"quiz":"asia","code":null,"archived":false,"percentageOfSessions":null}, {"name":"Гавриловка","state":"Komi","territory":"","country":"Russia","latitude":61.9931061,"longitude":50.4893978,"population":98,"stateCapital":false,"nationalCapital":false,"pk":null,"quiz":"asia","code":null,"archived":false,"percentageOfSessions":null}, {"name":"Гагшор","state":"Komi","territory":"","country":"Russia","latitude":60.7909804,"longitude":50.189123,"population":156,"stateCapital":false,"nationalCapital":false,"pk":null,"quiz":"asia","code":null,"archived":false,"percentageOfSessions":null}, {"name":"Гажакерес","state":"Komi","territory":"","country":"Russia","latitude":62.1700352,"longitude":50.2042696,"population":32,"stateCapital":false,"nationalCapital":false,"pk":null,"quiz":"asia","code":null,"archived":false,"percentageOfSessions":null}, {"name":"Гажаяг","state":"Komi","territory":"","country":"Russia","latitude":63.2013003,"longitude":54.4983525,"population":58,"stateCapital":false,"nationalCapital":false,"pk":null,"quiz":"asia","code":null,"archived":false,"percentageOfSessions":null}, {"name":"Галахтионовская","state":"Komi","territory":"","country":"Russia","latitude":60.582102,"longitude":48.8604683,"population":84,"stateCapital":false,"nationalCapital":false,"pk":null,"quiz":"asia","code":null,"archived":false,"percentageOfSessions":null}, {"name":"Гам","state":"Komi","territory":"","country":"Russia","latitude":64.984283,"longitude":53.803238,"population":514,"stateCapital":false,"nationalCapital":false,"pk":null,"quiz":"asia","code":null,"archived":false,"percentageOfSessions":null}, {"name":"Гам","state":"Komi","territory":"","country":"Russia","latitude":62.118649,"longitude":49.688068,"population":208,"stateCapital":false,"nationalCapital":false,"pk":null,"quiz":"asia","code":null,"archived":false,"percentageOfSessions":null}, {"name":"Гамлакост","state":"Komi","territory":"","country":"Russia","latitude":62.123489,"longitude":49.786461,"population":9,"stateCapital":false,"nationalCapital":false,"pk":null,"quiz":"asia","code":null,"archived":false,"percentageOfSessions":null}, {"name":"Гарево","state":"Komi","territory":"","country":"Russia","latitude":65.4311506,"longitude":52.3484317,"population":64,"stateCapital":false,"nationalCapital":false,"pk":null,"quiz":"asia","code":null,"archived":false,"percentageOfSessions":null}, {"name":"Гаръя","state":"Komi","territory":"","country":"Russia","latitude":61.369617,"longitude":50.594059,"population":437,"stateCapital":false,"nationalCapital":false,"pk":null,"quiz":"asia","code":null,"archived":false,"percentageOfSessions":null}, {"name":"Гарь","state":"Komi","territory":"","country":"Russia","latitude":60.4807877,"longitude":48.6656048,"population":1,"stateCapital":false,"nationalCapital":false,"pk":null,"quiz":"asia","code":null,"archived":false,"percentageOfSessions":null}, {"name":"Гарьинский","state":"Komi","territory":"","country":"Russia","latitude":61.377449,"longitude":50.604294,"population":331,"stateCapital":false,"nationalCapital":false,"pk":null,"quiz":"asia","code":null,"archived":false,"percentageOfSessions":null}, {"name":"Глотово","state":"Komi","territory":"","country":"Russia","latitude":63.481506,"longitude":49.480957,"population":293,"stateCapital":false,"nationalCapital":false,"pk":null,"quiz":"asia","code":null,"archived":false,"percentageOfSessions":null}, {"name":"Гобаново","state":"Komi","territory":"","country":"Russia","latitude":62.177689,"longitude":49.901993,"population":9,"stateCapital":false,"nationalCapital":false,"pk":null,"quiz":"asia","code":null,"archived":false,"percentageOfSessions":null}, {"name":"Горьковская","state":"Komi","territory":"","country":"Russia","latitude":61.0521551,"longitude":49.9700784,"population":307,"stateCapital":false,"nationalCapital":false,"pk":null,"quiz":"asia","code":null,"archived":false,"percentageOfSessions":null}, {"name":"Гостиногорка","state":"Komi","territory":"","country":"Russia","latitude":59.6856895,"longitude":49.4104502,"population":74,"stateCapital":false,"nationalCapital":false,"pk":null,"quiz":"asia","code":null,"archived":false,"percentageOfSessions":null}, {"name":"Граддор","state":"Komi","territory":"","country":"Russia","latitude":61.55452,"longitude":50.783428,"population":27,"stateCapital":false,"nationalCapital":false,"pk":null,"quiz":"asia","code":null,"archived":false,"percentageOfSessions":null}, {"name":"Грива","state":"Komi","territory":"","country":"Russia","latitude":60.582292,"longitude":50.8821414,"population":363,"stateCapital":false,"nationalCapital":false,"pk":null,"quiz":"asia","code":null,"archived":false,"percentageOfSessions":null}, {"name":"Гришестав","state":"Komi","territory":"","country":"Russia","latitude":62.7325792,"longitude":55.6995895,"population":13,"stateCapital":false,"nationalCapital":false,"pk":null,"quiz":"asia","code":null,"archived":false,"percentageOfSessions":null}, {"name":"Гуж","state":"Komi","territory":"","country":"Russia","latitude":60.3526859,"longitude":51.3623958,"population":2,"stateCapital":false,"nationalCapital":false,"pk":null,"quiz":"asia","code":null,"archived":false,"percentageOfSessions":null}, {"name":"Гуляшор","state":"Komi","territory":"","country":"Russia","latitude":59.4332173,"longitude":49.5169525,"population":308,"stateCapital":false,"nationalCapital":false,"pk":null,"quiz":"asia","code":null,"archived":false,"percentageOfSessions":null}, {"name":"Гурьевка","state":"Komi","territory":"","country":"Russia","latitude":59.4247242,"longitude":49.5999369,"population":314,"stateCapital":false,"nationalCapital":false,"pk":null,"quiz":"asia","code":null,"archived":false,"percentageOfSessions":null}, {"name":"Гыркашор","state":"Komi","territory":"","country":"Russia","latitude":60.2122546,"longitude":49.7149265,"population":70,"stateCapital":false,"nationalCapital":false,"pk":null,"quiz":"asia","code":null,"archived":false,"percentageOfSessions":null}, {"name":"Гэрдъёль","state":"Komi","territory":"","country":"Russia","latitude":63.4937257,"longitude":53.252588,"population":71,"stateCapital":false,"nationalCapital":false,"pk":null,"quiz":"asia","code":null,"archived":false,"percentageOfSessions":null}, {"name":"Дав","state":"Komi","territory":"","country":"Russia","latitude":61.2333164,"longitude":50.136197,"population":25,"stateCapital":false,"nationalCapital":false,"pk":null,"quiz":"asia","code":null,"archived":false,"percentageOfSessions":null}, {"name":"Даниловка","state":"Komi","territory":"","country":"Russia","latitude":64.703049,"longitude":57.866505,"population":163,"stateCapital":false,"nationalCapital":false,"pk":null,"quiz":"asia","code":null,"archived":false,"percentageOfSessions":null}, {"name":"Дань","state":"Komi","territory":"","country":"Russia","latitude":61.378334,"longitude":51.796181,"population":56,"stateCapital":false,"nationalCapital":false,"pk":null,"quiz":"asia","code":null,"archived":false,"percentageOfSessions":null}, {"name":"Дёма","state":"Komi","territory":"","country":"Russia","latitude":61.009834,"longitude":54.434025,"population":9,"stateCapital":false,"nationalCapital":false,"pk":null,"quiz":"asia","code":null,"archived":false,"percentageOfSessions":null}, {"name":"Денисовка","state":"Komi","territory":"","country":"Russia","latitude":66.2067263,"longitude":55.4324305,"population":494,"stateCapital":false,"nationalCapital":false,"pk":null,"quiz":"asia","code":null,"archived":false,"percentageOfSessions":null}, {"name":"Деревянск","state":"Komi","territory":"","country":"Russia","latitude":61.758247,"longitude":53.327003,"population":796,"stateCapital":false,"nationalCapital":false,"pk":null,"quiz":"asia","code":null,"archived":false,"percentageOfSessions":null}, {"name":"Дзёль","state":"Komi","territory":"","country":"Russia","latitude":60.8905371,"longitude":53.6613072,"population":184,"stateCapital":false,"nationalCapital":false,"pk":null,"quiz":"asia","code":null,"archived":false,"percentageOfSessions":null}, {"name":"Диасёръя","state":"Komi","territory":"","country":"Russia","latitude":62.378933,"longitude":53.786259,"population":426,"stateCapital":false,"nationalCapital":false,"pk":null,"quiz":"asia","code":null,"archived":false,"percentageOfSessions":null}, {"name":"Диюр","state":"Komi","territory":"","country":"Russia","latitude":65.2765459,"longitude":53.3648289,"population":623,"stateCapital":false,"nationalCapital":false,"pk":null,"quiz":"asia","code":null,"archived":false,"percentageOfSessions":null}, {"name":"Додзь","state":"Komi","territory":"","country":"Russia","latitude":61.779171,"longitude":51.352634,"population":189,"stateCapital":false,"nationalCapital":false,"pk":null,"quiz":"asia","code":null,"archived":false,"percentageOfSessions":null}, {"name":"Дон","state":"Komi","territory":"","country":"Russia","latitude":61.6383447,"longitude":53.8955314,"population":464,"stateCapital":false,"nationalCapital":false,"pk":null,"quiz":"asia","code":null,"archived":false,"percentageOfSessions":null}, {"name":"Донаёль","state":"Komi","territory":"","country":"Russia","latitude":62.093693,"longitude":49.421223,"population":476,"stateCapital":false,"nationalCapital":false,"pk":null,"quiz":"asia","code":null,"archived":false,"percentageOfSessions":null}, {"name":"Дорожный","state":"Komi","territory":"","country":"Russia","latitude":62.9017,"longitude":55.0985,"population":0,"stateCapital":false,"nationalCapital":false,"pk":null,"quiz":"asia","code":null,"archived":false,"percentageOfSessions":null}, {"name":"Дутово","state":"Komi","territory":"","country":"Russia","latitude":63.7972885,"longitude":56.6963297,"population":957,"stateCapital":false,"nationalCapital":false,"pk":null,"quiz":"asia","code":null,"archived":false,"percentageOfSessions":null}, {"name":"Евдино","state":"Komi","territory":"","country":"Russia","latitude":63.0508964,"longitude":50.8825973,"population":5,"stateCapital":false,"nationalCapital":false,"pk":null,"quiz":"asia","code":null,"archived":false,"percentageOfSessions":null}, {"name":"Ёдва","state":"Komi","territory":"","country":"Russia","latitude":63.058949,"longitude":48.872498,"population":1428,"stateCapital":false,"nationalCapital":false,"pk":null,"quiz":"asia","code":null,"archived":false,"percentageOfSessions":null}, {"name":"Елец","state":"Komi","territory":"","country":"Russia","latitude":67.0481978,"longitude":64.0599975,"population":7,"stateCapital":false,"nationalCapital":false,"pk":null,"quiz":"asia","code":null,"archived":false,"percentageOfSessions":null}, {"name":"Елецкий","state":"Komi","territory":"","country":"Russia","latitude":67.045151,"longitude":64.216507,"population":631,"stateCapital":false,"nationalCapital":false,"pk":null,"quiz":"asia","code":null,"archived":false,"percentageOfSessions":null}, {"name":"Елин","state":"Komi","territory":"","country":"Russia","latitude":61.070229,"longitude":50.049938,"population":88,"stateCapital":false,"nationalCapital":false,"pk":null,"quiz":"asia","code":null,"archived":false,"percentageOfSessions":null}, {"name":"Ёль","state":"Komi","territory":"","country":"Russia","latitude":65.0230582,"longitude":53.8226441,"population":50,"stateCapital":false,"nationalCapital":false,"pk":null,"quiz":"asia","code":null,"archived":false,"percentageOfSessions":null}, {"name":"Ёль","state":"Komi","territory":"","country":"Russia","latitude":62.123177,"longitude":49.72699,"population":8,"stateCapital":false,"nationalCapital":false,"pk":null,"quiz":"asia","code":null,"archived":false,"percentageOfSessions":null}, {"name":"Ёльбаза","state":"Komi","territory":"","country":"Russia","latitude":61.3105334,"longitude":50.1374019,"population":167,"stateCapital":false,"nationalCapital":false,"pk":null,"quiz":"asia","code":null,"archived":false,"percentageOfSessions":null}, {"name":"Ёлькыб","state":"Komi","territory":"","country":"Russia","latitude":63.599483,"longitude":48.698544,"population":5,"stateCapital":false,"nationalCapital":false,"pk":null,"quiz":"asia","code":null,"archived":false,"percentageOfSessions":null}, {"name":"Емва","state":"Komi","territory":"","country":"Russia","latitude":62.598297,"longitude":50.887928,"population":14570,"stateCapital":false,"nationalCapital":false,"pk":null,"quiz":"asia","code":null,"archived":false,"percentageOfSessions":null}, {"name":"Епа","state":"Komi","territory":"","country":"Russia","latitude":66.357399,"longitude":61.809364,"population":32,"stateCapital":false,"nationalCapital":false,"pk":null,"quiz":"asia","code":null,"archived":false,"percentageOfSessions":null}, {"name":"Еремеево","state":"Komi","territory":"","country":"Russia","latitude":62.6271109,"longitude":57.5486077,"population":198,"stateCapital":false,"nationalCapital":false,"pk":null,"quiz":"asia","code":null,"archived":false,"percentageOfSessions":null}, {"name":"Ёрмица","state":"Komi","territory":"","country":"Russia","latitude":66.914589,"longitude":52.334282,"population":179,"stateCapital":false,"nationalCapital":false,"pk":null,"quiz":"asia","code":null,"archived":false,"percentageOfSessions":null}, {"name":"Ероздино","state":"Komi","territory":"","country":"Russia","latitude":62.248684,"longitude":50.50491,"population":6,"stateCapital":false,"nationalCapital":false,"pk":null,"quiz":"asia","code":null,"archived":false,"percentageOfSessions":null}, {"name":"Ёртом","state":"Komi","territory":"","country":"Russia","latitude":63.5469733,"longitude":47.8222161,"population":244,"stateCapital":false,"nationalCapital":false,"pk":null,"quiz":"asia","code":null,"archived":false,"percentageOfSessions":null}, {"name":"Ждановцы","state":"Komi","territory":"","country":"Russia","latitude":60.92017,"longitude":49.698261,"population":3,"stateCapital":false,"nationalCapital":false,"pk":null,"quiz":"asia","code":null,"archived":false,"percentageOfSessions":null}, {"name":"Жежим","state":"Komi","territory":"","country":"Russia","latitude":61.609039,"longitude":54.249577,"population":127,"stateCapital":false,"nationalCapital":false,"pk":null,"quiz":"asia","code":null,"archived":false,"percentageOfSessions":null}, {"name":"Жешарт","state":"Komi","territory":"","country":"Russia","latitude":62.0898744,"longitude":49.58882,"population":8561,"stateCapital":false,"nationalCapital":false,"pk":null,"quiz":"asia","code":null,"archived":false,"percentageOfSessions":null}, {"name":"Журавский","state":"Komi","territory":"","country":"Russia","latitude":65.4255424,"longitude":52.2837843,"population":60,"stateCapital":false,"nationalCapital":false,"pk":null,"quiz":"asia","code":null,"archived":false,"percentageOfSessions":null}, {"name":"Жуэд","state":"Komi","territory":"","country":"Russia","latitude":61.359196,"longitude":50.587017,"population":20,"stateCapital":false,"nationalCapital":false,"pk":null,"quiz":"asia","code":null,"archived":false,"percentageOfSessions":null}, {"name":"Загарская","state":"Komi","territory":"","country":"Russia","latitude":60.2992926,"longitude":49.6444699,"population":250,"stateCapital":false,"nationalCapital":false,"pk":null,"quiz":"asia","code":null,"archived":false,"percentageOfSessions":null}, {"name":"Загривочная","state":"Komi","territory":"","country":"Russia","latitude":65.0913605,"longitude":51.9479206,"population":280,"stateCapital":false,"nationalCapital":false,"pk":null,"quiz":"asia","code":null,"archived":false,"percentageOfSessions":null}, {"name":"Замежная","state":"Komi","territory":"","country":"Russia","latitude":65.0431296,"longitude":51.9733886,"population":674,"stateCapital":false,"nationalCapital":false,"pk":null,"quiz":"asia","code":null,"archived":false,"percentageOfSessions":null}, {"name":"Занулье","state":"Komi","territory":"","country":"Russia","latitude":60.646309,"longitude":49.390247,"population":109,"stateCapital":false,"nationalCapital":false,"pk":null,"quiz":"asia","code":null,"archived":false,"percentageOfSessions":null}, {"name":"Заозерье","state":"Komi","territory":"","country":"Russia","latitude":60.9086534,"longitude":50.3006859,"population":466,"stateCapital":false,"nationalCapital":false,"pk":null,"quiz":"asia","code":null,"archived":false,"percentageOfSessions":null}, {"name":"Заозерье","state":"Komi","territory":"","country":"Russia","latitude":60.9086534,"longitude":50.3006859,"population":0,"stateCapital":false,"nationalCapital":false,"pk":null,"quiz":"asia","code":null,"archived":false,"percentageOfSessions":null}, {"name":"Запольская","state":"Komi","territory":"","country":"Russia","latitude":60.5451258,"longitude":48.7793076,"population":11,"stateCapital":false,"nationalCapital":false,"pk":null,"quiz":"asia","code":null,"archived":false,"percentageOfSessions":null}, {"name":"Заполярный","state":"Komi","territory":"","country":"Russia","latitude":67.496056,"longitude":63.730633,"population":1948,"stateCapital":false,"nationalCapital":false,"pk":null,"quiz":"asia","code":null,"archived":false,"percentageOfSessions":null}, {"name":"Заречное","state":"Komi","territory":"","country":"Russia","latitude":60.8948713,"longitude":49.6679449,"population":210,"stateCapital":false,"nationalCapital":false,"pk":null,"quiz":"asia","code":null,"archived":false,"percentageOfSessions":null}, {"name":"Заречье","state":"Komi","territory":"","country":"Russia","latitude":62.202927,"longitude":50.029465,"population":5,"stateCapital":false,"nationalCapital":false,"pk":null,"quiz":"asia","code":null,"archived":false,"percentageOfSessions":null}, {"name":"Заручейный","state":"Komi","territory":"","country":"Russia","latitude":62.0851357,"longitude":49.36174,"population":33,"stateCapital":false,"nationalCapital":false,"pk":null,"quiz":"asia","code":null,"archived":false,"percentageOfSessions":null}, {"name":"Захарвань","state":"Komi","territory":"","country":"Russia","latitude":66.3340767,"longitude":55.8691929,"population":378,"stateCapital":false,"nationalCapital":false,"pk":null,"quiz":"asia","code":null,"archived":false,"percentageOfSessions":null}, {"name":"Захарово","state":"Komi","territory":"","country":"Russia","latitude":61.2292509,"longitude":50.5643803,"population":240,"stateCapital":false,"nationalCapital":false,"pk":null,"quiz":"asia","code":null,"archived":false,"percentageOfSessions":null}, {"name":"Зеленец","state":"Komi","territory":"","country":"Russia","latitude":61.882992,"longitude":50.74733,"population":2943,"stateCapital":false,"nationalCapital":false,"pk":null,"quiz":"asia","code":null,"archived":false,"percentageOfSessions":null}, {"name":"Зеленоборск","state":"Komi","territory":"","country":"Russia","latitude":64.479721,"longitude":55.294399,"population":433,"stateCapital":false,"nationalCapital":false,"pk":null,"quiz":"asia","code":null,"archived":false,"percentageOfSessions":null}, {"name":"Зимовка","state":"Komi","territory":"","country":"Russia","latitude":60.5647883,"longitude":50.573955,"population":294,"stateCapital":false,"nationalCapital":false,"pk":null,"quiz":"asia","code":null,"archived":false,"percentageOfSessions":null}, {"name":"Зимстан","state":"Komi","territory":"","country":"Russia","latitude":61.2603,"longitude":53.863094,"population":1458,"stateCapital":false,"nationalCapital":false,"pk":null,"quiz":"asia","code":null,"archived":false,"percentageOfSessions":null}, {"name":"Злоба","state":"Komi","territory":"","country":"Russia","latitude":62.667335,"longitude":50.9089497,"population":6,"stateCapital":false,"nationalCapital":false,"pk":null,"quiz":"asia","code":null,"archived":false,"percentageOfSessions":null}, {"name":"Знаменка","state":"Komi","territory":"","country":"Russia","latitude":61.9694764,"longitude":56.8571688,"population":291,"stateCapital":false,"nationalCapital":false,"pk":null,"quiz":"asia","code":null,"archived":false,"percentageOfSessions":null}, {"name":"Зулэб","state":"Komi","territory":"","country":"Russia","latitude":62.187885,"longitude":52.460625,"population":103,"stateCapital":false,"nationalCapital":false,"pk":null,"quiz":"asia","code":null,"archived":false,"percentageOfSessions":null}, {"name":"Зэрзяыб","state":"Komi","territory":"","country":"Russia","latitude":63.667793,"longitude":49.418613,"population":13,"stateCapital":false,"nationalCapital":false,"pk":null,"quiz":"asia","code":null,"archived":false,"percentageOfSessions":null}, {"name":"Иван-Ёль","state":"Komi","territory":"","country":"Russia","latitude":63.3536,"longitude":54.3823,"population":0,"stateCapital":false,"nationalCapital":false,"pk":null,"quiz":"asia","code":null,"archived":false,"percentageOfSessions":null}, {"name":"Ивановка","state":"Komi","territory":"","country":"Russia","latitude":62.3103027,"longitude":52.8790487,"population":10,"stateCapital":false,"nationalCapital":false,"pk":null,"quiz":"asia","code":null,"archived":false,"percentageOfSessions":null}, {"name":"Ивановка","state":"Komi","territory":"","country":"Russia","latitude":59.2899135,"longitude":49.6442253,"population":29,"stateCapital":false,"nationalCapital":false,"pk":null,"quiz":"asia","code":null,"archived":false,"percentageOfSessions":null}, {"name":"Ивановка","state":"Komi","territory":"","country":"Russia","latitude":61.9981214,"longitude":50.4555592,"population":221,"stateCapital":false,"nationalCapital":false,"pk":null,"quiz":"asia","code":null,"archived":false,"percentageOfSessions":null}, {"name":"Ивановская","state":"Komi","territory":"","country":"Russia","latitude":62.109451,"longitude":52.489399,"population":53,"stateCapital":false,"nationalCapital":false,"pk":null,"quiz":"asia","code":null,"archived":false,"percentageOfSessions":null}, {"name":"Ивановская","state":"Komi","territory":"","country":"Russia","latitude":60.5863522,"longitude":48.8728433,"population":41,"stateCapital":false,"nationalCapital":false,"pk":null,"quiz":"asia","code":null,"archived":false,"percentageOfSessions":null}, {"name":"Ивановцы","state":"Komi","territory":"","country":"Russia","latitude":60.899502,"longitude":49.72065,"population":29,"stateCapital":false,"nationalCapital":false,"pk":null,"quiz":"asia","code":null,"archived":false,"percentageOfSessions":null}, {"name":"Иван-Чомъя","state":"Komi","territory":"","country":"Russia","latitude":60.674267,"longitude":50.436695,"population":118,"stateCapital":false,"nationalCapital":false,"pk":null,"quiz":"asia","code":null,"archived":false,"percentageOfSessions":null}, {"name":"Ижма","state":"Komi","territory":"","country":"Russia","latitude":65.00869,"longitude":53.908283,"population":3753,"stateCapital":false,"nationalCapital":false,"pk":null,"quiz":"asia","code":null,"archived":false,"percentageOfSessions":null}, {"name":"Изваиль","state":"Komi","territory":"","country":"Russia","latitude":63.0340061,"longitude":54.4723322,"population":38,"stateCapital":false,"nationalCapital":false,"pk":null,"quiz":"asia","code":null,"archived":false,"percentageOfSessions":null}, {"name":"Изъюр","state":"Komi","territory":"","country":"Russia","latitude":63.4198467,"longitude":53.9978261,"population":6,"stateCapital":false,"nationalCapital":false,"pk":null,"quiz":"asia","code":null,"archived":false,"percentageOfSessions":null}, {"name":"Изъяшор","state":"Komi","territory":"","country":"Russia","latitude":60.3180439,"longitude":50.0857785,"population":80,"stateCapital":false,"nationalCapital":false,"pk":null,"quiz":"asia","code":null,"archived":false,"percentageOfSessions":null}, {"name":"Изъяю","state":"Komi","territory":"","country":"Russia","latitude":65.107452,"longitude":56.991577,"population":1323,"stateCapital":false,"nationalCapital":false,"pk":null,"quiz":"asia","code":null,"archived":false,"percentageOfSessions":null}, {"name":"Илья-Шор","state":"Komi","territory":"","country":"Russia","latitude":62.218819,"longitude":49.785183,"population":480,"stateCapital":false,"nationalCapital":false,"pk":null,"quiz":"asia","code":null,"archived":false,"percentageOfSessions":null}, {"name":"Инта","state":"Komi","territory":"","country":"Russia","latitude":66.039749,"longitude":60.13158,"population":32080,"stateCapital":false,"nationalCapital":false,"pk":null,"quiz":"asia","code":null,"archived":false,"percentageOfSessions":null}, {"name":"Иоссер","state":"Komi","territory":"","country":"Russia","latitude":62.9972065,"longitude":52.1863924,"population":217,"stateCapital":false,"nationalCapital":false,"pk":null,"quiz":"asia","code":null,"archived":false,"percentageOfSessions":null}, {"name":"Ипа","state":"Komi","territory":"","country":"Russia","latitude":62.134785,"longitude":50.223427,"population":8,"stateCapital":false,"nationalCapital":false,"pk":null,"quiz":"asia","code":null,"archived":false,"percentageOfSessions":null}, {"name":"Ипатово","state":"Komi","territory":"","country":"Russia","latitude":61.8563355,"longitude":50.049387,"population":49,"stateCapital":false,"nationalCapital":false,"pk":null,"quiz":"asia","code":null,"archived":false,"percentageOfSessions":null}, {"name":"Ираёль","state":"Komi","territory":"","country":"Russia","latitude":64.410721,"longitude":55.194374,"population":750,"stateCapital":false,"nationalCapital":false,"pk":null,"quiz":"asia","code":null,"archived":false,"percentageOfSessions":null}, {"name":"Исанево","state":"Komi","territory":"","country":"Russia","latitude":60.9977498,"longitude":50.342228,"population":132,"stateCapital":false,"nationalCapital":false,"pk":null,"quiz":"asia","code":null,"archived":false,"percentageOfSessions":null}, {"name":"Каджером","state":"Komi","territory":"","country":"Russia","latitude":64.6946041,"longitude":55.9265767,"population":1831,"stateCapital":false,"nationalCapital":false,"pk":null,"quiz":"asia","code":null,"archived":false,"percentageOfSessions":null}, {"name":"Кажым","state":"Komi","territory":"","country":"Russia","latitude":60.3336,"longitude":51.542,"population":940,"stateCapital":false,"nationalCapital":false,"pk":null,"quiz":"asia","code":null,"archived":false,"percentageOfSessions":null}, {"name":"Казлук","state":"Komi","territory":"","country":"Russia","latitude":62.105949,"longitude":49.334709,"population":600,"stateCapital":false,"nationalCapital":false,"pk":null,"quiz":"asia","code":null,"archived":false,"percentageOfSessions":null}, {"name":"Калининская","state":"Komi","territory":"","country":"Russia","latitude":60.3508258,"longitude":49.5243324,"population":446,"stateCapital":false,"nationalCapital":false,"pk":null,"quiz":"asia","code":null,"archived":false,"percentageOfSessions":null}, {"name":"Камсамас","state":"Komi","territory":"","country":"Russia","latitude":62.146156,"longitude":49.850258,"population":11,"stateCapital":false,"nationalCapital":false,"pk":null,"quiz":"asia","code":null,"archived":false,"percentageOfSessions":null}, {"name":"Канава","state":"Komi","territory":"","country":"Russia","latitude":61.1181397,"longitude":55.036321,"population":27,"stateCapital":false,"nationalCapital":false,"pk":null,"quiz":"asia","code":null,"archived":false,"percentageOfSessions":null}, {"name":"Карвуджем","state":"Komi","territory":"","country":"Russia","latitude":60.5784903,"longitude":50.7813655,"population":4,"stateCapital":false,"nationalCapital":false,"pk":null,"quiz":"asia","code":null,"archived":false,"percentageOfSessions":null}, {"name":"Каргорт","state":"Komi","territory":"","country":"Russia","latitude":61.252167,"longitude":50.564114,"population":38,"stateCapital":false,"nationalCapital":false,"pk":null,"quiz":"asia","code":null,"archived":false,"percentageOfSessions":null}, {"name":"Кармыльк","state":"Komi","territory":"","country":"Russia","latitude":61.843189,"longitude":51.462536,"population":0,"stateCapital":false,"nationalCapital":false,"pk":null,"quiz":"asia","code":null,"archived":false,"percentageOfSessions":null}, {"name":"Карповская","state":"Komi","territory":"","country":"Russia","latitude":60.5585033,"longitude":48.8107312,"population":55,"stateCapital":false,"nationalCapital":false,"pk":null,"quiz":"asia","code":null,"archived":false,"percentageOfSessions":null}, {"name":"Карпушевка","state":"Komi","territory":"","country":"Russia","latitude":65.4232768,"longitude":52.2526462,"population":368,"stateCapital":false,"nationalCapital":false,"pk":null,"quiz":"asia","code":null,"archived":false,"percentageOfSessions":null}, {"name":"Картаёль","state":"Komi","territory":"","country":"Russia","latitude":64.5270083,"longitude":53.3245983,"population":335,"stateCapital":false,"nationalCapital":false,"pk":null,"quiz":"asia","code":null,"archived":false,"percentageOfSessions":null}, {"name":"Картасикт","state":"Komi","territory":"","country":"Russia","latitude":60.908119,"longitude":49.70739,"population":30,"stateCapital":false,"nationalCapital":false,"pk":null,"quiz":"asia","code":null,"archived":false,"percentageOfSessions":null}, {"name":"Катыдпом","state":"Komi","territory":"","country":"Russia","latitude":62.7873017,"longitude":50.7051155,"population":2,"stateCapital":false,"nationalCapital":false,"pk":null,"quiz":"asia","code":null,"archived":false,"percentageOfSessions":null}, {"name":"Катыдпом","state":"Komi","territory":"","country":"Russia","latitude":60.701336,"longitude":50.287941,"population":15,"stateCapital":false,"nationalCapital":false,"pk":null,"quiz":"asia","code":null,"archived":false,"percentageOfSessions":null}, {"name":"Кебанъёль","state":"Komi","territory":"","country":"Russia","latitude":61.7193271,"longitude":53.7115977,"population":1684,"stateCapital":false,"nationalCapital":false,"pk":null,"quiz":"asia","code":null,"archived":false,"percentageOfSessions":null}, {"name":"Кебырыб","state":"Komi","territory":"","country":"Russia","latitude":62.121372,"longitude":49.630516,"population":30,"stateCapital":false,"nationalCapital":false,"pk":null,"quiz":"asia","code":null,"archived":false,"percentageOfSessions":null}, {"name":"Кедвавом","state":"Komi","territory":"","country":"Russia","latitude":64.2262578,"longitude":53.5662017,"population":228,"stateCapital":false,"nationalCapital":false,"pk":null,"quiz":"asia","code":null,"archived":false,"percentageOfSessions":null}, {"name":"Кедровый Шор","state":"Komi","territory":"","country":"Russia","latitude":64.889023,"longitude":57.616737,"population":223,"stateCapital":false,"nationalCapital":false,"pk":null,"quiz":"asia","code":null,"archived":false,"percentageOfSessions":null}, {"name":"Кекур","state":"Komi","territory":"","country":"Russia","latitude":61.967575,"longitude":54.37846,"population":378,"stateCapital":false,"nationalCapital":false,"pk":null,"quiz":"asia","code":null,"archived":false,"percentageOfSessions":null}, {"name":"Кельчиюр","state":"Komi","territory":"","country":"Russia","latitude":65.2761941,"longitude":52.9883937,"population":399,"stateCapital":false,"nationalCapital":false,"pk":null,"quiz":"asia","code":null,"archived":false,"percentageOfSessions":null}, {"name":"Кемъяр","state":"Komi","territory":"","country":"Russia","latitude":61.25769,"longitude":50.990292,"population":189,"stateCapital":false,"nationalCapital":false,"pk":null,"quiz":"asia","code":null,"archived":false,"percentageOfSessions":null}, {"name":"Керес","state":"Komi","territory":"","country":"Russia","latitude":62.715961,"longitude":50.912109,"population":0,"stateCapital":false,"nationalCapital":false,"pk":null,"quiz":"asia","code":null,"archived":false,"percentageOfSessions":null}, {"name":"Керес","state":"Komi","territory":"","country":"Russia","latitude":61.869305,"longitude":52.666855,"population":319,"stateCapital":false,"nationalCapital":false,"pk":null,"quiz":"asia","code":null,"archived":false,"percentageOfSessions":null}, {"name":"Керес","state":"Komi","territory":"","country":"Russia","latitude":60.615738,"longitude":48.9458534,"population":0,"stateCapital":false,"nationalCapital":false,"pk":null,"quiz":"asia","code":null,"archived":false,"percentageOfSessions":null}, {"name":"Керки","state":"Komi","territory":"","country":"Russia","latitude":63.7324896,"longitude":54.2032926,"population":689,"stateCapital":false,"nationalCapital":false,"pk":null,"quiz":"asia","code":null,"archived":false,"percentageOfSessions":null}, {"name":"Керчомъя","state":"Komi","territory":"","country":"Russia","latitude":61.4718626,"longitude":53.9187716,"population":1043,"stateCapital":false,"nationalCapital":false,"pk":null,"quiz":"asia","code":null,"archived":false,"percentageOfSessions":null}, {"name":"Кипиево","state":"Komi","territory":"","country":"Russia","latitude":65.661217,"longitude":54.513508,"population":773,"stateCapital":false,"nationalCapital":false,"pk":null,"quiz":"asia","code":null,"archived":false,"percentageOfSessions":null}, {"name":"Кирик","state":"Komi","territory":"","country":"Russia","latitude":64.056038,"longitude":46.975105,"population":0,"stateCapital":false,"nationalCapital":false,"pk":null,"quiz":"asia","code":null,"archived":false,"percentageOfSessions":null}, {"name":"Климовск","state":"Komi","territory":"","country":"Russia","latitude":61.285717,"longitude":53.647526,"population":12,"stateCapital":false,"nationalCapital":false,"pk":null,"quiz":"asia","code":null,"archived":false,"percentageOfSessions":null}, {"name":"Климовская","state":"Komi","territory":"","country":"Russia","latitude":60.1424041,"longitude":49.5168933,"population":2,"stateCapital":false,"nationalCapital":false,"pk":null,"quiz":"asia","code":null,"archived":false,"percentageOfSessions":null}, {"name":"Ключ","state":"Komi","territory":"","country":"Russia","latitude":61.2166756,"longitude":50.1615284,"population":54,"stateCapital":false,"nationalCapital":false,"pk":null,"quiz":"asia","code":null,"archived":false,"percentageOfSessions":null}, {"name":"Княжпогост","state":"Komi","territory":"","country":"Russia","latitude":62.602406,"longitude":50.851536,"population":114,"stateCapital":false,"nationalCapital":false,"pk":null,"quiz":"asia","code":null,"archived":false,"percentageOfSessions":null}, {"name":"Кодач","state":"Komi","territory":"","country":"Russia","latitude":63.1654476,"longitude":55.8653618,"population":13,"stateCapital":false,"nationalCapital":false,"pk":null,"quiz":"asia","code":null,"archived":false,"percentageOfSessions":null}, {"name":"Кожва","state":"Komi","territory":"","country":"Russia","latitude":65.1054024,"longitude":57.0504324,"population":3047,"stateCapital":false,"nationalCapital":false,"pk":null,"quiz":"asia","code":null,"archived":false,"percentageOfSessions":null}, {"name":"Кожмудор","state":"Komi","territory":"","country":"Russia","latitude":62.142365,"longitude":50.274864,"population":267,"stateCapital":false,"nationalCapital":false,"pk":null,"quiz":"asia","code":null,"archived":false,"percentageOfSessions":null}, {"name":"Кожым","state":"Komi","territory":"","country":"Russia","latitude":65.735481,"longitude":59.523937,"population":10,"stateCapital":false,"nationalCapital":false,"pk":null,"quiz":"asia","code":null,"archived":false,"percentageOfSessions":null}, {"name":"Кожымвом","state":"Komi","territory":"","country":"Russia","latitude":65.7941907,"longitude":59.3178396,"population":1,"stateCapital":false,"nationalCapital":false,"pk":null,"quiz":"asia","code":null,"archived":false,"percentageOfSessions":null}, {"name":"Козловка","state":"Komi","territory":"","country":"Russia","latitude":62.7768223,"longitude":50.7037351,"population":10,"stateCapital":false,"nationalCapital":false,"pk":null,"quiz":"asia","code":null,"archived":false,"percentageOfSessions":null}, {"name":"Козловская","state":"Komi","territory":"","country":"Russia","latitude":60.5307513,"longitude":48.7393641,"population":43,"stateCapital":false,"nationalCapital":false,"pk":null,"quiz":"asia","code":null,"archived":false,"percentageOfSessions":null}, {"name":"Койгородок","state":"Komi","territory":"","country":"Russia","latitude":60.441257,"longitude":51.007,"population":2940,"stateCapital":false,"nationalCapital":false,"pk":null,"quiz":"asia","code":null,"archived":false,"percentageOfSessions":null}, {"name":"Койдин","state":"Komi","territory":"","country":"Russia","latitude":60.4307713,"longitude":50.9822679,"population":1359,"stateCapital":false,"nationalCapital":false,"pk":null,"quiz":"asia","code":null,"archived":false,"percentageOfSessions":null}, {"name":"Койтыбож","state":"Komi","territory":"","country":"Russia","latitude":61.862064,"longitude":50.730927,"population":103,"stateCapital":false,"nationalCapital":false,"pk":null,"quiz":"asia","code":null,"archived":false,"percentageOfSessions":null}, {"name":"Койю","state":"Komi","territory":"","country":"Russia","latitude":64.348827,"longitude":53.6560091,"population":319,"stateCapital":false,"nationalCapital":false,"pk":null,"quiz":"asia","code":null,"archived":false,"percentageOfSessions":null}, {"name":"Коквицы","state":"Komi","territory":"","country":"Russia","latitude":62.1457271,"longitude":50.3602244,"population":79,"stateCapital":false,"nationalCapital":false,"pk":null,"quiz":"asia","code":null,"archived":false,"percentageOfSessions":null}, {"name":"Колва","state":"Komi","territory":"","country":"Russia","latitude":65.9665512,"longitude":57.3614862,"population":346,"stateCapital":false,"nationalCapital":false,"pk":null,"quiz":"asia","code":null,"archived":false,"percentageOfSessions":null}, {"name":"Колобово","state":"Komi","territory":"","country":"Russia","latitude":59.6152883,"longitude":49.4405755,"population":13,"stateCapital":false,"nationalCapital":false,"pk":null,"quiz":"asia","code":null,"archived":false,"percentageOfSessions":null}, {"name":"Кольёль","state":"Komi","territory":"","country":"Russia","latitude":61.058353,"longitude":50.1071157,"population":36,"stateCapital":false,"nationalCapital":false,"pk":null,"quiz":"asia","code":null,"archived":false,"percentageOfSessions":null}, {"name":"Ком","state":"Komi","territory":"","country":"Russia","latitude":60.2659822,"longitude":51.1746572,"population":46,"stateCapital":false,"nationalCapital":false,"pk":null,"quiz":"asia","code":null,"archived":false,"percentageOfSessions":null}, {"name":"Комаю","state":"Komi","territory":"","country":"Russia","latitude":65.7843,"longitude":59.479,"population":0,"stateCapital":false,"nationalCapital":false,"pk":null,"quiz":"asia","code":null,"archived":false,"percentageOfSessions":null}, {"name":"Комсомольский","state":"Komi","territory":"","country":"Russia","latitude":67.553696,"longitude":63.775955,"population":1047,"stateCapital":false,"nationalCapital":false,"pk":null,"quiz":"asia","code":null,"archived":false,"percentageOfSessions":null}, {"name":"Комсомольск-на-Печоре","state":"Komi","territory":"","country":"Russia","latitude":62.1357974,"longitude":56.6030949,"population":933,"stateCapital":false,"nationalCapital":false,"pk":null,"quiz":"asia","code":null,"archived":false,"percentageOfSessions":null}, {"name":"Конашъёль","state":"Komi","territory":"","country":"Russia","latitude":63.4088899,"longitude":55.7897816,"population":71,"stateCapital":false,"nationalCapital":false,"pk":null,"quiz":"asia","code":null,"archived":false,"percentageOfSessions":null}, {"name":"Конецбор","state":"Komi","territory":"","country":"Russia","latitude":64.8459136,"longitude":57.7306301,"population":191,"stateCapital":false,"nationalCapital":false,"pk":null,"quiz":"asia","code":null,"archived":false,"percentageOfSessions":null}, {"name":"Конец-Озерье","state":"Komi","territory":"","country":"Russia","latitude":62.18219,"longitude":50.250927,"population":4,"stateCapital":false,"nationalCapital":false,"pk":null,"quiz":"asia","code":null,"archived":false,"percentageOfSessions":null}, {"name":"Кони","state":"Komi","territory":"","country":"Russia","latitude":62.8988151,"longitude":50.6835687,"population":33,"stateCapital":false,"nationalCapital":false,"pk":null,"quiz":"asia","code":null,"archived":false,"percentageOfSessions":null}, {"name":"Константиновка","state":"Komi","territory":"","country":"Russia","latitude":65.0818291,"longitude":53.937399,"population":90,"stateCapital":false,"nationalCapital":false,"pk":null,"quiz":"asia","code":null,"archived":false,"percentageOfSessions":null}, {"name":"Конша","state":"Komi","territory":"","country":"Russia","latitude":61.425453,"longitude":51.743206,"population":27,"stateCapital":false,"nationalCapital":false,"pk":null,"quiz":"asia","code":null,"archived":false,"percentageOfSessions":null}, {"name":"Копса","state":"Komi","territory":"","country":"Russia","latitude":61.1814,"longitude":49.6393,"population":0,"stateCapital":false,"nationalCapital":false,"pk":null,"quiz":"asia","code":null,"archived":false,"percentageOfSessions":null}, {"name":"Коптюга","state":"Komi","territory":"","country":"Russia","latitude":64.226669,"longitude":46.432827,"population":29,"stateCapital":false,"nationalCapital":false,"pk":null,"quiz":"asia","code":null,"archived":false,"percentageOfSessions":null}, {"name":"Коржинский","state":"Komi","territory":"","country":"Russia","latitude":60.4153664,"longitude":48.5775673,"population":278,"stateCapital":false,"nationalCapital":false,"pk":null,"quiz":"asia","code":null,"archived":false,"percentageOfSessions":null}, {"name":"Коровий Ручей","state":"Komi","territory":"","country":"Russia","latitude":65.4225116,"longitude":52.2329652,"population":287,"stateCapital":false,"nationalCapital":false,"pk":null,"quiz":"asia","code":null,"archived":false,"percentageOfSessions":null}, {"name":"Корольки","state":"Komi","territory":"","country":"Russia","latitude":59.4357329,"longitude":49.5862131,"population":94,"stateCapital":false,"nationalCapital":false,"pk":null,"quiz":"asia","code":null,"archived":false,"percentageOfSessions":null}, {"name":"Корткерос","state":"Komi","territory":"","country":"Russia","latitude":61.8130799,"longitude":51.5744647,"population":4624,"stateCapital":false,"nationalCapital":false,"pk":null,"quiz":"asia","code":null,"archived":false,"percentageOfSessions":null}, {"name":"Кослан","state":"Komi","territory":"","country":"Russia","latitude":63.456226,"longitude":48.894211,"population":2288,"stateCapital":false,"nationalCapital":false,"pk":null,"quiz":"asia","code":null,"archived":false,"percentageOfSessions":null}, {"name":"Костин","state":"Komi","territory":"","country":"Russia","latitude":60.894596,"longitude":49.717171,"population":2,"stateCapital":false,"nationalCapital":false,"pk":null,"quiz":"asia","code":null,"archived":false,"percentageOfSessions":null}, {"name":"Костюк","state":"Komi","territory":"","country":"Russia","latitude":66.6039783,"longitude":60.9358972,"population":3,"stateCapital":false,"nationalCapital":false,"pk":null,"quiz":"asia","code":null,"archived":false,"percentageOfSessions":null}, {"name":"Косъёль","state":"Komi","territory":"","country":"Russia","latitude":64.9728056,"longitude":53.786963,"population":27,"stateCapital":false,"nationalCapital":false,"pk":null,"quiz":"asia","code":null,"archived":false,"percentageOfSessions":null}, {"name":"Косью","state":"Komi","territory":"","country":"Russia","latitude":65.612778,"longitude":58.966122,"population":153,"stateCapital":false,"nationalCapital":false,"pk":null,"quiz":"asia","code":null,"archived":false,"percentageOfSessions":null}, {"name":"Косьювом","state":"Komi","territory":"","country":"Russia","latitude":66.2823142,"longitude":59.885022,"population":176,"stateCapital":false,"nationalCapital":false,"pk":null,"quiz":"asia","code":null,"archived":false,"percentageOfSessions":null}, {"name":"Кочмес","state":"Komi","territory":"","country":"Russia","latitude":66.3568435,"longitude":60.0151663,"population":0,"stateCapital":false,"nationalCapital":false,"pk":null,"quiz":"asia","code":null,"archived":false,"percentageOfSessions":null}, {"name":"Кочмес","state":"Komi","territory":"","country":"Russia","latitude":66.3568435,"longitude":60.0151663,"population":46,"stateCapital":false,"nationalCapital":false,"pk":null,"quiz":"asia","code":null,"archived":false,"percentageOfSessions":null}, {"name":"Кошки","state":"Komi","territory":"","country":"Russia","latitude":62.3769928,"longitude":50.7041566,"population":10,"stateCapital":false,"nationalCapital":false,"pk":null,"quiz":"asia","code":null,"archived":false,"percentageOfSessions":null}, {"name":"Красная","state":"Komi","territory":"","country":"Russia","latitude":62.0184848,"longitude":50.8077277,"population":156,"stateCapital":false,"nationalCapital":false,"pk":null,"quiz":"asia","code":null,"archived":false,"percentageOfSessions":null}, {"name":"Краснобор","state":"Komi","territory":"","country":"Russia","latitude":65.294662,"longitude":53.285496,"population":625,"stateCapital":false,"nationalCapital":false,"pk":null,"quiz":"asia","code":null,"archived":false,"percentageOfSessions":null}, {"name":"Краснозатонский","state":"Komi","territory":"","country":"Russia","latitude":61.6779,"longitude":50.9748,"population":8603,"stateCapital":false,"nationalCapital":false,"pk":null,"quiz":"asia","code":null,"archived":false,"percentageOfSessions":null}, {"name":"Красный Яг","state":"Komi","territory":"","country":"Russia","latitude":65.086342,"longitude":57.291286,"population":313,"stateCapital":false,"nationalCapital":false,"pk":null,"quiz":"asia","code":null,"archived":false,"percentageOfSessions":null}, {"name":"Крестовка","state":"Komi","territory":"","country":"Russia","latitude":66.3626501,"longitude":52.4989076,"population":46,"stateCapital":false,"nationalCapital":false,"pk":null,"quiz":"asia","code":null,"archived":false,"percentageOfSessions":null}, {"name":"Кривое","state":"Komi","territory":"","country":"Russia","latitude":63.9659997,"longitude":47.1141093,"population":109,"stateCapital":false,"nationalCapital":false,"pk":null,"quiz":"asia","code":null,"archived":false,"percentageOfSessions":null}, {"name":"Кривушево","state":"Komi","territory":"","country":"Russia","latitude":63.488449,"longitude":49.905464,"population":0,"stateCapital":false,"nationalCapital":false,"pk":null,"quiz":"asia","code":null,"archived":false,"percentageOfSessions":null}, {"name":"Крутоборка","state":"Komi","territory":"","country":"Russia","latitude":61.398,"longitude":52.8645,"population":0,"stateCapital":false,"nationalCapital":false,"pk":null,"quiz":"asia","code":null,"archived":false,"percentageOfSessions":null}, {"name":"Крутотыла","state":"Komi","territory":"","country":"Russia","latitude":59.6306043,"longitude":49.3748191,"population":29,"stateCapital":false,"nationalCapital":false,"pk":null,"quiz":"asia","code":null,"archived":false,"percentageOfSessions":null}, {"name":"Крысовка","state":"Komi","territory":"","country":"Russia","latitude":59.5160079,"longitude":49.4330579,"population":1,"stateCapital":false,"nationalCapital":false,"pk":null,"quiz":"asia","code":null,"archived":false,"percentageOfSessions":null}, {"name":"Кужба","state":"Komi","territory":"","country":"Russia","latitude":61.7547923,"longitude":53.7128905,"population":277,"stateCapital":false,"nationalCapital":false,"pk":null,"quiz":"asia","code":null,"archived":false,"percentageOfSessions":null}, {"name":"Кузивансикт","state":"Komi","territory":"","country":"Russia","latitude":60.947502,"longitude":50.231506,"population":71,"stateCapital":false,"nationalCapital":false,"pk":null,"quiz":"asia","code":null,"archived":false,"percentageOfSessions":null}, {"name":"Кузнецовская","state":"Komi","territory":"","country":"Russia","latitude":60.5782362,"longitude":48.8424947,"population":32,"stateCapital":false,"nationalCapital":false,"pk":null,"quiz":"asia","code":null,"archived":false,"percentageOfSessions":null}, {"name":"Кузьёль","state":"Komi","territory":"","country":"Russia","latitude":60.3465732,"longitude":50.7794433,"population":294,"stateCapital":false,"nationalCapital":false,"pk":null,"quiz":"asia","code":null,"archived":false,"percentageOfSessions":null}, {"name":"Кулига","state":"Komi","territory":"","country":"Russia","latitude":60.6858685,"longitude":49.0113422,"population":29,"stateCapital":false,"nationalCapital":false,"pk":null,"quiz":"asia","code":null,"archived":false,"percentageOfSessions":null}, {"name":"Кулига","state":"Komi","territory":"","country":"Russia","latitude":60.6858685,"longitude":49.0113422,"population":51,"stateCapital":false,"nationalCapital":false,"pk":null,"quiz":"asia","code":null,"archived":false,"percentageOfSessions":null}, {"name":"Куниб","state":"Komi","territory":"","country":"Russia","latitude":61.1221925,"longitude":50.2600136,"population":551,"stateCapital":false,"nationalCapital":false,"pk":null,"quiz":"asia","code":null,"archived":false,"percentageOfSessions":null}, {"name":"Куратово","state":"Komi","territory":"","country":"Russia","latitude":60.9076413,"longitude":49.722029,"population":313,"stateCapital":false,"nationalCapital":false,"pk":null,"quiz":"asia","code":null,"archived":false,"percentageOfSessions":null}, {"name":"Куръя","state":"Komi","territory":"","country":"Russia","latitude":61.6850252,"longitude":57.2461643,"population":73,"stateCapital":false,"nationalCapital":false,"pk":null,"quiz":"asia","code":null,"archived":false,"percentageOfSessions":null}, {"name":"Куръядор","state":"Komi","territory":"","country":"Russia","latitude":61.83136,"longitude":51.438625,"population":13,"stateCapital":false,"nationalCapital":false,"pk":null,"quiz":"asia","code":null,"archived":false,"percentageOfSessions":null}, {"name":"Кучмозерье","state":"Komi","territory":"","country":"Russia","latitude":63.528294,"longitude":49.572784,"population":35,"stateCapital":false,"nationalCapital":false,"pk":null,"quiz":"asia","code":null,"archived":false,"percentageOfSessions":null}, {"name":"Кушшор","state":"Komi","territory":"","country":"Russia","latitude":66.1683269,"longitude":56.5722017,"population":29,"stateCapital":false,"nationalCapital":false,"pk":null,"quiz":"asia","code":null,"archived":false,"percentageOfSessions":null}, {"name":"Кыддзявидзь","state":"Komi","territory":"","country":"Russia","latitude":60.4913765,"longitude":49.5957242,"population":371,"stateCapital":false,"nationalCapital":false,"pk":null,"quiz":"asia","code":null,"archived":false,"percentageOfSessions":null}, {"name":"Кылтово","state":"Komi","territory":"","country":"Russia","latitude":62.3337203,"longitude":50.9839098,"population":42,"stateCapital":false,"nationalCapital":false,"pk":null,"quiz":"asia","code":null,"archived":false,"percentageOfSessions":null}, {"name":"Кыркещ","state":"Komi","territory":"","country":"Russia","latitude":62.7039058,"longitude":50.9155425,"population":10,"stateCapital":false,"nationalCapital":false,"pk":null,"quiz":"asia","code":null,"archived":false,"percentageOfSessions":null}, {"name":"Кырныша","state":"Komi","territory":"","country":"Russia","latitude":62.111244,"longitude":54.253006,"population":137,"stateCapital":false,"nationalCapital":false,"pk":null,"quiz":"asia","code":null,"archived":false,"percentageOfSessions":null}, {"name":"Кырс","state":"Komi","territory":"","country":"Russia","latitude":62.194923,"longitude":50.083,"population":12,"stateCapital":false,"nationalCapital":false,"pk":null,"quiz":"asia","code":null,"archived":false,"percentageOfSessions":null}, {"name":"Кырта","state":"Komi","territory":"","country":"Russia","latitude":64.0526444,"longitude":57.6893351,"population":66,"stateCapital":false,"nationalCapital":false,"pk":null,"quiz":"asia","code":null,"archived":false,"percentageOfSessions":null}, {"name":"Кырув","state":"Komi","territory":"","country":"Russia","latitude":61.093525,"longitude":50.327969,"population":46,"stateCapital":false,"nationalCapital":false,"pk":null,"quiz":"asia","code":null,"archived":false,"percentageOfSessions":null}, {"name":"Кырув","state":"Komi","territory":"","country":"Russia","latitude":62.113857,"longitude":49.668823,"population":55,"stateCapital":false,"nationalCapital":false,"pk":null,"quiz":"asia","code":null,"archived":false,"percentageOfSessions":null}, {"name":"Кэмдин","state":"Komi","territory":"","country":"Russia","latitude":63.1776762,"longitude":54.4418574,"population":302,"stateCapital":false,"nationalCapital":false,"pk":null,"quiz":"asia","code":null,"archived":false,"percentageOfSessions":null}, {"name":"Кэччойяг","state":"Komi","territory":"","country":"Russia","latitude":61.953484,"longitude":50.642467,"population":48,"stateCapital":false,"nationalCapital":false,"pk":null,"quiz":"asia","code":null,"archived":false,"percentageOfSessions":null}, {"name":"Лаборем","state":"Komi","territory":"","country":"Russia","latitude":61.872326,"longitude":52.624271,"population":93,"stateCapital":false,"nationalCapital":false,"pk":null,"quiz":"asia","code":null,"archived":false,"percentageOfSessions":null}, {"name":"Лазурный","state":"Komi","territory":"","country":"Russia","latitude":65.6344561,"longitude":59.0488917,"population":16,"stateCapital":false,"nationalCapital":false,"pk":null,"quiz":"asia","code":null,"archived":false,"percentageOfSessions":null}, {"name":"Лайково","state":"Komi","territory":"","country":"Russia","latitude":63.089134,"longitude":54.467758,"population":86,"stateCapital":false,"nationalCapital":false,"pk":null,"quiz":"asia","code":null,"archived":false,"percentageOfSessions":null}, {"name":"Ласта","state":"Komi","territory":"","country":"Russia","latitude":64.9263047,"longitude":53.8100576,"population":286,"stateCapital":false,"nationalCapital":false,"pk":null,"quiz":"asia","code":null,"archived":false,"percentageOfSessions":null}, {"name":"Латьюга","state":"Komi","territory":"","country":"Russia","latitude":64.2911815,"longitude":48.8023219,"population":36,"stateCapital":false,"nationalCapital":false,"pk":null,"quiz":"asia","code":null,"archived":false,"percentageOfSessions":null}, {"name":"Лебяжск","state":"Komi","territory":"","country":"Russia","latitude":61.5672768,"longitude":54.5526089,"population":125,"stateCapital":false,"nationalCapital":false,"pk":null,"quiz":"asia","code":null,"archived":false,"percentageOfSessions":null}, {"name":"Лёвкинская","state":"Komi","territory":"","country":"Russia","latitude":64.7711023,"longitude":51.0799055,"population":13,"stateCapital":false,"nationalCapital":false,"pk":null,"quiz":"asia","code":null,"archived":false,"percentageOfSessions":null}, {"name":"Лёждуг","state":"Komi","territory":"","country":"Russia","latitude":67.0002174,"longitude":52.3488741,"population":39,"stateCapital":false,"nationalCapital":false,"pk":null,"quiz":"asia","code":null,"archived":false,"percentageOfSessions":null}, {"name":"Лемты","state":"Komi","territory":"","country":"Russia","latitude":63.8708763,"longitude":56.8377445,"population":221,"stateCapital":false,"nationalCapital":false,"pk":null,"quiz":"asia","code":null,"archived":false,"percentageOfSessions":null}, {"name":"Лемтыбож","state":"Komi","territory":"","country":"Russia","latitude":63.8588839,"longitude":56.9422523,"population":228,"stateCapital":false,"nationalCapital":false,"pk":null,"quiz":"asia","code":null,"archived":false,"percentageOfSessions":null}, {"name":"Летка","state":"Komi","territory":"","country":"Russia","latitude":59.598354,"longitude":49.422676,"population":2679,"stateCapital":false,"nationalCapital":false,"pk":null,"quiz":"asia","code":null,"archived":false,"percentageOfSessions":null}, {"name":"Лёхта","state":"Komi","territory":"","country":"Russia","latitude":60.6483712,"longitude":48.7305343,"population":13,"stateCapital":false,"nationalCapital":false,"pk":null,"quiz":"asia","code":null,"archived":false,"percentageOfSessions":null}, {"name":"Лихачевская","state":"Komi","territory":"","country":"Russia","latitude":60.1426849,"longitude":49.3630784,"population":74,"stateCapital":false,"nationalCapital":false,"pk":null,"quiz":"asia","code":null,"archived":false,"percentageOfSessions":null}, {"name":"Ловля","state":"Komi","territory":"","country":"Russia","latitude":59.9074174,"longitude":49.3895529,"population":3,"stateCapital":false,"nationalCapital":false,"pk":null,"quiz":"asia","code":null,"archived":false,"percentageOfSessions":null}, {"name":"Логинъяг","state":"Komi","territory":"","country":"Russia","latitude":61.299099,"longitude":53.950714,"population":267,"stateCapital":false,"nationalCapital":false,"pk":null,"quiz":"asia","code":null,"archived":false,"percentageOfSessions":null}, {"name":"Лойма","state":"Komi","territory":"","country":"Russia","latitude":60.549957,"longitude":48.811184,"population":237,"stateCapital":false,"nationalCapital":false,"pk":null,"quiz":"asia","code":null,"archived":false,"percentageOfSessions":null}, {"name":"Лопъювад","state":"Komi","territory":"","country":"Russia","latitude":61.746723,"longitude":55.190449,"population":362,"stateCapital":false,"nationalCapital":false,"pk":null,"quiz":"asia","code":null,"archived":false,"percentageOfSessions":null}, {"name":"Лопыдино","state":"Komi","territory":"","country":"Russia","latitude":61.138214,"longitude":52.13607,"population":87,"stateCapital":false,"nationalCapital":false,"pk":null,"quiz":"asia","code":null,"archived":false,"percentageOfSessions":null}, {"name":"Луг","state":"Komi","territory":"","country":"Russia","latitude":62.7880668,"longitude":50.6183227,"population":20,"stateCapital":false,"nationalCapital":false,"pk":null,"quiz":"asia","code":null,"archived":false,"percentageOfSessions":null}, {"name":"Луговой","state":"Komi","territory":"","country":"Russia","latitude":65.1641413,"longitude":57.1068715,"population":488,"stateCapital":false,"nationalCapital":false,"pk":null,"quiz":"asia","code":null,"archived":false,"percentageOfSessions":null}, {"name":"Лукинчи","state":"Komi","territory":"","country":"Russia","latitude":60.329698,"longitude":49.6365111,"population":17,"stateCapital":false,"nationalCapital":false,"pk":null,"quiz":"asia","code":null,"archived":false,"percentageOfSessions":null}, {"name":"Лунпока","state":"Komi","territory":"","country":"Russia","latitude":61.7893,"longitude":53.0018,"population":0,"stateCapital":false,"nationalCapital":false,"pk":null,"quiz":"asia","code":null,"archived":false,"percentageOfSessions":null}, {"name":"Лунь","state":"Komi","territory":"","country":"Russia","latitude":62.235058,"longitude":52.4953,"population":13,"stateCapital":false,"nationalCapital":false,"pk":null,"quiz":"asia","code":null,"archived":false,"percentageOfSessions":null}, {"name":"Лыаёль","state":"Komi","territory":"","country":"Russia","latitude":63.5569195,"longitude":53.9066162,"population":382,"stateCapital":false,"nationalCapital":false,"pk":null,"quiz":"asia","code":null,"archived":false,"percentageOfSessions":null}, {"name":"Лыаты","state":"Komi","territory":"","country":"Russia","latitude":62.119419,"longitude":50.190018,"population":93,"stateCapital":false,"nationalCapital":false,"pk":null,"quiz":"asia","code":null,"archived":false,"percentageOfSessions":null}, {"name":"Лэзым","state":"Komi","territory":"","country":"Russia","latitude":61.445354,"longitude":50.578846,"population":413,"stateCapital":false,"nationalCapital":false,"pk":null,"quiz":"asia","code":null,"archived":false,"percentageOfSessions":null}, {"name":"Лязюв","state":"Komi","territory":"","country":"Russia","latitude":63.5534754,"longitude":47.810791,"population":9,"stateCapital":false,"nationalCapital":false,"pk":null,"quiz":"asia","code":null,"archived":false,"percentageOfSessions":null}, {"name":"Ляли","state":"Komi","territory":"","country":"Russia","latitude":62.287754,"longitude":50.680431,"population":258,"stateCapital":false,"nationalCapital":false,"pk":null,"quiz":"asia","code":null,"archived":false,"percentageOfSessions":null}, {"name":"Ляли","state":"Komi","territory":"","country":"Russia","latitude":62.287754,"longitude":50.680431,"population":56,"stateCapital":false,"nationalCapital":false,"pk":null,"quiz":"asia","code":null,"archived":false,"percentageOfSessions":null}, {"name":"Ляпин","state":"Komi","territory":"","country":"Russia","latitude":61.078663,"longitude":50.360161,"population":86,"stateCapital":false,"nationalCapital":false,"pk":null,"quiz":"asia","code":null,"archived":false,"percentageOfSessions":null}, {"name":"Маджа","state":"Komi","territory":"","country":"Russia","latitude":61.850418,"longitude":51.470818,"population":331,"stateCapital":false,"nationalCapital":false,"pk":null,"quiz":"asia","code":null,"archived":false,"percentageOfSessions":null}, {"name":"Мадмас","state":"Komi","territory":"","country":"Russia","latitude":62.0258756,"longitude":49.323016,"population":793,"stateCapital":false,"nationalCapital":false,"pk":null,"quiz":"asia","code":null,"archived":false,"percentageOfSessions":null}, {"name":"Макар-Ыб","state":"Komi","territory":"","country":"Russia","latitude":63.636177,"longitude":49.453827,"population":51,"stateCapital":false,"nationalCapital":false,"pk":null,"quiz":"asia","code":null,"archived":false,"percentageOfSessions":null}, {"name":"Малая Беберка","state":"Komi","territory":"","country":"Russia","latitude":59.5995753,"longitude":49.3880081,"population":60,"stateCapital":false,"nationalCapital":false,"pk":null,"quiz":"asia","code":null,"archived":false,"percentageOfSessions":null}, {"name":"Малая Кужба","state":"Komi","territory":"","country":"Russia","latitude":61.767582,"longitude":53.676311,"population":164,"stateCapital":false,"nationalCapital":false,"pk":null,"quiz":"asia","code":null,"archived":false,"percentageOfSessions":null}, {"name":"Малая Пера","state":"Komi","territory":"","country":"Russia","latitude":64.180176,"longitude":54.825489,"population":469,"stateCapital":false,"nationalCapital":false,"pk":null,"quiz":"asia","code":null,"archived":false,"percentageOfSessions":null}, {"name":"Малая Пучкома","state":"Komi","territory":"","country":"Russia","latitude":64.0632487,"longitude":46.9173854,"population":9,"stateCapital":false,"nationalCapital":false,"pk":null,"quiz":"asia","code":null,"archived":false,"percentageOfSessions":null}, {"name":"Малая Пысса","state":"Komi","territory":"","country":"Russia","latitude":64.167145,"longitude":48.851646,"population":64,"stateCapital":false,"nationalCapital":false,"pk":null,"quiz":"asia","code":null,"archived":false,"percentageOfSessions":null}, {"name":"Малая Слуда","state":"Komi","territory":"","country":"Russia","latitude":62.009159,"longitude":50.597977,"population":134,"stateCapital":false,"nationalCapital":false,"pk":null,"quiz":"asia","code":null,"archived":false,"percentageOfSessions":null}, {"name":"Мале","state":"Komi","territory":"","country":"Russia","latitude":61.997948,"longitude":54.341671,"population":46,"stateCapital":false,"nationalCapital":false,"pk":null,"quiz":"asia","code":null,"archived":false,"percentageOfSessions":null}, {"name":"Малешор","state":"Komi","territory":"","country":"Russia","latitude":61.159233,"longitude":50.348614,"population":68,"stateCapital":false,"nationalCapital":false,"pk":null,"quiz":"asia","code":null,"archived":false,"percentageOfSessions":null}, {"name":"Малиновка","state":"Komi","territory":"","country":"Russia","latitude":62.9881374,"longitude":52.2034671,"population":0,"stateCapital":false,"nationalCapital":false,"pk":null,"quiz":"asia","code":null,"archived":false,"percentageOfSessions":null}, {"name":"Маловыльгорт","state":"Komi","territory":"","country":"Russia","latitude":60.4276258,"longitude":49.5496357,"population":18,"stateCapital":false,"nationalCapital":false,"pk":null,"quiz":"asia","code":null,"archived":false,"percentageOfSessions":null}, {"name":"Малое Галово","state":"Komi","territory":"","country":"Russia","latitude":65.2861944,"longitude":52.9365213,"population":276,"stateCapital":false,"nationalCapital":false,"pk":null,"quiz":"asia","code":null,"archived":false,"percentageOfSessions":null}, {"name":"Малый Аныб","state":"Komi","territory":"","country":"Russia","latitude":61.834496,"longitude":53.044399,"population":4,"stateCapital":false,"nationalCapital":false,"pk":null,"quiz":"asia","code":null,"archived":false,"percentageOfSessions":null}, {"name":"Мальцевгрезд","state":"Komi","territory":"","country":"Russia","latitude":61.2886721,"longitude":50.5822916,"population":68,"stateCapital":false,"nationalCapital":false,"pk":null,"quiz":"asia","code":null,"archived":false,"percentageOfSessions":null}, {"name":"Мамыль","state":"Komi","territory":"","country":"Russia","latitude":61.9725845,"longitude":56.8272599,"population":15,"stateCapital":false,"nationalCapital":false,"pk":null,"quiz":"asia","code":null,"archived":false,"percentageOfSessions":null}, {"name":"Мандач","state":"Komi","territory":"","country":"Russia","latitude":61.692924,"longitude":50.186516,"population":212,"stateCapital":false,"nationalCapital":false,"pk":null,"quiz":"asia","code":null,"archived":false,"percentageOfSessions":null}, {"name":"Мартиты","state":"Komi","territory":"","country":"Russia","latitude":61.672188,"longitude":51.827751,"population":33,"stateCapital":false,"nationalCapital":false,"pk":null,"quiz":"asia","code":null,"archived":false,"percentageOfSessions":null}, {"name":"Матвеевская","state":"Komi","territory":"","country":"Russia","latitude":60.5225056,"longitude":48.7272734,"population":32,"stateCapital":false,"nationalCapital":false,"pk":null,"quiz":"asia","code":null,"archived":false,"percentageOfSessions":null}, {"name":"Медвежка","state":"Komi","territory":"","country":"Russia","latitude":66.460114,"longitude":52.357784,"population":196,"stateCapital":false,"nationalCapital":false,"pk":null,"quiz":"asia","code":null,"archived":false,"percentageOfSessions":null}, {"name":"Медвежская","state":"Komi","territory":"","country":"Russia","latitude":64.9424422,"longitude":57.5812654,"population":79,"stateCapital":false,"nationalCapital":false,"pk":null,"quiz":"asia","code":null,"archived":false,"percentageOfSessions":null}, {"name":"Межадор","state":"Komi","territory":"","country":"Russia","latitude":61.1537255,"longitude":50.3379218,"population":65,"stateCapital":false,"nationalCapital":false,"pk":null,"quiz":"asia","code":null,"archived":false,"percentageOfSessions":null}, {"name":"Междуреченск","state":"Komi","territory":"","country":"Russia","latitude":63.2182352,"longitude":48.5627304,"population":1418,"stateCapital":false,"nationalCapital":false,"pk":null,"quiz":"asia","code":null,"archived":false,"percentageOfSessions":null}, {"name":"Межег","state":"Komi","territory":"","country":"Russia","latitude":62.065708,"longitude":49.404724,"population":164,"stateCapital":false,"nationalCapital":false,"pk":null,"quiz":"asia","code":null,"archived":false,"percentageOfSessions":null},