{"cities":[{"name":"Абаканы","state":"Pskov","territory":"","country":"Russia","latitude":56.6534,"longitude":28.986,"population":6,"stateCapital":false,"nationalCapital":false,"pk":null,"quiz":"asia","code":null,"archived":false,"percentageOfSessions":null}, {"name":"Абаконово","state":"Pskov","territory":"","country":"Russia","latitude":56.5992867,"longitude":29.4182011,"population":4,"stateCapital":false,"nationalCapital":false,"pk":null,"quiz":"asia","code":null,"archived":false,"percentageOfSessions":null}, {"name":"Аболенье","state":"Pskov","territory":"","country":"Russia","latitude":56.5215329,"longitude":29.0194719,"population":2,"stateCapital":false,"nationalCapital":false,"pk":null,"quiz":"asia","code":null,"archived":false,"percentageOfSessions":null}, {"name":"Абонеженка","state":"Pskov","territory":"","country":"Russia","latitude":57.4809384,"longitude":29.7942542,"population":6,"stateCapital":false,"nationalCapital":false,"pk":null,"quiz":"asia","code":null,"archived":false,"percentageOfSessions":null}, {"name":"Аборино","state":"Pskov","territory":"","country":"Russia","latitude":56.7548278,"longitude":29.8247167,"population":2,"stateCapital":false,"nationalCapital":false,"pk":null,"quiz":"asia","code":null,"archived":false,"percentageOfSessions":null}, {"name":"Аборино","state":"Pskov","territory":"","country":"Russia","latitude":57.2564415,"longitude":28.0334245,"population":14,"stateCapital":false,"nationalCapital":false,"pk":null,"quiz":"asia","code":null,"archived":false,"percentageOfSessions":null}, {"name":"Абросимово","state":"Pskov","territory":"","country":"Russia","latitude":56.546471,"longitude":28.760303,"population":4,"stateCapital":false,"nationalCapital":false,"pk":null,"quiz":"asia","code":null,"archived":false,"percentageOfSessions":null}, {"name":"Абросово","state":"Pskov","territory":"","country":"Russia","latitude":57.866699,"longitude":28.405128,"population":10,"stateCapital":false,"nationalCapital":false,"pk":null,"quiz":"asia","code":null,"archived":false,"percentageOfSessions":null}, {"name":"Абрюшино","state":"Pskov","territory":"","country":"Russia","latitude":57.700073,"longitude":28.684631,"population":2,"stateCapital":false,"nationalCapital":false,"pk":null,"quiz":"asia","code":null,"archived":false,"percentageOfSessions":null}, {"name":"Авдашево","state":"Pskov","territory":"","country":"Russia","latitude":57.671818,"longitude":27.837811,"population":23,"stateCapital":false,"nationalCapital":false,"pk":null,"quiz":"asia","code":null,"archived":false,"percentageOfSessions":null}, {"name":"Авдейково","state":"Pskov","territory":"","country":"Russia","latitude":56.1443217,"longitude":29.9819896,"population":7,"stateCapital":false,"nationalCapital":false,"pk":null,"quiz":"asia","code":null,"archived":false,"percentageOfSessions":null}, {"name":"Авденково","state":"Pskov","territory":"","country":"Russia","latitude":56.6452421,"longitude":28.9209744,"population":0,"stateCapital":false,"nationalCapital":false,"pk":null,"quiz":"asia","code":null,"archived":false,"percentageOfSessions":null}, {"name":"Авдоши","state":"Pskov","territory":"","country":"Russia","latitude":56.8910847,"longitude":28.538237,"population":1,"stateCapital":false,"nationalCapital":false,"pk":null,"quiz":"asia","code":null,"archived":false,"percentageOfSessions":null}, {"name":"Авдоши","state":"Pskov","territory":"","country":"Russia","latitude":57.0315896,"longitude":28.9633054,"population":21,"stateCapital":false,"nationalCapital":false,"pk":null,"quiz":"asia","code":null,"archived":false,"percentageOfSessions":null}, {"name":"Авдятово","state":"Pskov","territory":"","country":"Russia","latitude":57.53133,"longitude":28.350407,"population":3,"stateCapital":false,"nationalCapital":false,"pk":null,"quiz":"asia","code":null,"archived":false,"percentageOfSessions":null}, {"name":"Аверово","state":"Pskov","territory":"","country":"Russia","latitude":56.6803038,"longitude":30.0955313,"population":4,"stateCapital":false,"nationalCapital":false,"pk":null,"quiz":"asia","code":null,"archived":false,"percentageOfSessions":null}, {"name":"Авинище","state":"Pskov","territory":"","country":"Russia","latitude":56.0945028,"longitude":29.8239477,"population":4,"stateCapital":false,"nationalCapital":false,"pk":null,"quiz":"asia","code":null,"archived":false,"percentageOfSessions":null}, {"name":"Авинищи","state":"Pskov","territory":"","country":"Russia","latitude":57.1365541,"longitude":29.6006017,"population":4,"stateCapital":false,"nationalCapital":false,"pk":null,"quiz":"asia","code":null,"archived":false,"percentageOfSessions":null}, {"name":"Авинищи","state":"Pskov","territory":"","country":"Russia","latitude":56.5197,"longitude":28.8857,"population":1,"stateCapital":false,"nationalCapital":false,"pk":null,"quiz":"asia","code":null,"archived":false,"percentageOfSessions":null}, {"name":"Авинищи","state":"Pskov","territory":"","country":"Russia","latitude":56.0777927,"longitude":29.2672762,"population":0,"stateCapital":false,"nationalCapital":false,"pk":null,"quiz":"asia","code":null,"archived":false,"percentageOfSessions":null}, {"name":"Авинищи","state":"Pskov","territory":"","country":"Russia","latitude":56.0777927,"longitude":29.2672762,"population":15,"stateCapital":false,"nationalCapital":false,"pk":null,"quiz":"asia","code":null,"archived":false,"percentageOfSessions":null}, {"name":"Авинцы","state":"Pskov","territory":"","country":"Russia","latitude":56.1030268,"longitude":31.0722063,"population":6,"stateCapital":false,"nationalCapital":false,"pk":null,"quiz":"asia","code":null,"archived":false,"percentageOfSessions":null}, {"name":"Авинчище","state":"Pskov","territory":"","country":"Russia","latitude":55.99456,"longitude":30.846821,"population":1,"stateCapital":false,"nationalCapital":false,"pk":null,"quiz":"asia","code":null,"archived":false,"percentageOfSessions":null}, {"name":"Авсейково","state":"Pskov","territory":"","country":"Russia","latitude":56.6432,"longitude":28.9727,"population":0,"stateCapital":false,"nationalCapital":false,"pk":null,"quiz":"asia","code":null,"archived":false,"percentageOfSessions":null}, {"name":"Авсейково","state":"Pskov","territory":"","country":"Russia","latitude":56.3180936,"longitude":28.4061736,"population":5,"stateCapital":false,"nationalCapital":false,"pk":null,"quiz":"asia","code":null,"archived":false,"percentageOfSessions":null}, {"name":"Авсейково","state":"Pskov","territory":"","country":"Russia","latitude":55.80096,"longitude":30.735065,"population":0,"stateCapital":false,"nationalCapital":false,"pk":null,"quiz":"asia","code":null,"archived":false,"percentageOfSessions":null}, {"name":"Авсюхово","state":"Pskov","territory":"","country":"Russia","latitude":55.6645654,"longitude":30.6823351,"population":0,"stateCapital":false,"nationalCapital":false,"pk":null,"quiz":"asia","code":null,"archived":false,"percentageOfSessions":null}, {"name":"Авчух","state":"Pskov","territory":"","country":"Russia","latitude":57.620312,"longitude":29.168985,"population":11,"stateCapital":false,"nationalCapital":false,"pk":null,"quiz":"asia","code":null,"archived":false,"percentageOfSessions":null}, {"name":"Агарышево","state":"Pskov","territory":"","country":"Russia","latitude":56.642475,"longitude":28.225933,"population":23,"stateCapital":false,"nationalCapital":false,"pk":null,"quiz":"asia","code":null,"archived":false,"percentageOfSessions":null}, {"name":"Агафонково","state":"Pskov","territory":"","country":"Russia","latitude":56.5755026,"longitude":29.0566343,"population":7,"stateCapital":false,"nationalCapital":false,"pk":null,"quiz":"asia","code":null,"archived":false,"percentageOfSessions":null}, {"name":"Агафоново","state":"Pskov","territory":"","country":"Russia","latitude":56.7560735,"longitude":28.4355718,"population":0,"stateCapital":false,"nationalCapital":false,"pk":null,"quiz":"asia","code":null,"archived":false,"percentageOfSessions":null}, {"name":"Агафоново","state":"Pskov","territory":"","country":"Russia","latitude":56.9314385,"longitude":29.2024306,"population":10,"stateCapital":false,"nationalCapital":false,"pk":null,"quiz":"asia","code":null,"archived":false,"percentageOfSessions":null}, {"name":"Агафоново","state":"Pskov","territory":"","country":"Russia","latitude":57.763443,"longitude":28.783213,"population":7,"stateCapital":false,"nationalCapital":false,"pk":null,"quiz":"asia","code":null,"archived":false,"percentageOfSessions":null}, {"name":"Агерово","state":"Pskov","territory":"","country":"Russia","latitude":57.220856,"longitude":29.855543,"population":8,"stateCapital":false,"nationalCapital":false,"pk":null,"quiz":"asia","code":null,"archived":false,"percentageOfSessions":null}, {"name":"Агрофенино","state":"Pskov","territory":"","country":"Russia","latitude":57.3069,"longitude":28.914381,"population":0,"stateCapital":false,"nationalCapital":false,"pk":null,"quiz":"asia","code":null,"archived":false,"percentageOfSessions":null}, {"name":"Агурьево","state":"Pskov","territory":"","country":"Russia","latitude":56.510399,"longitude":28.755301,"population":6,"stateCapital":false,"nationalCapital":false,"pk":null,"quiz":"asia","code":null,"archived":false,"percentageOfSessions":null}, {"name":"Агурьяново","state":"Pskov","territory":"","country":"Russia","latitude":56.4750266,"longitude":28.453904,"population":5,"stateCapital":false,"nationalCapital":false,"pk":null,"quiz":"asia","code":null,"archived":false,"percentageOfSessions":null}, {"name":"Адамково","state":"Pskov","territory":"","country":"Russia","latitude":57.107861,"longitude":28.463116,"population":3,"stateCapital":false,"nationalCapital":false,"pk":null,"quiz":"asia","code":null,"archived":false,"percentageOfSessions":null}, {"name":"Адамово","state":"Pskov","territory":"","country":"Russia","latitude":57.436813,"longitude":29.119236,"population":7,"stateCapital":false,"nationalCapital":false,"pk":null,"quiz":"asia","code":null,"archived":false,"percentageOfSessions":null}, {"name":"Адамово","state":"Pskov","territory":"","country":"Russia","latitude":55.939014,"longitude":30.889811,"population":162,"stateCapital":false,"nationalCapital":false,"pk":null,"quiz":"asia","code":null,"archived":false,"percentageOfSessions":null}, {"name":"Адворицы","state":"Pskov","territory":"","country":"Russia","latitude":57.717136,"longitude":28.002619,"population":240,"stateCapital":false,"nationalCapital":false,"pk":null,"quiz":"asia","code":null,"archived":false,"percentageOfSessions":null}, {"name":"Адеришено","state":"Pskov","territory":"","country":"Russia","latitude":57.6919018,"longitude":30.2333168,"population":7,"stateCapital":false,"nationalCapital":false,"pk":null,"quiz":"asia","code":null,"archived":false,"percentageOfSessions":null}, {"name":"Адорье","state":"Pskov","territory":"","country":"Russia","latitude":57.275894,"longitude":29.518377,"population":11,"stateCapital":false,"nationalCapital":false,"pk":null,"quiz":"asia","code":null,"archived":false,"percentageOfSessions":null}, {"name":"Ажово","state":"Pskov","territory":"","country":"Russia","latitude":57.4875,"longitude":28.7110814,"population":4,"stateCapital":false,"nationalCapital":false,"pk":null,"quiz":"asia","code":null,"archived":false,"percentageOfSessions":null}, {"name":"Ажово","state":"Pskov","territory":"","country":"Russia","latitude":57.568802,"longitude":28.497139,"population":0,"stateCapital":false,"nationalCapital":false,"pk":null,"quiz":"asia","code":null,"archived":false,"percentageOfSessions":null}, {"name":"Азарьково","state":"Pskov","territory":"","country":"Russia","latitude":56.098572,"longitude":30.772243,"population":6,"stateCapital":false,"nationalCapital":false,"pk":null,"quiz":"asia","code":null,"archived":false,"percentageOfSessions":null}, {"name":"Азово","state":"Pskov","territory":"","country":"Russia","latitude":56.9789795,"longitude":28.1246015,"population":9,"stateCapital":false,"nationalCapital":false,"pk":null,"quiz":"asia","code":null,"archived":false,"percentageOfSessions":null}, {"name":"Айдарово","state":"Pskov","territory":"","country":"Russia","latitude":56.584873,"longitude":30.068113,"population":22,"stateCapital":false,"nationalCapital":false,"pk":null,"quiz":"asia","code":null,"archived":false,"percentageOfSessions":null}, {"name":"Акатово","state":"Pskov","territory":"","country":"Russia","latitude":57.37199,"longitude":29.054268,"population":14,"stateCapital":false,"nationalCapital":false,"pk":null,"quiz":"asia","code":null,"archived":false,"percentageOfSessions":null}, {"name":"Аккарачково","state":"Pskov","territory":"","country":"Russia","latitude":56.3115703,"longitude":30.6390461,"population":12,"stateCapital":false,"nationalCapital":false,"pk":null,"quiz":"asia","code":null,"archived":false,"percentageOfSessions":null}, {"name":"Аксеново","state":"Pskov","territory":"","country":"Russia","latitude":56.8298551,"longitude":29.5219087,"population":119,"stateCapital":false,"nationalCapital":false,"pk":null,"quiz":"asia","code":null,"archived":false,"percentageOfSessions":null}, {"name":"Аксеново","state":"Pskov","territory":"","country":"Russia","latitude":55.8831614,"longitude":30.0740026,"population":0,"stateCapital":false,"nationalCapital":false,"pk":null,"quiz":"asia","code":null,"archived":false,"percentageOfSessions":null}, {"name":"Аксеново","state":"Pskov","territory":"","country":"Russia","latitude":57.3796891,"longitude":27.8086232,"population":7,"stateCapital":false,"nationalCapital":false,"pk":null,"quiz":"asia","code":null,"archived":false,"percentageOfSessions":null}, {"name":"Аксеново","state":"Pskov","territory":"","country":"Russia","latitude":56.9408,"longitude":29.0246,"population":3,"stateCapital":false,"nationalCapital":false,"pk":null,"quiz":"asia","code":null,"archived":false,"percentageOfSessions":null}, {"name":"Аксеново","state":"Pskov","territory":"","country":"Russia","latitude":56.3078844,"longitude":28.3947674,"population":12,"stateCapital":false,"nationalCapital":false,"pk":null,"quiz":"asia","code":null,"archived":false,"percentageOfSessions":null}, {"name":"Аксентьево","state":"Pskov","territory":"","country":"Russia","latitude":58.259178,"longitude":27.988104,"population":6,"stateCapital":false,"nationalCapital":false,"pk":null,"quiz":"asia","code":null,"archived":false,"percentageOfSessions":null}, {"name":"Аксюхново","state":"Pskov","territory":"","country":"Russia","latitude":56.3159578,"longitude":29.7669646,"population":7,"stateCapital":false,"nationalCapital":false,"pk":null,"quiz":"asia","code":null,"archived":false,"percentageOfSessions":null}, {"name":"Акулино","state":"Pskov","territory":"","country":"Russia","latitude":56.8375908,"longitude":30.0165378,"population":0,"stateCapital":false,"nationalCapital":false,"pk":null,"quiz":"asia","code":null,"archived":false,"percentageOfSessions":null}, {"name":"Акулино","state":"Pskov","territory":"","country":"Russia","latitude":55.936878,"longitude":29.914083,"population":5,"stateCapital":false,"nationalCapital":false,"pk":null,"quiz":"asia","code":null,"archived":false,"percentageOfSessions":null}, {"name":"Акулино","state":"Pskov","territory":"","country":"Russia","latitude":55.936878,"longitude":29.914083,"population":2,"stateCapital":false,"nationalCapital":false,"pk":null,"quiz":"asia","code":null,"archived":false,"percentageOfSessions":null}, {"name":"Акулино","state":"Pskov","territory":"","country":"Russia","latitude":55.936878,"longitude":29.914083,"population":3,"stateCapital":false,"nationalCapital":false,"pk":null,"quiz":"asia","code":null,"archived":false,"percentageOfSessions":null}, {"name":"Акулино","state":"Pskov","territory":"","country":"Russia","latitude":56.3588587,"longitude":30.1098469,"population":0,"stateCapital":false,"nationalCapital":false,"pk":null,"quiz":"asia","code":null,"archived":false,"percentageOfSessions":null}, {"name":"Акулиха","state":"Pskov","territory":"","country":"Russia","latitude":57.430011,"longitude":30.3796003,"population":1,"stateCapital":false,"nationalCapital":false,"pk":null,"quiz":"asia","code":null,"archived":false,"percentageOfSessions":null}, {"name":"Акулово","state":"Pskov","territory":"","country":"Russia","latitude":57.1837576,"longitude":29.4875706,"population":7,"stateCapital":false,"nationalCapital":false,"pk":null,"quiz":"asia","code":null,"archived":false,"percentageOfSessions":null}, {"name":"Алабышево","state":"Pskov","territory":"","country":"Russia","latitude":57.753517,"longitude":28.198912,"population":10,"stateCapital":false,"nationalCapital":false,"pk":null,"quiz":"asia","code":null,"archived":false,"percentageOfSessions":null}, {"name":"Алатовичи","state":"Pskov","territory":"","country":"Russia","latitude":56.3769444,"longitude":28.6811808,"population":24,"stateCapital":false,"nationalCapital":false,"pk":null,"quiz":"asia","code":null,"archived":false,"percentageOfSessions":null}, {"name":"Албашкино","state":"Pskov","territory":"","country":"Russia","latitude":56.283672,"longitude":30.69887,"population":13,"stateCapital":false,"nationalCapital":false,"pk":null,"quiz":"asia","code":null,"archived":false,"percentageOfSessions":null}, {"name":"Але","state":"Pskov","territory":"","country":"Russia","latitude":56.418443,"longitude":29.8393481,"population":10,"stateCapital":false,"nationalCapital":false,"pk":null,"quiz":"asia","code":null,"archived":false,"percentageOfSessions":null}, {"name":"Александрова Слобода","state":"Pskov","territory":"","country":"Russia","latitude":56.9895777,"longitude":28.5640721,"population":13,"stateCapital":false,"nationalCapital":false,"pk":null,"quiz":"asia","code":null,"archived":false,"percentageOfSessions":null}, {"name":"Александровка","state":"Pskov","territory":"","country":"Russia","latitude":57.6832,"longitude":29.7037,"population":1,"stateCapital":false,"nationalCapital":false,"pk":null,"quiz":"asia","code":null,"archived":false,"percentageOfSessions":null}, {"name":"Александровка","state":"Pskov","territory":"","country":"Russia","latitude":57.6832,"longitude":29.7037,"population":0,"stateCapital":false,"nationalCapital":false,"pk":null,"quiz":"asia","code":null,"archived":false,"percentageOfSessions":null}, {"name":"Александровка","state":"Pskov","territory":"","country":"Russia","latitude":57.70866,"longitude":28.922016,"population":7,"stateCapital":false,"nationalCapital":false,"pk":null,"quiz":"asia","code":null,"archived":false,"percentageOfSessions":null}, {"name":"Александрово","state":"Pskov","territory":"","country":"Russia","latitude":57.686943,"longitude":30.12656,"population":24,"stateCapital":false,"nationalCapital":false,"pk":null,"quiz":"asia","code":null,"archived":false,"percentageOfSessions":null}, {"name":"Александрово","state":"Pskov","territory":"","country":"Russia","latitude":56.7079509,"longitude":28.0362143,"population":12,"stateCapital":false,"nationalCapital":false,"pk":null,"quiz":"asia","code":null,"archived":false,"percentageOfSessions":null}, {"name":"Александрово","state":"Pskov","territory":"","country":"Russia","latitude":57.628731,"longitude":29.592281,"population":43,"stateCapital":false,"nationalCapital":false,"pk":null,"quiz":"asia","code":null,"archived":false,"percentageOfSessions":null}, {"name":"Александрово","state":"Pskov","territory":"","country":"Russia","latitude":56.4469,"longitude":28.6146,"population":155,"stateCapital":false,"nationalCapital":false,"pk":null,"quiz":"asia","code":null,"archived":false,"percentageOfSessions":null}, {"name":"Александрово","state":"Pskov","territory":"","country":"Russia","latitude":56.4469,"longitude":28.6146,"population":0,"stateCapital":false,"nationalCapital":false,"pk":null,"quiz":"asia","code":null,"archived":false,"percentageOfSessions":null}, {"name":"Алексеевка","state":"Pskov","territory":"","country":"Russia","latitude":57.4451855,"longitude":28.5743623,"population":69,"stateCapital":false,"nationalCapital":false,"pk":null,"quiz":"asia","code":null,"archived":false,"percentageOfSessions":null}, {"name":"Алексеевка","state":"Pskov","territory":"","country":"Russia","latitude":57.987794,"longitude":29.0812482,"population":4,"stateCapital":false,"nationalCapital":false,"pk":null,"quiz":"asia","code":null,"archived":false,"percentageOfSessions":null}, {"name":"Алексеевка","state":"Pskov","territory":"","country":"Russia","latitude":55.8643343,"longitude":30.4229772,"population":1,"stateCapital":false,"nationalCapital":false,"pk":null,"quiz":"asia","code":null,"archived":false,"percentageOfSessions":null}, {"name":"Алексеево","state":"Pskov","territory":"","country":"Russia","latitude":56.7505966,"longitude":29.7209033,"population":4,"stateCapital":false,"nationalCapital":false,"pk":null,"quiz":"asia","code":null,"archived":false,"percentageOfSessions":null}, {"name":"Алексеево","state":"Pskov","territory":"","country":"Russia","latitude":56.7505966,"longitude":29.7209033,"population":0,"stateCapital":false,"nationalCapital":false,"pk":null,"quiz":"asia","code":null,"archived":false,"percentageOfSessions":null}, {"name":"Алексеевское","state":"Pskov","territory":"","country":"Russia","latitude":56.713638,"longitude":30.193007,"population":47,"stateCapital":false,"nationalCapital":false,"pk":null,"quiz":"asia","code":null,"archived":false,"percentageOfSessions":null}, {"name":"Алексехново","state":"Pskov","territory":"","country":"Russia","latitude":57.4127105,"longitude":27.9806952,"population":0,"stateCapital":false,"nationalCapital":false,"pk":null,"quiz":"asia","code":null,"archived":false,"percentageOfSessions":null}, {"name":"Алексино","state":"Pskov","territory":"","country":"Russia","latitude":57.193359,"longitude":29.79162,"population":6,"stateCapital":false,"nationalCapital":false,"pk":null,"quiz":"asia","code":null,"archived":false,"percentageOfSessions":null}, {"name":"Алексино","state":"Pskov","territory":"","country":"Russia","latitude":56.333992,"longitude":30.628504,"population":27,"stateCapital":false,"nationalCapital":false,"pk":null,"quiz":"asia","code":null,"archived":false,"percentageOfSessions":null}, {"name":"Алексино","state":"Pskov","territory":"","country":"Russia","latitude":57.497157,"longitude":30.4857342,"population":0,"stateCapital":false,"nationalCapital":false,"pk":null,"quiz":"asia","code":null,"archived":false,"percentageOfSessions":null}, {"name":"Алексино","state":"Pskov","territory":"","country":"Russia","latitude":56.8431221,"longitude":28.2390094,"population":10,"stateCapital":false,"nationalCapital":false,"pk":null,"quiz":"asia","code":null,"archived":false,"percentageOfSessions":null}, {"name":"Алексино","state":"Pskov","territory":"","country":"Russia","latitude":56.6716934,"longitude":29.8083373,"population":4,"stateCapital":false,"nationalCapital":false,"pk":null,"quiz":"asia","code":null,"archived":false,"percentageOfSessions":null}, {"name":"Алексино","state":"Pskov","territory":"","country":"Russia","latitude":56.565155,"longitude":28.781269,"population":0,"stateCapital":false,"nationalCapital":false,"pk":null,"quiz":"asia","code":null,"archived":false,"percentageOfSessions":null}, {"name":"Алексино","state":"Pskov","territory":"","country":"Russia","latitude":58.672771,"longitude":28.649582,"population":18,"stateCapital":false,"nationalCapital":false,"pk":null,"quiz":"asia","code":null,"archived":false,"percentageOfSessions":null}, {"name":"Алексино","state":"Pskov","territory":"","country":"Russia","latitude":56.8741201,"longitude":28.9616481,"population":0,"stateCapital":false,"nationalCapital":false,"pk":null,"quiz":"asia","code":null,"archived":false,"percentageOfSessions":null}, {"name":"Алексино","state":"Pskov","territory":"","country":"Russia","latitude":56.8741201,"longitude":28.9616481,"population":0,"stateCapital":false,"nationalCapital":false,"pk":null,"quiz":"asia","code":null,"archived":false,"percentageOfSessions":null}, {"name":"Аленино-Захонье","state":"Pskov","territory":"","country":"Russia","latitude":57.657341,"longitude":29.710035,"population":12,"stateCapital":false,"nationalCapital":false,"pk":null,"quiz":"asia","code":null,"archived":false,"percentageOfSessions":null}, {"name":"Алехново","state":"Pskov","territory":"","country":"Russia","latitude":56.60474,"longitude":30.802591,"population":3,"stateCapital":false,"nationalCapital":false,"pk":null,"quiz":"asia","code":null,"archived":false,"percentageOfSessions":null}, {"name":"Алехново","state":"Pskov","territory":"","country":"Russia","latitude":57.0563559,"longitude":28.7176789,"population":10,"stateCapital":false,"nationalCapital":false,"pk":null,"quiz":"asia","code":null,"archived":false,"percentageOfSessions":null}, {"name":"Алешково","state":"Pskov","territory":"","country":"Russia","latitude":56.3130755,"longitude":29.8789908,"population":0,"stateCapital":false,"nationalCapital":false,"pk":null,"quiz":"asia","code":null,"archived":false,"percentageOfSessions":null}, {"name":"Алешнюги","state":"Pskov","territory":"","country":"Russia","latitude":56.55,"longitude":29.15,"population":10,"stateCapital":false,"nationalCapital":false,"pk":null,"quiz":"asia","code":null,"archived":false,"percentageOfSessions":null}, {"name":"Алешня","state":"Pskov","territory":"","country":"Russia","latitude":57.6364855,"longitude":30.056194,"population":7,"stateCapital":false,"nationalCapital":false,"pk":null,"quiz":"asia","code":null,"archived":false,"percentageOfSessions":null}, {"name":"Алино","state":"Pskov","territory":"","country":"Russia","latitude":56.6061,"longitude":28.8,"population":3,"stateCapital":false,"nationalCapital":false,"pk":null,"quiz":"asia","code":null,"archived":false,"percentageOfSessions":null}, {"name":"Алипино","state":"Pskov","territory":"","country":"Russia","latitude":57.289185,"longitude":29.012196,"population":0,"stateCapital":false,"nationalCapital":false,"pk":null,"quiz":"asia","code":null,"archived":false,"percentageOfSessions":null}, {"name":"Алоль","state":"Pskov","territory":"","country":"Russia","latitude":56.7554785,"longitude":29.3478587,"population":7,"stateCapital":false,"nationalCapital":false,"pk":null,"quiz":"asia","code":null,"archived":false,"percentageOfSessions":null}, {"name":"Алоль","state":"Pskov","territory":"","country":"Russia","latitude":56.4560108,"longitude":29.1149335,"population":162,"stateCapital":false,"nationalCapital":false,"pk":null,"quiz":"asia","code":null,"archived":false,"percentageOfSessions":null}, {"name":"Алтово","state":"Pskov","territory":"","country":"Russia","latitude":56.764526,"longitude":28.673325,"population":15,"stateCapital":false,"nationalCapital":false,"pk":null,"quiz":"asia","code":null,"archived":false,"percentageOfSessions":null}, {"name":"Алтун","state":"Pskov","territory":"","country":"Russia","latitude":57.051624,"longitude":29.131947,"population":24,"stateCapital":false,"nationalCapital":false,"pk":null,"quiz":"asia","code":null,"archived":false,"percentageOfSessions":null}, {"name":"Алуферово","state":"Pskov","territory":"","country":"Russia","latitude":57.1015798,"longitude":28.7474456,"population":10,"stateCapital":false,"nationalCapital":false,"pk":null,"quiz":"asia","code":null,"archived":false,"percentageOfSessions":null}, {"name":"Алушково","state":"Pskov","territory":"","country":"Russia","latitude":56.407101,"longitude":29.622807,"population":64,"stateCapital":false,"nationalCapital":false,"pk":null,"quiz":"asia","code":null,"archived":false,"percentageOfSessions":null}, {"name":"Альфимково","state":"Pskov","territory":"","country":"Russia","latitude":55.9501161,"longitude":31.1887623,"population":18,"stateCapital":false,"nationalCapital":false,"pk":null,"quiz":"asia","code":null,"archived":false,"percentageOfSessions":null}, {"name":"Альфимово","state":"Pskov","territory":"","country":"Russia","latitude":56.6118864,"longitude":30.3802612,"population":0,"stateCapital":false,"nationalCapital":false,"pk":null,"quiz":"asia","code":null,"archived":false,"percentageOfSessions":null}, {"name":"Альфимово","state":"Pskov","territory":"","country":"Russia","latitude":56.6118864,"longitude":30.3802612,"population":0,"stateCapital":false,"nationalCapital":false,"pk":null,"quiz":"asia","code":null,"archived":false,"percentageOfSessions":null}, {"name":"Альхимово","state":"Pskov","territory":"","country":"Russia","latitude":57.563927,"longitude":28.384764,"population":0,"stateCapital":false,"nationalCapital":false,"pk":null,"quiz":"asia","code":null,"archived":false,"percentageOfSessions":null}, {"name":"Альшуты","state":"Pskov","territory":"","country":"Russia","latitude":55.8103595,"longitude":30.4994719,"population":0,"stateCapital":false,"nationalCapital":false,"pk":null,"quiz":"asia","code":null,"archived":false,"percentageOfSessions":null}, {"name":"Аляблево","state":"Pskov","territory":"","country":"Russia","latitude":56.0115405,"longitude":29.8233109,"population":12,"stateCapital":false,"nationalCapital":false,"pk":null,"quiz":"asia","code":null,"archived":false,"percentageOfSessions":null}, {"name":"Амбашкино","state":"Pskov","territory":"","country":"Russia","latitude":56.7977033,"longitude":29.9388182,"population":0,"stateCapital":false,"nationalCapital":false,"pk":null,"quiz":"asia","code":null,"archived":false,"percentageOfSessions":null}, {"name":"Амелино","state":"Pskov","territory":"","country":"Russia","latitude":57.2196229,"longitude":29.2127108,"population":2,"stateCapital":false,"nationalCapital":false,"pk":null,"quiz":"asia","code":null,"archived":false,"percentageOfSessions":null}, {"name":"Амельчино","state":"Pskov","territory":"","country":"Russia","latitude":56.5696322,"longitude":29.2729804,"population":3,"stateCapital":false,"nationalCapital":false,"pk":null,"quiz":"asia","code":null,"archived":false,"percentageOfSessions":null}, {"name":"Амосково","state":"Pskov","territory":"","country":"Russia","latitude":57.580101,"longitude":28.605,"population":7,"stateCapital":false,"nationalCapital":false,"pk":null,"quiz":"asia","code":null,"archived":false,"percentageOfSessions":null}, {"name":"Амосово","state":"Pskov","territory":"","country":"Russia","latitude":57.563694,"longitude":28.839895,"population":8,"stateCapital":false,"nationalCapital":false,"pk":null,"quiz":"asia","code":null,"archived":false,"percentageOfSessions":null}, {"name":"Амосово","state":"Pskov","territory":"","country":"Russia","latitude":57.8807453,"longitude":28.24888,"population":9,"stateCapital":false,"nationalCapital":false,"pk":null,"quiz":"asia","code":null,"archived":false,"percentageOfSessions":null}, {"name":"Амшага","state":"Pskov","territory":"","country":"Russia","latitude":57.0930934,"longitude":29.8104728,"population":3,"stateCapital":false,"nationalCapital":false,"pk":null,"quiz":"asia","code":null,"archived":false,"percentageOfSessions":null}, {"name":"Амшанка","state":"Pskov","territory":"","country":"Russia","latitude":57.350071,"longitude":29.931114,"population":9,"stateCapital":false,"nationalCapital":false,"pk":null,"quiz":"asia","code":null,"archived":false,"percentageOfSessions":null}, {"name":"Анашино","state":"Pskov","territory":"","country":"Russia","latitude":57.2934,"longitude":28.672001,"population":6,"stateCapital":false,"nationalCapital":false,"pk":null,"quiz":"asia","code":null,"archived":false,"percentageOfSessions":null}, {"name":"Анашкино","state":"Pskov","territory":"","country":"Russia","latitude":56.2786613,"longitude":31.2551376,"population":7,"stateCapital":false,"nationalCapital":false,"pk":null,"quiz":"asia","code":null,"archived":false,"percentageOfSessions":null}, {"name":"Анашкино","state":"Pskov","territory":"","country":"Russia","latitude":57.0643385,"longitude":29.3092508,"population":24,"stateCapital":false,"nationalCapital":false,"pk":null,"quiz":"asia","code":null,"archived":false,"percentageOfSessions":null}, {"name":"Анашкино","state":"Pskov","territory":"","country":"Russia","latitude":57.4151733,"longitude":27.9142312,"population":9,"stateCapital":false,"nationalCapital":false,"pk":null,"quiz":"asia","code":null,"archived":false,"percentageOfSessions":null}, {"name":"Анашкино","state":"Pskov","territory":"","country":"Russia","latitude":57.0128261,"longitude":29.0542734,"population":2,"stateCapital":false,"nationalCapital":false,"pk":null,"quiz":"asia","code":null,"archived":false,"percentageOfSessions":null}, {"name":"Ан-Губа","state":"Pskov","territory":"","country":"Russia","latitude":57.220901,"longitude":28.199165,"population":10,"stateCapital":false,"nationalCapital":false,"pk":null,"quiz":"asia","code":null,"archived":false,"percentageOfSessions":null}, {"name":"Андрейково","state":"Pskov","territory":"","country":"Russia","latitude":56.409226,"longitude":30.0245902,"population":1,"stateCapital":false,"nationalCapital":false,"pk":null,"quiz":"asia","code":null,"archived":false,"percentageOfSessions":null}, {"name":"Андрейково","state":"Pskov","territory":"","country":"Russia","latitude":57.73233,"longitude":27.700474,"population":5,"stateCapital":false,"nationalCapital":false,"pk":null,"quiz":"asia","code":null,"archived":false,"percentageOfSessions":null}, {"name":"Андрейково","state":"Pskov","territory":"","country":"Russia","latitude":56.5957092,"longitude":29.4710614,"population":9,"stateCapital":false,"nationalCapital":false,"pk":null,"quiz":"asia","code":null,"archived":false,"percentageOfSessions":null}, {"name":"Андреховщина","state":"Pskov","territory":"","country":"Russia","latitude":58.045067,"longitude":28.285435,"population":1,"stateCapital":false,"nationalCapital":false,"pk":null,"quiz":"asia","code":null,"archived":false,"percentageOfSessions":null}, {"name":"Андрешкино","state":"Pskov","territory":"","country":"Russia","latitude":56.8408036,"longitude":29.7386779,"population":0,"stateCapital":false,"nationalCapital":false,"pk":null,"quiz":"asia","code":null,"archived":false,"percentageOfSessions":null}, {"name":"Андриполье","state":"Pskov","territory":"","country":"Russia","latitude":56.3890388,"longitude":28.4199236,"population":0,"stateCapital":false,"nationalCapital":false,"pk":null,"quiz":"asia","code":null,"archived":false,"percentageOfSessions":null}, {"name":"Андромер","state":"Pskov","territory":"","country":"Russia","latitude":58.358833,"longitude":29.564545,"population":270,"stateCapital":false,"nationalCapital":false,"pk":null,"quiz":"asia","code":null,"archived":false,"percentageOfSessions":null}, {"name":"Андронково","state":"Pskov","territory":"","country":"Russia","latitude":56.3284808,"longitude":29.7718477,"population":2,"stateCapital":false,"nationalCapital":false,"pk":null,"quiz":"asia","code":null,"archived":false,"percentageOfSessions":null}, {"name":"Андронова Гора","state":"Pskov","territory":"","country":"Russia","latitude":58.617573,"longitude":27.893156,"population":5,"stateCapital":false,"nationalCapital":false,"pk":null,"quiz":"asia","code":null,"archived":false,"percentageOfSessions":null}, {"name":"Андроново","state":"Pskov","territory":"","country":"Russia","latitude":55.875103,"longitude":31.171757,"population":44,"stateCapital":false,"nationalCapital":false,"pk":null,"quiz":"asia","code":null,"archived":false,"percentageOfSessions":null}, {"name":"Андроново","state":"Pskov","territory":"","country":"Russia","latitude":57.318901,"longitude":28.576799,"population":0,"stateCapital":false,"nationalCapital":false,"pk":null,"quiz":"asia","code":null,"archived":false,"percentageOfSessions":null}, {"name":"Андрохново","state":"Pskov","territory":"","country":"Russia","latitude":56.5694462,"longitude":29.3582196,"population":9,"stateCapital":false,"nationalCapital":false,"pk":null,"quiz":"asia","code":null,"archived":false,"percentageOfSessions":null}, {"name":"Андрохново","state":"Pskov","territory":"","country":"Russia","latitude":57.1364,"longitude":28.7243,"population":14,"stateCapital":false,"nationalCapital":false,"pk":null,"quiz":"asia","code":null,"archived":false,"percentageOfSessions":null}, {"name":"Андро-Холмы","state":"Pskov","territory":"","country":"Russia","latitude":56.7991746,"longitude":29.4479444,"population":4,"stateCapital":false,"nationalCapital":false,"pk":null,"quiz":"asia","code":null,"archived":false,"percentageOfSessions":null}, {"name":"Андрюши","state":"Pskov","territory":"","country":"Russia","latitude":56.9207425,"longitude":28.8156894,"population":0,"stateCapital":false,"nationalCapital":false,"pk":null,"quiz":"asia","code":null,"archived":false,"percentageOfSessions":null}, {"name":"Андрюшино","state":"Pskov","territory":"","country":"Russia","latitude":56.8052731,"longitude":29.4755149,"population":13,"stateCapital":false,"nationalCapital":false,"pk":null,"quiz":"asia","code":null,"archived":false,"percentageOfSessions":null}, {"name":"Андрюшино","state":"Pskov","territory":"","country":"Russia","latitude":57.738922,"longitude":28.804628,"population":48,"stateCapital":false,"nationalCapital":false,"pk":null,"quiz":"asia","code":null,"archived":false,"percentageOfSessions":null}, {"name":"Анженки","state":"Pskov","territory":"","country":"Russia","latitude":57.3628704,"longitude":27.814871,"population":4,"stateCapital":false,"nationalCapital":false,"pk":null,"quiz":"asia","code":null,"archived":false,"percentageOfSessions":null}, {"name":"Анисимово","state":"Pskov","territory":"","country":"Russia","latitude":56.183739,"longitude":30.818981,"population":17,"stateCapital":false,"nationalCapital":false,"pk":null,"quiz":"asia","code":null,"archived":false,"percentageOfSessions":null}, {"name":"Анисимово","state":"Pskov","territory":"","country":"Russia","latitude":57.17791,"longitude":28.188013,"population":2,"stateCapital":false,"nationalCapital":false,"pk":null,"quiz":"asia","code":null,"archived":false,"percentageOfSessions":null}, {"name":"Анисимово","state":"Pskov","territory":"","country":"Russia","latitude":57.643417,"longitude":28.347054,"population":22,"stateCapital":false,"nationalCapital":false,"pk":null,"quiz":"asia","code":null,"archived":false,"percentageOfSessions":null}, {"name":"Аниткино","state":"Pskov","territory":"","country":"Russia","latitude":57.463501,"longitude":28.330799,"population":0,"stateCapital":false,"nationalCapital":false,"pk":null,"quiz":"asia","code":null,"archived":false,"percentageOfSessions":null}, {"name":"Аничково","state":"Pskov","territory":"","country":"Russia","latitude":56.2300163,"longitude":30.6412375,"population":22,"stateCapital":false,"nationalCapital":false,"pk":null,"quiz":"asia","code":null,"archived":false,"percentageOfSessions":null}, {"name":"Аничковы Гривы","state":"Pskov","territory":"","country":"Russia","latitude":57.61327,"longitude":29.953695,"population":33,"stateCapital":false,"nationalCapital":false,"pk":null,"quiz":"asia","code":null,"archived":false,"percentageOfSessions":null}, {"name":"Аннинское","state":"Pskov","territory":"","country":"Russia","latitude":56.200577,"longitude":28.697325,"population":9,"stateCapital":false,"nationalCapital":false,"pk":null,"quiz":"asia","code":null,"archived":false,"percentageOfSessions":null}, {"name":"Анохово","state":"Pskov","territory":"","country":"Russia","latitude":57.854042,"longitude":27.950148,"population":5,"stateCapital":false,"nationalCapital":false,"pk":null,"quiz":"asia","code":null,"archived":false,"percentageOfSessions":null}, {"name":"Анскино","state":"Pskov","territory":"","country":"Russia","latitude":57.5589203,"longitude":27.8797264,"population":4,"stateCapital":false,"nationalCapital":false,"pk":null,"quiz":"asia","code":null,"archived":false,"percentageOfSessions":null}, {"name":"Антипенки","state":"Pskov","territory":"","country":"Russia","latitude":55.908867,"longitude":30.261169,"population":0,"stateCapital":false,"nationalCapital":false,"pk":null,"quiz":"asia","code":null,"archived":false,"percentageOfSessions":null}, {"name":"Антипово","state":"Pskov","territory":"","country":"Russia","latitude":56.784325,"longitude":30.013525,"population":44,"stateCapital":false,"nationalCapital":false,"pk":null,"quiz":"asia","code":null,"archived":false,"percentageOfSessions":null}, {"name":"Антипово","state":"Pskov","territory":"","country":"Russia","latitude":56.9,"longitude":29.0782,"population":5,"stateCapital":false,"nationalCapital":false,"pk":null,"quiz":"asia","code":null,"archived":false,"percentageOfSessions":null}, {"name":"Антисово","state":"Pskov","territory":"","country":"Russia","latitude":56.1032368,"longitude":28.3314866,"population":9,"stateCapital":false,"nationalCapital":false,"pk":null,"quiz":"asia","code":null,"archived":false,"percentageOfSessions":null}, {"name":"Антоново","state":"Pskov","territory":"","country":"Russia","latitude":56.794102,"longitude":28.5439,"population":33,"stateCapital":false,"nationalCapital":false,"pk":null,"quiz":"asia","code":null,"archived":false,"percentageOfSessions":null}, {"name":"Антоново","state":"Pskov","territory":"","country":"Russia","latitude":57.4446,"longitude":28.2724,"population":0,"stateCapital":false,"nationalCapital":false,"pk":null,"quiz":"asia","code":null,"archived":false,"percentageOfSessions":null}, {"name":"Антоново","state":"Pskov","territory":"","country":"Russia","latitude":57.0022615,"longitude":28.8598199,"population":14,"stateCapital":false,"nationalCapital":false,"pk":null,"quiz":"asia","code":null,"archived":false,"percentageOfSessions":null}, {"name":"Антоново","state":"Pskov","territory":"","country":"Russia","latitude":56.9061855,"longitude":27.8081123,"population":3,"stateCapital":false,"nationalCapital":false,"pk":null,"quiz":"asia","code":null,"archived":false,"percentageOfSessions":null}, {"name":"Антошково","state":"Pskov","territory":"","country":"Russia","latitude":56.988334,"longitude":28.0552823,"population":3,"stateCapital":false,"nationalCapital":false,"pk":null,"quiz":"asia","code":null,"archived":false,"percentageOfSessions":null}, {"name":"Антропково","state":"Pskov","territory":"","country":"Russia","latitude":56.386486,"longitude":29.827694,"population":56,"stateCapital":false,"nationalCapital":false,"pk":null,"quiz":"asia","code":null,"archived":false,"percentageOfSessions":null}, {"name":"Антропово","state":"Pskov","territory":"","country":"Russia","latitude":56.1066325,"longitude":29.8749859,"population":0,"stateCapital":false,"nationalCapital":false,"pk":null,"quiz":"asia","code":null,"archived":false,"percentageOfSessions":null}, {"name":"Антропово","state":"Pskov","territory":"","country":"Russia","latitude":55.769745,"longitude":30.805939,"population":74,"stateCapital":false,"nationalCapital":false,"pk":null,"quiz":"asia","code":null,"archived":false,"percentageOfSessions":null}, {"name":"Антуши","state":"Pskov","territory":"","country":"Russia","latitude":57.2281,"longitude":28.20785,"population":0,"stateCapital":false,"nationalCapital":false,"pk":null,"quiz":"asia","code":null,"archived":false,"percentageOfSessions":null}, {"name":"Ануры","state":"Pskov","territory":"","country":"Russia","latitude":57.319401,"longitude":28.922701,"population":6,"stateCapital":false,"nationalCapital":false,"pk":null,"quiz":"asia","code":null,"archived":false,"percentageOfSessions":null}, {"name":"Ануфриево","state":"Pskov","territory":"","country":"Russia","latitude":56.6821058,"longitude":30.2321827,"population":0,"stateCapital":false,"nationalCapital":false,"pk":null,"quiz":"asia","code":null,"archived":false,"percentageOfSessions":null}, {"name":"Ануфриево","state":"Pskov","territory":"","country":"Russia","latitude":57.258854,"longitude":28.276871,"population":2,"stateCapital":false,"nationalCapital":false,"pk":null,"quiz":"asia","code":null,"archived":false,"percentageOfSessions":null}, {"name":"Анушиха","state":"Pskov","territory":"","country":"Russia","latitude":56.457,"longitude":29.6715,"population":3,"stateCapital":false,"nationalCapital":false,"pk":null,"quiz":"asia","code":null,"archived":false,"percentageOfSessions":null}, {"name":"Анушково","state":"Pskov","territory":"","country":"Russia","latitude":56.3933225,"longitude":29.8840748,"population":0,"stateCapital":false,"nationalCapital":false,"pk":null,"quiz":"asia","code":null,"archived":false,"percentageOfSessions":null}, {"name":"Анциферово","state":"Pskov","territory":"","country":"Russia","latitude":56.7165002,"longitude":29.9596884,"population":10,"stateCapital":false,"nationalCapital":false,"pk":null,"quiz":"asia","code":null,"archived":false,"percentageOfSessions":null}, {"name":"Анциферово","state":"Pskov","territory":"","country":"Russia","latitude":57.1544371,"longitude":27.8995404,"population":20,"stateCapital":false,"nationalCapital":false,"pk":null,"quiz":"asia","code":null,"archived":false,"percentageOfSessions":null}, {"name":"Анченки","state":"Pskov","territory":"","country":"Russia","latitude":56.6372547,"longitude":28.3557176,"population":24,"stateCapital":false,"nationalCapital":false,"pk":null,"quiz":"asia","code":null,"archived":false,"percentageOfSessions":null}, {"name":"Анюткино","state":"Pskov","territory":"","country":"Russia","latitude":57.0702712,"longitude":28.0952186,"population":9,"stateCapital":false,"nationalCapital":false,"pk":null,"quiz":"asia","code":null,"archived":false,"percentageOfSessions":null}, {"name":"Апалево","state":"Pskov","territory":"","country":"Russia","latitude":58.54155,"longitude":28.300676,"population":1,"stateCapital":false,"nationalCapital":false,"pk":null,"quiz":"asia","code":null,"archived":false,"percentageOfSessions":null}, {"name":"Апанасенки","state":"Pskov","territory":"","country":"Russia","latitude":56.1540043,"longitude":29.7433583,"population":3,"stateCapital":false,"nationalCapital":false,"pk":null,"quiz":"asia","code":null,"archived":false,"percentageOfSessions":null}, {"name":"Апанасково","state":"Pskov","territory":"","country":"Russia","latitude":56.642899,"longitude":28.635099,"population":2,"stateCapital":false,"nationalCapital":false,"pk":null,"quiz":"asia","code":null,"archived":false,"percentageOfSessions":null}, {"name":"Апанькино","state":"Pskov","territory":"","country":"Russia","latitude":57.183434,"longitude":28.175524,"population":3,"stateCapital":false,"nationalCapital":false,"pk":null,"quiz":"asia","code":null,"archived":false,"percentageOfSessions":null}, {"name":"Апарино","state":"Pskov","territory":"","country":"Russia","latitude":56.9585858,"longitude":29.9664859,"population":3,"stateCapital":false,"nationalCapital":false,"pk":null,"quiz":"asia","code":null,"archived":false,"percentageOfSessions":null}, {"name":"Апарино","state":"Pskov","territory":"","country":"Russia","latitude":57.6404166,"longitude":28.0572229,"population":0,"stateCapital":false,"nationalCapital":false,"pk":null,"quiz":"asia","code":null,"archived":false,"percentageOfSessions":null}, {"name":"Апарино","state":"Pskov","territory":"","country":"Russia","latitude":56.9522468,"longitude":28.7469131,"population":3,"stateCapital":false,"nationalCapital":false,"pk":null,"quiz":"asia","code":null,"archived":false,"percentageOfSessions":null}, {"name":"Апимахи","state":"Pskov","territory":"","country":"Russia","latitude":56.662571,"longitude":28.708977,"population":10,"stateCapital":false,"nationalCapital":false,"pk":null,"quiz":"asia","code":null,"archived":false,"percentageOfSessions":null}, {"name":"Аполиха","state":"Pskov","territory":"","country":"Russia","latitude":57.4105161,"longitude":29.5999436,"population":0,"stateCapital":false,"nationalCapital":false,"pk":null,"quiz":"asia","code":null,"archived":false,"percentageOfSessions":null}, {"name":"Аполихино","state":"Pskov","territory":"","country":"Russia","latitude":57.5882723,"longitude":27.440861,"population":16,"stateCapital":false,"nationalCapital":false,"pk":null,"quiz":"asia","code":null,"archived":false,"percentageOfSessions":null}, {"name":"Аполье","state":"Pskov","territory":"","country":"Russia","latitude":56.8809338,"longitude":29.9025672,"population":148,"stateCapital":false,"nationalCapital":false,"pk":null,"quiz":"asia","code":null,"archived":false,"percentageOfSessions":null}, {"name":"Аполье","state":"Pskov","territory":"","country":"Russia","latitude":57.213195,"longitude":29.0411568,"population":7,"stateCapital":false,"nationalCapital":false,"pk":null,"quiz":"asia","code":null,"archived":false,"percentageOfSessions":null}, {"name":"Аполье","state":"Pskov","territory":"","country":"Russia","latitude":56.9978184,"longitude":28.6071333,"population":4,"stateCapital":false,"nationalCapital":false,"pk":null,"quiz":"asia","code":null,"archived":false,"percentageOfSessions":null}, {"name":"Апраксино","state":"Pskov","territory":"","country":"Russia","latitude":57.9026676,"longitude":30.3201809,"population":6,"stateCapital":false,"nationalCapital":false,"pk":null,"quiz":"asia","code":null,"archived":false,"percentageOfSessions":null}, {"name":"Апросово","state":"Pskov","territory":"","country":"Russia","latitude":57.5429817,"longitude":30.3957793,"population":9,"stateCapital":false,"nationalCapital":false,"pk":null,"quiz":"asia","code":null,"archived":false,"percentageOfSessions":null}, {"name":"Апросово","state":"Pskov","territory":"","country":"Russia","latitude":56.9714251,"longitude":29.4152284,"population":2,"stateCapital":false,"nationalCapital":false,"pk":null,"quiz":"asia","code":null,"archived":false,"percentageOfSessions":null}, {"name":"Апросово","state":"Pskov","territory":"","country":"Russia","latitude":56.4947549,"longitude":28.3311973,"population":11,"stateCapital":false,"nationalCapital":false,"pk":null,"quiz":"asia","code":null,"archived":false,"percentageOfSessions":null}, {"name":"Апросьево","state":"Pskov","territory":"","country":"Russia","latitude":56.8448024,"longitude":29.7426458,"population":11,"stateCapital":false,"nationalCapital":false,"pk":null,"quiz":"asia","code":null,"archived":false,"percentageOfSessions":null}, {"name":"Апросьево","state":"Pskov","territory":"","country":"Russia","latitude":57.575825,"longitude":28.561184,"population":0,"stateCapital":false,"nationalCapital":false,"pk":null,"quiz":"asia","code":null,"archived":false,"percentageOfSessions":null}, {"name":"Арапово","state":"Pskov","territory":"","country":"Russia","latitude":56.9793,"longitude":29.0232,"population":10,"stateCapital":false,"nationalCapital":false,"pk":null,"quiz":"asia","code":null,"archived":false,"percentageOfSessions":null}, {"name":"Арапы","state":"Pskov","territory":"","country":"Russia","latitude":56.659454,"longitude":28.481409,"population":29,"stateCapital":false,"nationalCapital":false,"pk":null,"quiz":"asia","code":null,"archived":false,"percentageOfSessions":null}, {"name":"Арбузова Щилинка","state":"Pskov","territory":"","country":"Russia","latitude":57.854191,"longitude":29.683678,"population":149,"stateCapital":false,"nationalCapital":false,"pk":null,"quiz":"asia","code":null,"archived":false,"percentageOfSessions":null}, {"name":"Ардашево","state":"Pskov","territory":"","country":"Russia","latitude":57.791771,"longitude":29.004822,"population":3,"stateCapital":false,"nationalCapital":false,"pk":null,"quiz":"asia","code":null,"archived":false,"percentageOfSessions":null}, {"name":"Арестово","state":"Pskov","territory":"","country":"Russia","latitude":56.1324325,"longitude":31.118971,"population":0,"stateCapital":false,"nationalCapital":false,"pk":null,"quiz":"asia","code":null,"archived":false,"percentageOfSessions":null}, {"name":"Арестово","state":"Pskov","territory":"","country":"Russia","latitude":56.334718,"longitude":28.4794652,"population":0,"stateCapital":false,"nationalCapital":false,"pk":null,"quiz":"asia","code":null,"archived":false,"percentageOfSessions":null}, {"name":"Арестово-Шевелево","state":"Pskov","territory":"","country":"Russia","latitude":57.440598,"longitude":28.881357,"population":3,"stateCapital":false,"nationalCapital":false,"pk":null,"quiz":"asia","code":null,"archived":false,"percentageOfSessions":null}, {"name":"Аржаково","state":"Pskov","territory":"","country":"Russia","latitude":56.8596287,"longitude":28.8397095,"population":6,"stateCapital":false,"nationalCapital":false,"pk":null,"quiz":"asia","code":null,"archived":false,"percentageOfSessions":null}, {"name":"Аристово","state":"Pskov","territory":"","country":"Russia","latitude":56.663311,"longitude":28.743807,"population":103,"stateCapital":false,"nationalCapital":false,"pk":null,"quiz":"asia","code":null,"archived":false,"percentageOfSessions":null}, {"name":"Аристово","state":"Pskov","territory":"","country":"Russia","latitude":57.724911,"longitude":27.58139,"population":29,"stateCapital":false,"nationalCapital":false,"pk":null,"quiz":"asia","code":null,"archived":false,"percentageOfSessions":null}, {"name":"Арманово","state":"Pskov","territory":"","country":"Russia","latitude":56.4082231,"longitude":28.3484177,"population":0,"stateCapital":false,"nationalCapital":false,"pk":null,"quiz":"asia","code":null,"archived":false,"percentageOfSessions":null}, {"name":"Арменица","state":"Pskov","territory":"","country":"Russia","latitude":57.498138,"longitude":27.615147,"population":9,"stateCapital":false,"nationalCapital":false,"pk":null,"quiz":"asia","code":null,"archived":false,"percentageOfSessions":null}, {"name":"Армоново","state":"Pskov","territory":"","country":"Russia","latitude":57.0976816,"longitude":27.8369132,"population":3,"stateCapital":false,"nationalCapital":false,"pk":null,"quiz":"asia","code":null,"archived":false,"percentageOfSessions":null}, {"name":"Артамоны","state":"Pskov","territory":"","country":"Russia","latitude":56.8828,"longitude":28.2528,"population":0,"stateCapital":false,"nationalCapital":false,"pk":null,"quiz":"asia","code":null,"archived":false,"percentageOfSessions":null}, {"name":"Артемино","state":"Pskov","territory":"","country":"Russia","latitude":56.9743733,"longitude":29.6379206,"population":4,"stateCapital":false,"nationalCapital":false,"pk":null,"quiz":"asia","code":null,"archived":false,"percentageOfSessions":null}, {"name":"Артемкино","state":"Pskov","territory":"","country":"Russia","latitude":56.6608615,"longitude":29.7546802,"population":1,"stateCapital":false,"nationalCapital":false,"pk":null,"quiz":"asia","code":null,"archived":false,"percentageOfSessions":null}, {"name":"Артемово","state":"Pskov","territory":"","country":"Russia","latitude":56.2919414,"longitude":31.1389086,"population":5,"stateCapital":false,"nationalCapital":false,"pk":null,"quiz":"asia","code":null,"archived":false,"percentageOfSessions":null}, {"name":"Артемово","state":"Pskov","territory":"","country":"Russia","latitude":56.0548577,"longitude":29.3399148,"population":150,"stateCapital":false,"nationalCapital":false,"pk":null,"quiz":"asia","code":null,"archived":false,"percentageOfSessions":null}, {"name":"Артемово","state":"Pskov","territory":"","country":"Russia","latitude":56.0548577,"longitude":29.3399148,"population":4,"stateCapital":false,"nationalCapital":false,"pk":null,"quiz":"asia","code":null,"archived":false,"percentageOfSessions":null}, {"name":"Артемы","state":"Pskov","territory":"","country":"Russia","latitude":57.3040972,"longitude":28.0469074,"population":10,"stateCapital":false,"nationalCapital":false,"pk":null,"quiz":"asia","code":null,"archived":false,"percentageOfSessions":null}, {"name":"Артюхи","state":"Pskov","territory":"","country":"Russia","latitude":56.642396,"longitude":28.3966153,"population":0,"stateCapital":false,"nationalCapital":false,"pk":null,"quiz":"asia","code":null,"archived":false,"percentageOfSessions":null}, {"name":"Артюхово","state":"Pskov","territory":"","country":"Russia","latitude":56.6364982,"longitude":29.153247,"population":2,"stateCapital":false,"nationalCapital":false,"pk":null,"quiz":"asia","code":null,"archived":false,"percentageOfSessions":null}, {"name":"Артюшкино","state":"Pskov","territory":"","country":"Russia","latitude":57.2733976,"longitude":29.7996026,"population":0,"stateCapital":false,"nationalCapital":false,"pk":null,"quiz":"asia","code":null,"archived":false,"percentageOfSessions":null}, {"name":"Артюшкино","state":"Pskov","territory":"","country":"Russia","latitude":57.2733976,"longitude":29.7996026,"population":4,"stateCapital":false,"nationalCapital":false,"pk":null,"quiz":"asia","code":null,"archived":false,"percentageOfSessions":null}, {"name":"Асаново","state":"Pskov","territory":"","country":"Russia","latitude":56.758919,"longitude":29.977779,"population":14,"stateCapital":false,"nationalCapital":false,"pk":null,"quiz":"asia","code":null,"archived":false,"percentageOfSessions":null}, {"name":"Асановщина","state":"Pskov","territory":"","country":"Russia","latitude":57.516937,"longitude":28.364029,"population":1,"stateCapital":false,"nationalCapital":false,"pk":null,"quiz":"asia","code":null,"archived":false,"percentageOfSessions":null}, {"name":"Асипихино","state":"Pskov","territory":"","country":"Russia","latitude":56.7776458,"longitude":28.4699773,"population":10,"stateCapital":false,"nationalCapital":false,"pk":null,"quiz":"asia","code":null,"archived":false,"percentageOfSessions":null}, {"name":"Асмоловичи","state":"Pskov","territory":"","country":"Russia","latitude":55.642643,"longitude":30.688433,"population":0,"stateCapital":false,"nationalCapital":false,"pk":null,"quiz":"asia","code":null,"archived":false,"percentageOfSessions":null}, {"name":"Асница","state":"Pskov","territory":"","country":"Russia","latitude":56.2480427,"longitude":29.8547964,"population":6,"stateCapital":false,"nationalCapital":false,"pk":null,"quiz":"asia","code":null,"archived":false,"percentageOfSessions":null}, {"name":"Астахново","state":"Pskov","territory":"","country":"Russia","latitude":56.9689576,"longitude":28.4611773,"population":0,"stateCapital":false,"nationalCapital":false,"pk":null,"quiz":"asia","code":null,"archived":false,"percentageOfSessions":null}, {"name":"Астахново","state":"Pskov","territory":"","country":"Russia","latitude":56.681271,"longitude":28.694164,"population":13,"stateCapital":false,"nationalCapital":false,"pk":null,"quiz":"asia","code":null,"archived":false,"percentageOfSessions":null}, {"name":"Астахново","state":"Pskov","territory":"","country":"Russia","latitude":57.020382,"longitude":28.891134,"population":171,"stateCapital":false,"nationalCapital":false,"pk":null,"quiz":"asia","code":null,"archived":false,"percentageOfSessions":null}, {"name":"Асташево","state":"Pskov","territory":"","country":"Russia","latitude":56.5084,"longitude":28.847,"population":0,"stateCapital":false,"nationalCapital":false,"pk":null,"quiz":"asia","code":null,"archived":false,"percentageOfSessions":null}, {"name":"Асташково","state":"Pskov","territory":"","country":"Russia","latitude":56.1584935,"longitude":28.8593039,"population":3,"stateCapital":false,"nationalCapital":false,"pk":null,"quiz":"asia","code":null,"archived":false,"percentageOfSessions":null}, {"name":"Асташово","state":"Pskov","territory":"","country":"Russia","latitude":57.4588217,"longitude":27.853988,"population":0,"stateCapital":false,"nationalCapital":false,"pk":null,"quiz":"asia","code":null,"archived":false,"percentageOfSessions":null}, {"name":"Астицы","state":"Pskov","territory":"","country":"Russia","latitude":56.8047,"longitude":28.2057,"population":2,"stateCapital":false,"nationalCapital":false,"pk":null,"quiz":"asia","code":null,"archived":false,"percentageOfSessions":null}, {"name":"Астищи","state":"Pskov","territory":"","country":"Russia","latitude":57.210072,"longitude":29.724457,"population":6,"stateCapital":false,"nationalCapital":false,"pk":null,"quiz":"asia","code":null,"archived":false,"percentageOfSessions":null}, {"name":"Астратово","state":"Pskov","territory":"","country":"Russia","latitude":56.32077,"longitude":30.562599,"population":206,"stateCapital":false,"nationalCapital":false,"pk":null,"quiz":"asia","code":null,"archived":false,"percentageOfSessions":null}, {"name":"Астратово","state":"Pskov","territory":"","country":"Russia","latitude":56.542408,"longitude":29.9636079,"population":6,"stateCapital":false,"nationalCapital":false,"pk":null,"quiz":"asia","code":null,"archived":false,"percentageOfSessions":null}, {"name":"Астратово","state":"Pskov","territory":"","country":"Russia","latitude":57.267799,"longitude":28.7938,"population":6,"stateCapital":false,"nationalCapital":false,"pk":null,"quiz":"asia","code":null,"archived":false,"percentageOfSessions":null}, {"name":"Астратово","state":"Pskov","territory":"","country":"Russia","latitude":57.267799,"longitude":28.7938,"population":0,"stateCapital":false,"nationalCapital":false,"pk":null,"quiz":"asia","code":null,"archived":false,"percentageOfSessions":null}, {"name":"Астратово","state":"Pskov","territory":"","country":"Russia","latitude":57.267799,"longitude":28.7938,"population":19,"stateCapital":false,"nationalCapital":false,"pk":null,"quiz":"asia","code":null,"archived":false,"percentageOfSessions":null}, {"name":"Астратово","state":"Pskov","territory":"","country":"Russia","latitude":57.799862,"longitude":28.111685,"population":0,"stateCapital":false,"nationalCapital":false,"pk":null,"quiz":"asia","code":null,"archived":false,"percentageOfSessions":null}, {"name":"Атаиха","state":"Pskov","territory":"","country":"Russia","latitude":56.8663496,"longitude":29.0328099,"population":0,"stateCapital":false,"nationalCapital":false,"pk":null,"quiz":"asia","code":null,"archived":false,"percentageOfSessions":null}, {"name":"Атаки","state":"Pskov","territory":"","country":"Russia","latitude":57.680912,"longitude":28.270739,"population":11,"stateCapital":false,"nationalCapital":false,"pk":null,"quiz":"asia","code":null,"archived":false,"percentageOfSessions":null}, {"name":"Атрубашка","state":"Pskov","territory":"","country":"Russia","latitude":58.455395,"longitude":28.11101,"population":7,"stateCapital":false,"nationalCapital":false,"pk":null,"quiz":"asia","code":null,"archived":false,"percentageOfSessions":null}, {"name":"Атюхино","state":"Pskov","territory":"","country":"Russia","latitude":57.0147784,"longitude":28.9620887,"population":4,"stateCapital":false,"nationalCapital":false,"pk":null,"quiz":"asia","code":null,"archived":false,"percentageOfSessions":null}, {"name":"Афанасово","state":"Pskov","territory":"","country":"Russia","latitude":56.3221123,"longitude":30.2408028,"population":0,"stateCapital":false,"nationalCapital":false,"pk":null,"quiz":"asia","code":null,"archived":false,"percentageOfSessions":null}, {"name":"Афанасьева Слобода","state":"Pskov","territory":"","country":"Russia","latitude":56.475384,"longitude":28.4593183,"population":14,"stateCapital":false,"nationalCapital":false,"pk":null,"quiz":"asia","code":null,"archived":false,"percentageOfSessions":null}, {"name":"Афаносково","state":"Pskov","territory":"","country":"Russia","latitude":56.7156051,"longitude":29.5452386,"population":10,"stateCapital":false,"nationalCapital":false,"pk":null,"quiz":"asia","code":null,"archived":false,"percentageOfSessions":null}, {"name":"Афимьево","state":"Pskov","territory":"","country":"Russia","latitude":56.5430902,"longitude":29.2285213,"population":0,"stateCapital":false,"nationalCapital":false,"pk":null,"quiz":"asia","code":null,"archived":false,"percentageOfSessions":null}, {"name":"Афонихино","state":"Pskov","territory":"","country":"Russia","latitude":57.237701,"longitude":28.542801,"population":0,"stateCapital":false,"nationalCapital":false,"pk":null,"quiz":"asia","code":null,"archived":false,"percentageOfSessions":null}, {"name":"Афоносово","state":"Pskov","territory":"","country":"Russia","latitude":58.688232,"longitude":28.166243,"population":7,"stateCapital":false,"nationalCapital":false,"pk":null,"quiz":"asia","code":null,"archived":false,"percentageOfSessions":null}, {"name":"Афромеево","state":"Pskov","territory":"","country":"Russia","latitude":57.3170612,"longitude":27.9719015,"population":3,"stateCapital":false,"nationalCapital":false,"pk":null,"quiz":"asia","code":null,"archived":false,"percentageOfSessions":null}, {"name":"Афромеи","state":"Pskov","territory":"","country":"Russia","latitude":57.112,"longitude":28.8899,"population":11,"stateCapital":false,"nationalCapital":false,"pk":null,"quiz":"asia","code":null,"archived":false,"percentageOfSessions":null}, {"name":"Ахлупы","state":"Pskov","territory":"","country":"Russia","latitude":57.4738,"longitude":28.1024,"population":2,"stateCapital":false,"nationalCapital":false,"pk":null,"quiz":"asia","code":null,"archived":false,"percentageOfSessions":null}, {"name":"Ахромеи","state":"Pskov","territory":"","country":"Russia","latitude":56.3695478,"longitude":28.2673336,"population":2,"stateCapital":false,"nationalCapital":false,"pk":null,"quiz":"asia","code":null,"archived":false,"percentageOfSessions":null}, {"name":"Ашево","state":"Pskov","territory":"","country":"Russia","latitude":57.112122,"longitude":29.745142,"population":327,"stateCapital":false,"nationalCapital":false,"pk":null,"quiz":"asia","code":null,"archived":false,"percentageOfSessions":null}, {"name":"Ашитково","state":"Pskov","territory":"","country":"Russia","latitude":57.1192403,"longitude":28.7529403,"population":8,"stateCapital":false,"nationalCapital":false,"pk":null,"quiz":"asia","code":null,"archived":false,"percentageOfSessions":null}, {"name":"Ашково","state":"Pskov","territory":"","country":"Russia","latitude":56.2730402,"longitude":29.0358069,"population":1,"stateCapital":false,"nationalCapital":false,"pk":null,"quiz":"asia","code":null,"archived":false,"percentageOfSessions":null}, {"name":"Ашнарово","state":"Pskov","territory":"","country":"Russia","latitude":56.1227,"longitude":28.8135,"population":3,"stateCapital":false,"nationalCapital":false,"pk":null,"quiz":"asia","code":null,"archived":false,"percentageOfSessions":null}, {"name":"Ащеркино","state":"Pskov","territory":"","country":"Russia","latitude":56.8979541,"longitude":30.0131776,"population":1,"stateCapital":false,"nationalCapital":false,"pk":null,"quiz":"asia","code":null,"archived":false,"percentageOfSessions":null}, {"name":"Бабаево","state":"Pskov","territory":"","country":"Russia","latitude":57.716805,"longitude":28.296709,"population":10,"stateCapital":false,"nationalCapital":false,"pk":null,"quiz":"asia","code":null,"archived":false,"percentageOfSessions":null}, {"name":"Бабаи","state":"Pskov","territory":"","country":"Russia","latitude":57.2420501,"longitude":29.1668858,"population":0,"stateCapital":false,"nationalCapital":false,"pk":null,"quiz":"asia","code":null,"archived":false,"percentageOfSessions":null}, {"name":"Бабарыгино","state":"Pskov","territory":"","country":"Russia","latitude":57.2279155,"longitude":30.0926217,"population":4,"stateCapital":false,"nationalCapital":false,"pk":null,"quiz":"asia","code":null,"archived":false,"percentageOfSessions":null}, {"name":"Бабачи","state":"Pskov","territory":"","country":"Russia","latitude":58.5025708,"longitude":29.4096795,"population":14,"stateCapital":false,"nationalCapital":false,"pk":null,"quiz":"asia","code":null,"archived":false,"percentageOfSessions":null}, {"name":"Бабеевка","state":"Pskov","territory":"","country":"Russia","latitude":56.9342192,"longitude":29.7610837,"population":0,"stateCapital":false,"nationalCapital":false,"pk":null,"quiz":"asia","code":null,"archived":false,"percentageOfSessions":null}, {"name":"Бабеево","state":"Pskov","territory":"","country":"Russia","latitude":56.8420078,"longitude":28.9927307,"population":0,"stateCapital":false,"nationalCapital":false,"pk":null,"quiz":"asia","code":null,"archived":false,"percentageOfSessions":null}, {"name":"Бабенцы","state":"Pskov","territory":"","country":"Russia","latitude":56.729782,"longitude":28.552107,"population":5,"stateCapital":false,"nationalCapital":false,"pk":null,"quiz":"asia","code":null,"archived":false,"percentageOfSessions":null}, {"name":"Бабенцы","state":"Pskov","territory":"","country":"Russia","latitude":56.729782,"longitude":28.552107,"population":11,"stateCapital":false,"nationalCapital":false,"pk":null,"quiz":"asia","code":null,"archived":false,"percentageOfSessions":null}, {"name":"Бабинино","state":"Pskov","territory":"","country":"Russia","latitude":56.630074,"longitude":28.865683,"population":15,"stateCapital":false,"nationalCapital":false,"pk":null,"quiz":"asia","code":null,"archived":false,"percentageOfSessions":null}, {"name":"Бабинкино","state":"Pskov","territory":"","country":"Russia","latitude":56.940933,"longitude":28.4737903,"population":13,"stateCapital":false,"nationalCapital":false,"pk":null,"quiz":"asia","code":null,"archived":false,"percentageOfSessions":null}, {"name":"Бабино","state":"Pskov","territory":"","country":"Russia","latitude":57.2119556,"longitude":29.8539549,"population":9,"stateCapital":false,"nationalCapital":false,"pk":null,"quiz":"asia","code":null,"archived":false,"percentageOfSessions":null}, {"name":"Бабино","state":"Pskov","territory":"","country":"Russia","latitude":56.237587,"longitude":30.493727,"population":14,"stateCapital":false,"nationalCapital":false,"pk":null,"quiz":"asia","code":null,"archived":false,"percentageOfSessions":null}, {"name":"Бабино","state":"Pskov","territory":"","country":"Russia","latitude":56.346924,"longitude":29.914936,"population":4,"stateCapital":false,"nationalCapital":false,"pk":null,"quiz":"asia","code":null,"archived":false,"percentageOfSessions":null}, {"name":"Бабино","state":"Pskov","territory":"","country":"Russia","latitude":56.346924,"longitude":29.914936,"population":8,"stateCapital":false,"nationalCapital":false,"pk":null,"quiz":"asia","code":null,"archived":false,"percentageOfSessions":null}, {"name":"Бабино","state":"Pskov","territory":"","country":"Russia","latitude":57.5574846,"longitude":27.7343173,"population":11,"stateCapital":false,"nationalCapital":false,"pk":null,"quiz":"asia","code":null,"archived":false,"percentageOfSessions":null}, {"name":"Бабино","state":"Pskov","territory":"","country":"Russia","latitude":57.5574846,"longitude":27.7343173,"population":0,"stateCapital":false,"nationalCapital":false,"pk":null,"quiz":"asia","code":null,"archived":false,"percentageOfSessions":null}, {"name":"Бабино","state":"Pskov","territory":"","country":"Russia","latitude":56.8609958,"longitude":27.9666937,"population":3,"stateCapital":false,"nationalCapital":false,"pk":null,"quiz":"asia","code":null,"archived":false,"percentageOfSessions":null}, {"name":"Бабино","state":"Pskov","territory":"","country":"Russia","latitude":56.8609958,"longitude":27.9666937,"population":4,"stateCapital":false,"nationalCapital":false,"pk":null,"quiz":"asia","code":null,"archived":false,"percentageOfSessions":null}, {"name":"Бабинские","state":"Pskov","territory":"","country":"Russia","latitude":55.941971,"longitude":30.046959,"population":15,"stateCapital":false,"nationalCapital":false,"pk":null,"quiz":"asia","code":null,"archived":false,"percentageOfSessions":null}, {"name":"Бабины","state":"Pskov","territory":"","country":"Russia","latitude":56.9775235,"longitude":28.5570284,"population":37,"stateCapital":false,"nationalCapital":false,"pk":null,"quiz":"asia","code":null,"archived":false,"percentageOfSessions":null}, {"name":"Бабины","state":"Pskov","territory":"","country":"Russia","latitude":56.9775235,"longitude":28.5570284,"population":2,"stateCapital":false,"nationalCapital":false,"pk":null,"quiz":"asia","code":null,"archived":false,"percentageOfSessions":null}, {"name":"Бабихино","state":"Pskov","territory":"","country":"Russia","latitude":57.2078031,"longitude":29.045105,"population":4,"stateCapital":false,"nationalCapital":false,"pk":null,"quiz":"asia","code":null,"archived":false,"percentageOfSessions":null}, {"name":"Бабки","state":"Pskov","territory":"","country":"Russia","latitude":56.344944,"longitude":30.386808,"population":4,"stateCapital":false,"nationalCapital":false,"pk":null,"quiz":"asia","code":null,"archived":false,"percentageOfSessions":null}, {"name":"Бабки","state":"Pskov","territory":"","country":"Russia","latitude":56.5361041,"longitude":29.7154243,"population":3,"stateCapital":false,"nationalCapital":false,"pk":null,"quiz":"asia","code":null,"archived":false,"percentageOfSessions":null}, {"name":"Бабкино","state":"Pskov","territory":"","country":"Russia","latitude":57.5701198,"longitude":29.8637881,"population":9,"stateCapital":false,"nationalCapital":false,"pk":null,"quiz":"asia","code":null,"archived":false,"percentageOfSessions":null}, {"name":"Бабкино","state":"Pskov","territory":"","country":"Russia","latitude":56.6977038,"longitude":29.0109402,"population":10,"stateCapital":false,"nationalCapital":false,"pk":null,"quiz":"asia","code":null,"archived":false,"percentageOfSessions":null}, {"name":"Бабкино","state":"Pskov","territory":"","country":"Russia","latitude":58.1285741,"longitude":29.3518805,"population":15,"stateCapital":false,"nationalCapital":false,"pk":null,"quiz":"asia","code":null,"archived":false,"percentageOfSessions":null}, {"name":"Бабурино","state":"Pskov","territory":"","country":"Russia","latitude":57.7990361,"longitude":29.8476788,"population":4,"stateCapital":false,"nationalCapital":false,"pk":null,"quiz":"asia","code":null,"archived":false,"percentageOfSessions":null}, {"name":"Баглицы","state":"Pskov","territory":"","country":"Russia","latitude":58.148563,"longitude":27.981155,"population":2,"stateCapital":false,"nationalCapital":false,"pk":null,"quiz":"asia","code":null,"archived":false,"percentageOfSessions":null}, {"name":"Багуры","state":"Pskov","territory":"","country":"Russia","latitude":55.903942,"longitude":30.393131,"population":18,"stateCapital":false,"nationalCapital":false,"pk":null,"quiz":"asia","code":null,"archived":false,"percentageOfSessions":null}, {"name":"Бадухино","state":"Pskov","territory":"","country":"Russia","latitude":57.5673331,"longitude":28.0936825,"population":6,"stateCapital":false,"nationalCapital":false,"pk":null,"quiz":"asia","code":null,"archived":false,"percentageOfSessions":null}, {"name":"Баево","state":"Pskov","territory":"","country":"Russia","latitude":57.596821,"longitude":28.464668,"population":13,"stateCapital":false,"nationalCapital":false,"pk":null,"quiz":"asia","code":null,"archived":false,"percentageOfSessions":null}, {"name":"Баженово","state":"Pskov","territory":"","country":"Russia","latitude":57.6099912,"longitude":28.373808,"population":4,"stateCapital":false,"nationalCapital":false,"pk":null,"quiz":"asia","code":null,"archived":false,"percentageOfSessions":null}, {"name":"Базары","state":"Pskov","territory":"","country":"Russia","latitude":57.5674918,"longitude":27.9810082,"population":12,"stateCapital":false,"nationalCapital":false,"pk":null,"quiz":"asia","code":null,"archived":false,"percentageOfSessions":null}, {"name":"Базлово","state":"Pskov","territory":"","country":"Russia","latitude":56.4982253,"longitude":30.0176951,"population":60,"stateCapital":false,"nationalCapital":false,"pk":null,"quiz":"asia","code":null,"archived":false,"percentageOfSessions":null}, {"name":"Базыково","state":"Pskov","territory":"","country":"Russia","latitude":57.552612,"longitude":29.803329,"population":38,"stateCapital":false,"nationalCapital":false,"pk":null,"quiz":"asia","code":null,"archived":false,"percentageOfSessions":null}, {"name":"Байдаково","state":"Pskov","territory":"","country":"Russia","latitude":58.814705,"longitude":27.814272,"population":13,"stateCapital":false,"nationalCapital":false,"pk":null,"quiz":"asia","code":null,"archived":false,"percentageOfSessions":null}, {"name":"Байдаково","state":"Pskov","territory":"","country":"Russia","latitude":56.3606486,"longitude":28.4783976,"population":6,"stateCapital":false,"nationalCapital":false,"pk":null,"quiz":"asia","code":null,"archived":false,"percentageOfSessions":null}, {"name":"Байдаково","state":"Pskov","territory":"","country":"Russia","latitude":56.3606486,"longitude":28.4783976,"population":2,"stateCapital":false,"nationalCapital":false,"pk":null,"quiz":"asia","code":null,"archived":false,"percentageOfSessions":null}, {"name":"Байкино","state":"Pskov","territory":"","country":"Russia","latitude":57.2282917,"longitude":29.2172492,"population":17,"stateCapital":false,"nationalCapital":false,"pk":null,"quiz":"asia","code":null,"archived":false,"percentageOfSessions":null}, {"name":"Байкино","state":"Pskov","territory":"","country":"Russia","latitude":56.1314148,"longitude":29.1523834,"population":0,"stateCapital":false,"nationalCapital":false,"pk":null,"quiz":"asia","code":null,"archived":false,"percentageOfSessions":null}, {"name":"Байково","state":"Pskov","territory":"","country":"Russia","latitude":57.520813,"longitude":29.945885,"population":8,"stateCapital":false,"nationalCapital":false,"pk":null,"quiz":"asia","code":null,"archived":false,"percentageOfSessions":null}, {"name":"Байлово","state":"Pskov","territory":"","country":"Russia","latitude":56.6400974,"longitude":29.9340559,"population":2,"stateCapital":false,"nationalCapital":false,"pk":null,"quiz":"asia","code":null,"archived":false,"percentageOfSessions":null}, {"name":"Баканово","state":"Pskov","territory":"","country":"Russia","latitude":56.124786,"longitude":30.583139,"population":0,"stateCapital":false,"nationalCapital":false,"pk":null,"quiz":"asia","code":null,"archived":false,"percentageOfSessions":null}, {"name":"Бакач","state":"Pskov","territory":"","country":"Russia","latitude":57.6352144,"longitude":29.8867693,"population":7,"stateCapital":false,"nationalCapital":false,"pk":null,"quiz":"asia","code":null,"archived":false,"percentageOfSessions":null}, {"name":"Бакач","state":"Pskov","territory":"","country":"Russia","latitude":57.6352144,"longitude":29.8867693,"population":2,"stateCapital":false,"nationalCapital":false,"pk":null,"quiz":"asia","code":null,"archived":false,"percentageOfSessions":null}, {"name":"Бакин Конец","state":"Pskov","territory":"","country":"Russia","latitude":58.791821,"longitude":27.847727,"population":0,"stateCapital":false,"nationalCapital":false,"pk":null,"quiz":"asia","code":null,"archived":false,"percentageOfSessions":null}, {"name":"Бакино","state":"Pskov","territory":"","country":"Russia","latitude":56.899,"longitude":28.9218,"population":20,"stateCapital":false,"nationalCapital":false,"pk":null,"quiz":"asia","code":null,"archived":false,"percentageOfSessions":null}, {"name":"Бакланица","state":"Pskov","territory":"","country":"Russia","latitude":56.436,"longitude":28.5417,"population":4,"stateCapital":false,"nationalCapital":false,"pk":null,"quiz":"asia","code":null,"archived":false,"percentageOfSessions":null}, {"name":"Баколово","state":"Pskov","territory":"","country":"Russia","latitude":56.7425617,"longitude":30.1030344,"population":1,"stateCapital":false,"nationalCapital":false,"pk":null,"quiz":"asia","code":null,"archived":false,"percentageOfSessions":null}, {"name":"Баконово","state":"Pskov","territory":"","country":"Russia","latitude":56.3024571,"longitude":29.1982491,"population":14,"stateCapital":false,"nationalCapital":false,"pk":null,"quiz":"asia","code":null,"archived":false,"percentageOfSessions":null}, {"name":"Балаболы","state":"Pskov","territory":"","country":"Russia","latitude":57.2783069,"longitude":28.0368064,"population":2,"stateCapital":false,"nationalCapital":false,"pk":null,"quiz":"asia","code":null,"archived":false,"percentageOfSessions":null}, {"name":"Балакирево","state":"Pskov","territory":"","country":"Russia","latitude":56.022188,"longitude":29.7872566,"population":11,"stateCapital":false,"nationalCapital":false,"pk":null,"quiz":"asia","code":null,"archived":false,"percentageOfSessions":null}, {"name":"Баландино","state":"Pskov","territory":"","country":"Russia","latitude":56.367275,"longitude":30.602886,"population":820,"stateCapital":false,"nationalCapital":false,"pk":null,"quiz":"asia","code":null,"archived":false,"percentageOfSessions":null}, {"name":"Баландино","state":"Pskov","territory":"","country":"Russia","latitude":56.5863987,"longitude":29.6031334,"population":20,"stateCapital":false,"nationalCapital":false,"pk":null,"quiz":"asia","code":null,"archived":false,"percentageOfSessions":null}, {"name":"Баландино","state":"Pskov","territory":"","country":"Russia","latitude":57.5497415,"longitude":27.9701439,"population":0,"stateCapital":false,"nationalCapital":false,"pk":null,"quiz":"asia","code":null,"archived":false,"percentageOfSessions":null}, {"name":"Баландино","state":"Pskov","territory":"","country":"Russia","latitude":56.95107,"longitude":28.7275123,"population":1,"stateCapital":false,"nationalCapital":false,"pk":null,"quiz":"asia","code":null,"archived":false,"percentageOfSessions":null}, {"name":"Балахи","state":"Pskov","territory":"","country":"Russia","latitude":56.573273,"longitude":28.700876,"population":59,"stateCapital":false,"nationalCapital":false,"pk":null,"quiz":"asia","code":null,"archived":false,"percentageOfSessions":null}, {"name":"Балаши","state":"Pskov","territory":"","country":"Russia","latitude":55.905674,"longitude":30.227571,"population":0,"stateCapital":false,"nationalCapital":false,"pk":null,"quiz":"asia","code":null,"archived":false,"percentageOfSessions":null}, {"name":"Балаши","state":"Pskov","territory":"","country":"Russia","latitude":56.8195259,"longitude":28.6868773,"population":9,"stateCapital":false,"nationalCapital":false,"pk":null,"quiz":"asia","code":null,"archived":false,"percentageOfSessions":null}, {"name":"Балаши","state":"Pskov","territory":"","country":"Russia","latitude":56.4919306,"longitude":29.0491223,"population":0,"stateCapital":false,"nationalCapital":false,"pk":null,"quiz":"asia","code":null,"archived":false,"percentageOfSessions":null}, {"name":"Балашово","state":"Pskov","territory":"","country":"Russia","latitude":56.4980711,"longitude":29.062377,"population":8,"stateCapital":false,"nationalCapital":false,"pk":null,"quiz":"asia","code":null,"archived":false,"percentageOfSessions":null}, {"name":"Балохонцево","state":"Pskov","territory":"","country":"Russia","latitude":56.606842,"longitude":28.860893,"population":8,"stateCapital":false,"nationalCapital":false,"pk":null,"quiz":"asia","code":null,"archived":false,"percentageOfSessions":null}, {"name":"Балсовик","state":"Pskov","territory":"","country":"Russia","latitude":57.8365676,"longitude":28.1301713,"population":10,"stateCapital":false,"nationalCapital":false,"pk":null,"quiz":"asia","code":null,"archived":false,"percentageOfSessions":null}, {"name":"Балсово","state":"Pskov","territory":"","country":"Russia","latitude":58.171856,"longitude":27.73151,"population":17,"stateCapital":false,"nationalCapital":false,"pk":null,"quiz":"asia","code":null,"archived":false,"percentageOfSessions":null}, {"name":"Балыки","state":"Pskov","territory":"","country":"Russia","latitude":56.2448552,"longitude":28.9066564,"population":8,"stateCapital":false,"nationalCapital":false,"pk":null,"quiz":"asia","code":null,"archived":false,"percentageOfSessions":null}, {"name":"Балычи","state":"Pskov","territory":"","country":"Russia","latitude":56.0959445,"longitude":30.8752479,"population":0,"stateCapital":false,"nationalCapital":false,"pk":null,"quiz":"asia","code":null,"archived":false,"percentageOfSessions":null}, {"name":"Балыши","state":"Pskov","territory":"","country":"Russia","latitude":57.1069015,"longitude":28.8994137,"population":0,"stateCapital":false,"nationalCapital":false,"pk":null,"quiz":"asia","code":null,"archived":false,"percentageOfSessions":null}, {"name":"Бальтино","state":"Pskov","territory":"","country":"Russia","latitude":56.604,"longitude":28.381201,"population":0,"stateCapital":false,"nationalCapital":false,"pk":null,"quiz":"asia","code":null,"archived":false,"percentageOfSessions":null}, {"name":"Бандино","state":"Pskov","territory":"","country":"Russia","latitude":56.105,"longitude":30.756735,"population":72,"stateCapital":false,"nationalCapital":false,"pk":null,"quiz":"asia","code":null,"archived":false,"percentageOfSessions":null}, {"name":"Барабаново","state":"Pskov","territory":"","country":"Russia","latitude":57.7805519,"longitude":27.8923291,"population":0,"stateCapital":false,"nationalCapital":false,"pk":null,"quiz":"asia","code":null,"archived":false,"percentageOfSessions":null}, {"name":"Барабаны","state":"Pskov","territory":"","country":"Russia","latitude":56.794731,"longitude":28.684647,"population":28,"stateCapital":false,"nationalCapital":false,"pk":null,"quiz":"asia","code":null,"archived":false,"percentageOfSessions":null}, {"name":"Барановка","state":"Pskov","territory":"","country":"Russia","latitude":58.430336,"longitude":28.079468,"population":24,"stateCapital":false,"nationalCapital":false,"pk":null,"quiz":"asia","code":null,"archived":false,"percentageOfSessions":null}, {"name":"Барановка","state":"Pskov","territory":"","country":"Russia","latitude":57.692841,"longitude":28.196295,"population":2,"stateCapital":false,"nationalCapital":false,"pk":null,"quiz":"asia","code":null,"archived":false,"percentageOfSessions":null}, {"name":"Бараново","state":"Pskov","territory":"","country":"Russia","latitude":56.9291,"longitude":28.4101065,"population":0,"stateCapital":false,"nationalCapital":false,"pk":null,"quiz":"asia","code":null,"archived":false,"percentageOfSessions":null}, {"name":"Бараново","state":"Pskov","territory":"","country":"Russia","latitude":55.9196492,"longitude":31.0389703,"population":22,"stateCapital":false,"nationalCapital":false,"pk":null,"quiz":"asia","code":null,"archived":false,"percentageOfSessions":null}, {"name":"Бараново","state":"Pskov","territory":"","country":"Russia","latitude":56.1215165,"longitude":29.9684751,"population":4,"stateCapital":false,"nationalCapital":false,"pk":null,"quiz":"asia","code":null,"archived":false,"percentageOfSessions":null}, {"name":"Бараново","state":"Pskov","territory":"","country":"Russia","latitude":57.4772,"longitude":28.1829,"population":12,"stateCapital":false,"nationalCapital":false,"pk":null,"quiz":"asia","code":null,"archived":false,"percentageOfSessions":null}, {"name":"Бараново","state":"Pskov","territory":"","country":"Russia","latitude":57.665363,"longitude":29.717051,"population":3,"stateCapital":false,"nationalCapital":false,"pk":null,"quiz":"asia","code":null,"archived":false,"percentageOfSessions":null}, {"name":"Бараново","state":"Pskov","territory":"","country":"Russia","latitude":57.665829,"longitude":28.822153,"population":0,"stateCapital":false,"nationalCapital":false,"pk":null,"quiz":"asia","code":null,"archived":false,"percentageOfSessions":null}, {"name":"Бараново","state":"Pskov","territory":"","country":"Russia","latitude":56.9669,"longitude":28.6087,"population":4,"stateCapital":false,"nationalCapital":false,"pk":null,"quiz":"asia","code":null,"archived":false,"percentageOfSessions":null}, {"name":"Барановщина","state":"Pskov","territory":"","country":"Russia","latitude":56.327358,"longitude":28.45462,"population":7,"stateCapital":false,"nationalCapital":false,"pk":null,"quiz":"asia","code":null,"archived":false,"percentageOfSessions":null}, {"name":"Баранцево","state":"Pskov","territory":"","country":"Russia","latitude":56.8657022,"longitude":29.9177059,"population":11,"stateCapital":false,"nationalCapital":false,"pk":null,"quiz":"asia","code":null,"archived":false,"percentageOfSessions":null}, {"name":"Бараны","state":"Pskov","territory":"","country":"Russia","latitude":56.7947762,"longitude":28.16409,"population":10,"stateCapital":false,"nationalCapital":false,"pk":null,"quiz":"asia","code":null,"archived":false,"percentageOfSessions":null}, {"name":"Барахоловка","state":"Pskov","territory":"","country":"Russia","latitude":57.442749,"longitude":29.227692,"population":0,"stateCapital":false,"nationalCapital":false,"pk":null,"quiz":"asia","code":null,"archived":false,"percentageOfSessions":null}, {"name":"Барашки","state":"Pskov","territory":"","country":"Russia","latitude":57.4231,"longitude":28.5634,"population":3,"stateCapital":false,"nationalCapital":false,"pk":null,"quiz":"asia","code":null,"archived":false,"percentageOfSessions":null}, {"name":"Барашкино","state":"Pskov","territory":"","country":"Russia","latitude":56.8576664,"longitude":28.3509563,"population":2,"stateCapital":false,"nationalCapital":false,"pk":null,"quiz":"asia","code":null,"archived":false,"percentageOfSessions":null}, {"name":"Барашкино","state":"Pskov","territory":"","country":"Russia","latitude":57.0496669,"longitude":29.0098254,"population":0,"stateCapital":false,"nationalCapital":false,"pk":null,"quiz":"asia","code":null,"archived":false,"percentageOfSessions":null}, {"name":"Барашково","state":"Pskov","territory":"","country":"Russia","latitude":56.6420609,"longitude":28.1864407,"population":16,"stateCapital":false,"nationalCapital":false,"pk":null,"quiz":"asia","code":null,"archived":false,"percentageOfSessions":null}, {"name":"Барашково","state":"Pskov","territory":"","country":"Russia","latitude":57.6497052,"longitude":29.2878488,"population":0,"stateCapital":false,"nationalCapital":false,"pk":null,"quiz":"asia","code":null,"archived":false,"percentageOfSessions":null}, {"name":"Барбаши","state":"Pskov","territory":"","country":"Russia","latitude":57.728481,"longitude":28.397039,"population":62,"stateCapital":false,"nationalCapital":false,"pk":null,"quiz":"asia","code":null,"archived":false,"percentageOfSessions":null}, {"name":"Барбашино","state":"Pskov","territory":"","country":"Russia","latitude":56.8288272,"longitude":28.4840641,"population":0,"stateCapital":false,"nationalCapital":false,"pk":null,"quiz":"asia","code":null,"archived":false,"percentageOfSessions":null}, {"name":"Бардино","state":"Pskov","territory":"","country":"Russia","latitude":56.051758,"longitude":30.281191,"population":27,"stateCapital":false,"nationalCapital":false,"pk":null,"quiz":"asia","code":null,"archived":false,"percentageOfSessions":null}, {"name":"Бардово","state":"Pskov","territory":"","country":"Russia","latitude":56.6764607,"longitude":29.3686433,"population":130,"stateCapital":false,"nationalCapital":false,"pk":null,"quiz":"asia","code":null,"archived":false,"percentageOfSessions":null}, {"name":"Барканы","state":"Pskov","territory":"","country":"Russia","latitude":56.063824,"longitude":29.850468,"population":76,"stateCapital":false,"nationalCapital":false,"pk":null,"quiz":"asia","code":null,"archived":false,"percentageOfSessions":null}, {"name":"Барканы","state":"Pskov","territory":"","country":"Russia","latitude":56.6235999,"longitude":29.1905972,"population":0,"stateCapital":false,"nationalCapital":false,"pk":null,"quiz":"asia","code":null,"archived":false,"percentageOfSessions":null}, {"name":"Барлово","state":"Pskov","territory":"","country":"Russia","latitude":56.2507891,"longitude":28.3548202,"population":0,"stateCapital":false,"nationalCapital":false,"pk":null,"quiz":"asia","code":null,"archived":false,"percentageOfSessions":null}, {"name":"Барсаново","state":"Pskov","territory":"","country":"Russia","latitude":56.719593,"longitude":28.565636,"population":144,"stateCapital":false,"nationalCapital":false,"pk":null,"quiz":"asia","code":null,"archived":false,"percentageOfSessions":null}, {"name":"Барсуки","state":"Pskov","territory":"","country":"Russia","latitude":56.872421,"longitude":30.607388,"population":60,"stateCapital":false,"nationalCapital":false,"pk":null,"quiz":"asia","code":null,"archived":false,"percentageOfSessions":null}, {"name":"Барсуки","state":"Pskov","territory":"","country":"Russia","latitude":55.904041,"longitude":30.34601,"population":2,"stateCapital":false,"nationalCapital":false,"pk":null,"quiz":"asia","code":null,"archived":false,"percentageOfSessions":null}, {"name":"Барсуки","state":"Pskov","territory":"","country":"Russia","latitude":55.904041,"longitude":30.34601,"population":0,"stateCapital":false,"nationalCapital":false,"pk":null,"quiz":"asia","code":null,"archived":false,"percentageOfSessions":null}, {"name":"Барсуки","state":"Pskov","territory":"","country":"Russia","latitude":57.1814172,"longitude":28.9856117,"population":5,"stateCapital":false,"nationalCapital":false,"pk":null,"quiz":"asia","code":null,"archived":false,"percentageOfSessions":null}, {"name":"Барсуки","state":"Pskov","territory":"","country":"Russia","latitude":56.7786,"longitude":29.0757,"population":2,"stateCapital":false,"nationalCapital":false,"pk":null,"quiz":"asia","code":null,"archived":false,"percentageOfSessions":null}, {"name":"Барсуки","state":"Pskov","territory":"","country":"Russia","latitude":56.318363,"longitude":28.633604,"population":15,"stateCapital":false,"nationalCapital":false,"pk":null,"quiz":"asia","code":null,"archived":false,"percentageOfSessions":null}, {"name":"Барсуки","state":"Pskov","territory":"","country":"Russia","latitude":56.318363,"longitude":28.633604,"population":1,"stateCapital":false,"nationalCapital":false,"pk":null,"quiz":"asia","code":null,"archived":false,"percentageOfSessions":null}, {"name":"Бартули","state":"Pskov","territory":"","country":"Russia","latitude":56.9253228,"longitude":27.8908065,"population":48,"stateCapital":false,"nationalCapital":false,"pk":null,"quiz":"asia","code":null,"archived":false,"percentageOfSessions":null}, {"name":"Барута","state":"Pskov","territory":"","country":"Russia","latitude":57.058529,"longitude":29.581312,"population":149,"stateCapital":false,"nationalCapital":false,"pk":null,"quiz":"asia","code":null,"archived":false,"percentageOfSessions":null}, {"name":"Басино","state":"Pskov","territory":"","country":"Russia","latitude":57.207142,"longitude":29.144873,"population":33,"stateCapital":false,"nationalCapital":false,"pk":null,"quiz":"asia","code":null,"archived":false,"percentageOfSessions":null}, {"name":"Баслаки","state":"Pskov","territory":"","country":"Russia","latitude":56.8192175,"longitude":29.3736867,"population":9,"stateCapital":false,"nationalCapital":false,"pk":null,"quiz":"asia","code":null,"archived":false,"percentageOfSessions":null}, {"name":"Баслаки","state":"Pskov","territory":"","country":"Russia","latitude":57.398209,"longitude":28.131815,"population":0,"stateCapital":false,"nationalCapital":false,"pk":null,"quiz":"asia","code":null,"archived":false,"percentageOfSessions":null}, {"name":"Баслаки","state":"Pskov","territory":"","country":"Russia","latitude":57.000124,"longitude":28.4807827,"population":3,"stateCapital":false,"nationalCapital":false,"pk":null,"quiz":"asia","code":null,"archived":false,"percentageOfSessions":null}, {"name":"Баталиха","state":"Pskov","territory":"","country":"Russia","latitude":56.304741,"longitude":30.463032,"population":24,"stateCapital":false,"nationalCapital":false,"pk":null,"quiz":"asia","code":null,"archived":false,"percentageOfSessions":null}, {"name":"Баталово","state":"Pskov","territory":"","country":"Russia","latitude":56.7088121,"longitude":28.9968737,"population":0,"stateCapital":false,"nationalCapital":false,"pk":null,"quiz":"asia","code":null,"archived":false,"percentageOfSessions":null}, {"name":"Батино","state":"Pskov","territory":"","country":"Russia","latitude":57.97471,"longitude":29.3811243,"population":5,"stateCapital":false,"nationalCapital":false,"pk":null,"quiz":"asia","code":null,"archived":false,"percentageOfSessions":null}, {"name":"Батково","state":"Pskov","territory":"","country":"Russia","latitude":57.0890066,"longitude":29.1300497,"population":17,"stateCapital":false,"nationalCapital":false,"pk":null,"quiz":"asia","code":null,"archived":false,"percentageOfSessions":null}, {"name":"Батово","state":"Pskov","territory":"","country":"Russia","latitude":57.140881,"longitude":29.912096,"population":16,"stateCapital":false,"nationalCapital":false,"pk":null,"quiz":"asia","code":null,"archived":false,"percentageOfSessions":null}, {"name":"Батово","state":"Pskov","territory":"","country":"Russia","latitude":56.9738486,"longitude":29.2870373,"population":4,"stateCapital":false,"nationalCapital":false,"pk":null,"quiz":"asia","code":null,"archived":false,"percentageOfSessions":null}, {"name":"Батово","state":"Pskov","territory":"","country":"Russia","latitude":56.3378822,"longitude":29.819364,"population":5,"stateCapital":false,"nationalCapital":false,"pk":null,"quiz":"asia","code":null,"archived":false,"percentageOfSessions":null}, {"name":"Батурино","state":"Pskov","territory":"","country":"Russia","latitude":56.2660725,"longitude":29.5403725,"population":20,"stateCapital":false,"nationalCapital":false,"pk":null,"quiz":"asia","code":null,"archived":false,"percentageOfSessions":null}, {"name":"Батутино","state":"Pskov","territory":"","country":"Russia","latitude":56.8991194,"longitude":28.2806562,"population":0,"stateCapital":false,"nationalCapital":false,"pk":null,"quiz":"asia","code":null,"archived":false,"percentageOfSessions":null}, {"name":"Батьково","state":"Pskov","territory":"","country":"Russia","latitude":57.4451,"longitude":28.2478,"population":1,"stateCapital":false,"nationalCapital":false,"pk":null,"quiz":"asia","code":null,"archived":false,"percentageOfSessions":null}, {"name":"Бахарево","state":"Pskov","territory":"","country":"Russia","latitude":56.5294,"longitude":28.6791,"population":0,"stateCapital":false,"nationalCapital":false,"pk":null,"quiz":"asia","code":null,"archived":false,"percentageOfSessions":null}, {"name":"Бахарево","state":"Pskov","territory":"","country":"Russia","latitude":57.491299,"longitude":28.330799,"population":6,"stateCapital":false,"nationalCapital":false,"pk":null,"quiz":"asia","code":null,"archived":false,"percentageOfSessions":null}, {"name":"Бахлица","state":"Pskov","territory":"","country":"Russia","latitude":56.9157951,"longitude":28.647775,"population":1,"stateCapital":false,"nationalCapital":false,"pk":null,"quiz":"asia","code":null,"archived":false,"percentageOfSessions":null}, {"name":"Бахлы","state":"Pskov","territory":"","country":"Russia","latitude":57.3986125,"longitude":28.1401492,"population":0,"stateCapital":false,"nationalCapital":false,"pk":null,"quiz":"asia","code":null,"archived":false,"percentageOfSessions":null}, {"name":"Бахново","state":"Pskov","territory":"","country":"Russia","latitude":57.4468486,"longitude":29.9324122,"population":5,"stateCapital":false,"nationalCapital":false,"pk":null,"quiz":"asia","code":null,"archived":false,"percentageOfSessions":null}, {"name":"Бахуни","state":"Pskov","territory":"","country":"Russia","latitude":58.0139946,"longitude":29.5563924,"population":3,"stateCapital":false,"nationalCapital":false,"pk":null,"quiz":"asia","code":null,"archived":false,"percentageOfSessions":null}, {"name":"Башмаково","state":"Pskov","territory":"","country":"Russia","latitude":55.9210833,"longitude":29.5060869,"population":6,"stateCapital":false,"nationalCapital":false,"pk":null,"quiz":"asia","code":null,"archived":false,"percentageOfSessions":null}, {"name":"Башово","state":"Pskov","territory":"","country":"Russia","latitude":56.650005,"longitude":30.170853,"population":201,"stateCapital":false,"nationalCapital":false,"pk":null,"quiz":"asia","code":null,"archived":false,"percentageOfSessions":null}, {"name":"Бдюхи","state":"Pskov","territory":"","country":"Russia","latitude":57.50383,"longitude":28.736605,"population":5,"stateCapital":false,"nationalCapital":false,"pk":null,"quiz":"asia","code":null,"archived":false,"percentageOfSessions":null}, {"name":"Бебешкино","state":"Pskov","territory":"","country":"Russia","latitude":57.6906351,"longitude":27.5977525,"population":0,"stateCapital":false,"nationalCapital":false,"pk":null,"quiz":"asia","code":null,"archived":false,"percentageOfSessions":null}, {"name":"Бегуново","state":"Pskov","territory":"","country":"Russia","latitude":56.2750231,"longitude":31.1505682,"population":8,"stateCapital":false,"nationalCapital":false,"pk":null,"quiz":"asia","code":null,"archived":false,"percentageOfSessions":null}, {"name":"Бегуново","state":"Pskov","territory":"","country":"Russia","latitude":56.0964361,"longitude":29.7793646,"population":13,"stateCapital":false,"nationalCapital":false,"pk":null,"quiz":"asia","code":null,"archived":false,"percentageOfSessions":null},