{"cities":[{"name":"16 Км","state":"Amur","territory":"","country":"Russia","latitude":52.6981238,"longitude":126.9323399,"population":0,"stateCapital":false,"nationalCapital":false,"pk":null,"quiz":"asia","code":null,"archived":false,"percentageOfSessions":null}, {"name":"Абайкан","state":"Amur","territory":"","country":"Russia","latitude":52.0333816,"longitude":129.4425206,"population":5,"stateCapital":false,"nationalCapital":false,"pk":null,"quiz":"asia","code":null,"archived":false,"percentageOfSessions":null}, {"name":"Аврамовка","state":"Amur","territory":"","country":"Russia","latitude":50.26252,"longitude":129.423492,"population":63,"stateCapital":false,"nationalCapital":false,"pk":null,"quiz":"asia","code":null,"archived":false,"percentageOfSessions":null}, {"name":"Автономовка","state":"Amur","territory":"","country":"Russia","latitude":51.1812719,"longitude":129.0203355,"population":143,"stateCapital":false,"nationalCapital":false,"pk":null,"quiz":"asia","code":null,"archived":false,"percentageOfSessions":null}, {"name":"Актай","state":"Amur","territory":"","country":"Russia","latitude":51.738731,"longitude":127.24762,"population":146,"stateCapital":false,"nationalCapital":false,"pk":null,"quiz":"asia","code":null,"archived":false,"percentageOfSessions":null}, {"name":"Албазинка","state":"Amur","territory":"","country":"Russia","latitude":50.0852616,"longitude":129.0348394,"population":251,"stateCapital":false,"nationalCapital":false,"pk":null,"quiz":"asia","code":null,"archived":false,"percentageOfSessions":null}, {"name":"Албазино","state":"Amur","territory":"","country":"Russia","latitude":53.380463,"longitude":124.08445,"population":403,"stateCapital":false,"nationalCapital":false,"pk":null,"quiz":"asia","code":null,"archived":false,"percentageOfSessions":null}, {"name":"Алгач","state":"Amur","territory":"","country":"Russia","latitude":53.391827,"longitude":126.98719,"population":532,"stateCapital":false,"nationalCapital":false,"pk":null,"quiz":"asia","code":null,"archived":false,"percentageOfSessions":null}, {"name":"Александровка","state":"Amur","territory":"","country":"Russia","latitude":53.595764,"longitude":126.957916,"population":214,"stateCapital":false,"nationalCapital":false,"pk":null,"quiz":"asia","code":null,"archived":false,"percentageOfSessions":null}, {"name":"Алексеевка","state":"Amur","territory":"","country":"Russia","latitude":49.562725,"longitude":129.458984,"population":308,"stateCapital":false,"nationalCapital":false,"pk":null,"quiz":"asia","code":null,"archived":false,"percentageOfSessions":null}, {"name":"Алексеевка","state":"Amur","territory":"","country":"Russia","latitude":53.5474987,"longitude":127.0149964,"population":2,"stateCapital":false,"nationalCapital":false,"pk":null,"quiz":"asia","code":null,"archived":false,"percentageOfSessions":null}, {"name":"Алексеевка","state":"Amur","territory":"","country":"Russia","latitude":51.4360863,"longitude":128.7809025,"population":44,"stateCapital":false,"nationalCapital":false,"pk":null,"quiz":"asia","code":null,"archived":false,"percentageOfSessions":null}, {"name":"Амаранка","state":"Amur","territory":"","country":"Russia","latitude":50.686649,"longitude":129.594803,"population":332,"stateCapital":false,"nationalCapital":false,"pk":null,"quiz":"asia","code":null,"archived":false,"percentageOfSessions":null}, {"name":"Амуро-Балтийск","state":"Amur","territory":"","country":"Russia","latitude":53.506962,"longitude":126.795998,"population":227,"stateCapital":false,"nationalCapital":false,"pk":null,"quiz":"asia","code":null,"archived":false,"percentageOfSessions":null}, {"name":"Амурское","state":"Amur","territory":"","country":"Russia","latitude":50.7396363,"longitude":128.7377207,"population":1092,"stateCapital":false,"nationalCapital":false,"pk":null,"quiz":"asia","code":null,"archived":false,"percentageOfSessions":null}, {"name":"Андреевка","state":"Amur","territory":"","country":"Russia","latitude":50.2886073,"longitude":128.2456644,"population":270,"stateCapital":false,"nationalCapital":false,"pk":null,"quiz":"asia","code":null,"archived":false,"percentageOfSessions":null}, {"name":"Анновка","state":"Amur","territory":"","country":"Russia","latitude":50.3801319,"longitude":128.3498226,"population":605,"stateCapital":false,"nationalCapital":false,"pk":null,"quiz":"asia","code":null,"archived":false,"percentageOfSessions":null}, {"name":"Аносово","state":"Amur","territory":"","country":"Russia","latitude":52.1629271,"longitude":126.5894044,"population":128,"stateCapital":false,"nationalCapital":false,"pk":null,"quiz":"asia","code":null,"archived":false,"percentageOfSessions":null}, {"name":"Аносовский","state":"Amur","territory":"","country":"Russia","latitude":54.624718,"longitude":123.972748,"population":233,"stateCapital":false,"nationalCapital":false,"pk":null,"quiz":"asia","code":null,"archived":false,"percentageOfSessions":null}, {"name":"Антоновка","state":"Amur","territory":"","country":"Russia","latitude":49.4311823,"longitude":129.9438784,"population":153,"stateCapital":false,"nationalCapital":false,"pk":null,"quiz":"asia","code":null,"archived":false,"percentageOfSessions":null}, {"name":"Антоновка","state":"Amur","territory":"","country":"Russia","latitude":49.861298,"longitude":129.36969,"population":501,"stateCapital":false,"nationalCapital":false,"pk":null,"quiz":"asia","code":null,"archived":false,"percentageOfSessions":null}, {"name":"Антоновка","state":"Amur","territory":"","country":"Russia","latitude":51.477535,"longitude":128.570251,"population":49,"stateCapital":false,"nationalCapital":false,"pk":null,"quiz":"asia","code":null,"archived":false,"percentageOfSessions":null}, {"name":"Апрельский","state":"Amur","territory":"","country":"Russia","latitude":53.5003068,"longitude":126.277901,"population":54,"stateCapital":false,"nationalCapital":false,"pk":null,"quiz":"asia","code":null,"archived":false,"percentageOfSessions":null}, {"name":"Арга","state":"Amur","territory":"","country":"Russia","latitude":51.2742,"longitude":128.24324,"population":657,"stateCapital":false,"nationalCapital":false,"pk":null,"quiz":"asia","code":null,"archived":false,"percentageOfSessions":null}, {"name":"Аркадьевка","state":"Amur","territory":"","country":"Russia","latitude":49.4030188,"longitude":130.138338,"population":676,"stateCapital":false,"nationalCapital":false,"pk":null,"quiz":"asia","code":null,"archived":false,"percentageOfSessions":null}, {"name":"Арсентьевка","state":"Amur","territory":"","country":"Russia","latitude":49.980431,"longitude":128.863083,"population":213,"stateCapital":false,"nationalCapital":false,"pk":null,"quiz":"asia","code":null,"archived":false,"percentageOfSessions":null}, {"name":"Архара","state":"Amur","territory":"","country":"Russia","latitude":49.4224283,"longitude":130.0858308,"population":9585,"stateCapital":false,"nationalCapital":false,"pk":null,"quiz":"asia","code":null,"archived":false,"percentageOfSessions":null}, {"name":"Асташиха","state":"Amur","territory":"","country":"Russia","latitude":49.4936023,"longitude":129.4786491,"population":130,"stateCapital":false,"nationalCapital":false,"pk":null,"quiz":"asia","code":null,"archived":false,"percentageOfSessions":null}, {"name":"Аячи","state":"Amur","territory":"","country":"Russia","latitude":54.083935,"longitude":121.685478,"population":27,"stateCapital":false,"nationalCapital":false,"pk":null,"quiz":"asia","code":null,"archived":false,"percentageOfSessions":null}, {"name":"Базисное","state":"Amur","territory":"","country":"Russia","latitude":52.138863,"longitude":127.675537,"population":117,"stateCapital":false,"nationalCapital":false,"pk":null,"quiz":"asia","code":null,"archived":false,"percentageOfSessions":null}, {"name":"Бам","state":"Amur","territory":"","country":"Russia","latitude":54.1191524,"longitude":123.7008079,"population":1020,"stateCapital":false,"nationalCapital":false,"pk":null,"quiz":"asia","code":null,"archived":false,"percentageOfSessions":null}, {"name":"Бардагон","state":"Amur","territory":"","country":"Russia","latitude":51.282681,"longitude":128.135056,"population":156,"stateCapital":false,"nationalCapital":false,"pk":null,"quiz":"asia","code":null,"archived":false,"percentageOfSessions":null}, {"name":"Безозерное","state":"Amur","territory":"","country":"Russia","latitude":49.816708,"longitude":129.0266507,"population":539,"stateCapital":false,"nationalCapital":false,"pk":null,"quiz":"asia","code":null,"archived":false,"percentageOfSessions":null}, {"name":"Безымянное","state":"Amur","territory":"","country":"Russia","latitude":49.758651,"longitude":129.0804169,"population":126,"stateCapital":false,"nationalCapital":false,"pk":null,"quiz":"asia","code":null,"archived":false,"percentageOfSessions":null}, {"name":"Беленький","state":"Amur","territory":"","country":"Russia","latitude":54.869999,"longitude":124.376114,"population":203,"stateCapital":false,"nationalCapital":false,"pk":null,"quiz":"asia","code":null,"archived":false,"percentageOfSessions":null}, {"name":"Белогорка","state":"Amur","territory":"","country":"Russia","latitude":50.92844,"longitude":128.60498,"population":302,"stateCapital":false,"nationalCapital":false,"pk":null,"quiz":"asia","code":null,"archived":false,"percentageOfSessions":null}, {"name":"Белогорск","state":"Amur","territory":"","country":"Russia","latitude":50.921326,"longitude":128.47287,"population":68249,"stateCapital":false,"nationalCapital":false,"pk":null,"quiz":"asia","code":null,"archived":false,"percentageOfSessions":null}, {"name":"Белогорье","state":"Amur","territory":"","country":"Russia","latitude":50.478157,"longitude":127.665878,"population":2893,"stateCapital":false,"nationalCapital":false,"pk":null,"quiz":"asia","code":null,"archived":false,"percentageOfSessions":null}, {"name":"Белогорье","state":"Amur","territory":"","country":"Russia","latitude":50.478157,"longitude":127.665878,"population":22,"stateCapital":false,"nationalCapital":false,"pk":null,"quiz":"asia","code":null,"archived":false,"percentageOfSessions":null}, {"name":"Белоногово","state":"Amur","territory":"","country":"Russia","latitude":51.130997,"longitude":128.3526,"population":709,"stateCapital":false,"nationalCapital":false,"pk":null,"quiz":"asia","code":null,"archived":false,"percentageOfSessions":null}, {"name":"Белоусовка","state":"Amur","territory":"","country":"Russia","latitude":50.9890741,"longitude":128.1026027,"population":65,"stateCapital":false,"nationalCapital":false,"pk":null,"quiz":"asia","code":null,"archived":false,"percentageOfSessions":null}, {"name":"Белоцерковка","state":"Amur","territory":"","country":"Russia","latitude":50.7712305,"longitude":128.4944671,"population":302,"stateCapital":false,"nationalCapital":false,"pk":null,"quiz":"asia","code":null,"archived":false,"percentageOfSessions":null}, {"name":"Белоярово","state":"Amur","territory":"","country":"Russia","latitude":51.5929603,"longitude":128.7745913,"population":916,"stateCapital":false,"nationalCapital":false,"pk":null,"quiz":"asia","code":null,"archived":false,"percentageOfSessions":null}, {"name":"Белый Яр","state":"Amur","territory":"","country":"Russia","latitude":50.1876219,"longitude":129.2006369,"population":240,"stateCapital":false,"nationalCapital":false,"pk":null,"quiz":"asia","code":null,"archived":false,"percentageOfSessions":null}, {"name":"Беляковка","state":"Amur","territory":"","country":"Russia","latitude":50.4645038,"longitude":129.3929099,"population":13,"stateCapital":false,"nationalCapital":false,"pk":null,"quiz":"asia","code":null,"archived":false,"percentageOfSessions":null}, {"name":"Береговой","state":"Amur","territory":"","country":"Russia","latitude":54.359257,"longitude":127.483673,"population":1700,"stateCapital":false,"nationalCapital":false,"pk":null,"quiz":"asia","code":null,"archived":false,"percentageOfSessions":null}, {"name":"Березовка","state":"Amur","territory":"","country":"Russia","latitude":53.46772,"longitude":126.966164,"population":162,"stateCapital":false,"nationalCapital":false,"pk":null,"quiz":"asia","code":null,"archived":false,"percentageOfSessions":null}, {"name":"Березовка","state":"Amur","territory":"","country":"Russia","latitude":50.572685,"longitude":127.863457,"population":3435,"stateCapital":false,"nationalCapital":false,"pk":null,"quiz":"asia","code":null,"archived":false,"percentageOfSessions":null}, {"name":"Берея","state":"Amur","territory":"","country":"Russia","latitude":52.1621513,"longitude":127.47256,"population":126,"stateCapital":false,"nationalCapital":false,"pk":null,"quiz":"asia","code":null,"archived":false,"percentageOfSessions":null}, {"name":"Бибиково","state":"Amur","territory":"","country":"Russia","latitude":50.8065629,"longitude":127.2174786,"population":185,"stateCapital":false,"nationalCapital":false,"pk":null,"quiz":"asia","code":null,"archived":false,"percentageOfSessions":null}, {"name":"Бирма","state":"Amur","territory":"","country":"Russia","latitude":51.424831,"longitude":128.7061,"population":48,"stateCapital":false,"nationalCapital":false,"pk":null,"quiz":"asia","code":null,"archived":false,"percentageOfSessions":null}, {"name":"Бичура","state":"Amur","territory":"","country":"Russia","latitude":51.38345,"longitude":128.850739,"population":155,"stateCapital":false,"nationalCapital":false,"pk":null,"quiz":"asia","code":null,"archived":false,"percentageOfSessions":null}, {"name":"Благовещенск","state":"Amur","territory":"","country":"Russia","latitude":50.2600417,"longitude":127.5337378,"population":214390,"stateCapital":true,"nationalCapital":false,"pk":null,"quiz":"asia","code":null,"archived":false,"percentageOfSessions":null}, {"name":"Ближний Сахалин","state":"Amur","territory":"","country":"Russia","latitude":51.309303,"longitude":128.496628,"population":57,"stateCapital":false,"nationalCapital":false,"pk":null,"quiz":"asia","code":null,"archived":false,"percentageOfSessions":null}, {"name":"Богородское","state":"Amur","territory":"","country":"Russia","latitude":50.4431415,"longitude":127.8123275,"population":593,"stateCapital":false,"nationalCapital":false,"pk":null,"quiz":"asia","code":null,"archived":false,"percentageOfSessions":null}, {"name":"Богословка","state":"Amur","territory":"","country":"Russia","latitude":50.3181598,"longitude":128.1605092,"population":49,"stateCapital":false,"nationalCapital":false,"pk":null,"quiz":"asia","code":null,"archived":false,"percentageOfSessions":null}, {"name":"Богословка","state":"Amur","territory":"","country":"Russia","latitude":51.86462,"longitude":129.230331,"population":270,"stateCapital":false,"nationalCapital":false,"pk":null,"quiz":"asia","code":null,"archived":false,"percentageOfSessions":null}, {"name":"Богучан","state":"Amur","territory":"","country":"Russia","latitude":49.2854344,"longitude":130.2619639,"population":89,"stateCapital":false,"nationalCapital":false,"pk":null,"quiz":"asia","code":null,"archived":false,"percentageOfSessions":null}, {"name":"Болдыревка","state":"Amur","territory":"","country":"Russia","latitude":50.225163,"longitude":129.502411,"population":539,"stateCapital":false,"nationalCapital":false,"pk":null,"quiz":"asia","code":null,"archived":false,"percentageOfSessions":null}, {"name":"Большая Омутная","state":"Amur","territory":"","country":"Russia","latitude":54.020332,"longitude":122.262123,"population":184,"stateCapital":false,"nationalCapital":false,"pk":null,"quiz":"asia","code":null,"archived":false,"percentageOfSessions":null}, {"name":"Большая Сазанка","state":"Amur","territory":"","country":"Russia","latitude":51.1830051,"longitude":128.1531785,"population":590,"stateCapital":false,"nationalCapital":false,"pk":null,"quiz":"asia","code":null,"archived":false,"percentageOfSessions":null}, {"name":"Большеозерка","state":"Amur","territory":"","country":"Russia","latitude":50.390076,"longitude":128.150284,"population":239,"stateCapital":false,"nationalCapital":false,"pk":null,"quiz":"asia","code":null,"archived":false,"percentageOfSessions":null}, {"name":"Бомнак","state":"Amur","territory":"","country":"Russia","latitude":54.709351,"longitude":128.844437,"population":479,"stateCapital":false,"nationalCapital":false,"pk":null,"quiz":"asia","code":null,"archived":false,"percentageOfSessions":null}, {"name":"Бон","state":"Amur","territory":"","country":"Russia","latitude":49.3811606,"longitude":130.1024441,"population":16,"stateCapital":false,"nationalCapital":false,"pk":null,"quiz":"asia","code":null,"archived":false,"percentageOfSessions":null}, {"name":"Борисово","state":"Amur","territory":"","country":"Russia","latitude":50.4086372,"longitude":129.2318139,"population":4,"stateCapital":false,"nationalCapital":false,"pk":null,"quiz":"asia","code":null,"archived":false,"percentageOfSessions":null}, {"name":"Борисоглебка","state":"Amur","territory":"","country":"Russia","latitude":50.0378631,"longitude":128.61393,"population":213,"stateCapital":false,"nationalCapital":false,"pk":null,"quiz":"asia","code":null,"archived":false,"percentageOfSessions":null}, {"name":"Борисполь","state":"Amur","territory":"","country":"Russia","latitude":51.0477589,"longitude":128.5694819,"population":244,"stateCapital":false,"nationalCapital":false,"pk":null,"quiz":"asia","code":null,"archived":false,"percentageOfSessions":null}, {"name":"Бочкаревка","state":"Amur","territory":"","country":"Russia","latitude":50.954723,"longitude":128.453659,"population":970,"stateCapital":false,"nationalCapital":false,"pk":null,"quiz":"asia","code":null,"archived":false,"percentageOfSessions":null}, {"name":"Братолюбовка","state":"Amur","territory":"","country":"Russia","latitude":50.786316,"longitude":129.422775,"population":108,"stateCapital":false,"nationalCapital":false,"pk":null,"quiz":"asia","code":null,"archived":false,"percentageOfSessions":null}, {"name":"Бугорки","state":"Amur","territory":"","country":"Russia","latitude":54.111233,"longitude":124.690086,"population":72,"stateCapital":false,"nationalCapital":false,"pk":null,"quiz":"asia","code":null,"archived":false,"percentageOfSessions":null}, {"name":"Бузули","state":"Amur","territory":"","country":"Russia","latitude":51.6836111,"longitude":128.1498928,"population":169,"stateCapital":false,"nationalCapital":false,"pk":null,"quiz":"asia","code":null,"archived":false,"percentageOfSessions":null}, {"name":"Бурея","state":"Amur","territory":"","country":"Russia","latitude":49.8106526,"longitude":129.8144637,"population":4833,"stateCapital":false,"nationalCapital":false,"pk":null,"quiz":"asia","code":null,"archived":false,"percentageOfSessions":null}, {"name":"Буссе","state":"Amur","territory":"","country":"Russia","latitude":51.225082,"longitude":126.920685,"population":549,"stateCapital":false,"nationalCapital":false,"pk":null,"quiz":"asia","code":null,"archived":false,"percentageOfSessions":null}, {"name":"Бысса","state":"Amur","territory":"","country":"Russia","latitude":52.407017,"longitude":130.5259756,"population":57,"stateCapital":false,"nationalCapital":false,"pk":null,"quiz":"asia","code":null,"archived":false,"percentageOfSessions":null}, {"name":"Вадимово","state":"Amur","territory":"","country":"Russia","latitude":50.4090851,"longitude":127.3757678,"population":0,"stateCapital":false,"nationalCapital":false,"pk":null,"quiz":"asia","code":null,"archived":false,"percentageOfSessions":null}, {"name":"Валуево","state":"Amur","territory":"","country":"Russia","latitude":50.0580665,"longitude":129.5636395,"population":147,"stateCapital":false,"nationalCapital":false,"pk":null,"quiz":"asia","code":null,"archived":false,"percentageOfSessions":null}, {"name":"Варваровка","state":"Amur","territory":"","country":"Russia","latitude":50.3421707,"longitude":128.5705894,"population":2695,"stateCapital":false,"nationalCapital":false,"pk":null,"quiz":"asia","code":null,"archived":false,"percentageOfSessions":null}, {"name":"Васильевка","state":"Amur","territory":"","country":"Russia","latitude":50.8912044,"longitude":128.611708,"population":2035,"stateCapital":false,"nationalCapital":false,"pk":null,"quiz":"asia","code":null,"archived":false,"percentageOfSessions":null}, {"name":"Введеновка","state":"Amur","territory":"","country":"Russia","latitude":51.310001,"longitude":128.212875,"population":263,"stateCapital":false,"nationalCapital":false,"pk":null,"quiz":"asia","code":null,"archived":false,"percentageOfSessions":null}, {"name":"Великокнязевка","state":"Amur","territory":"","country":"Russia","latitude":50.9234307,"longitude":127.9189743,"population":797,"stateCapital":false,"nationalCapital":false,"pk":null,"quiz":"asia","code":null,"archived":false,"percentageOfSessions":null}, {"name":"Верное","state":"Amur","territory":"","country":"Russia","latitude":51.189186,"longitude":128.694031,"population":182,"stateCapital":false,"nationalCapital":false,"pk":null,"quiz":"asia","code":null,"archived":false,"percentageOfSessions":null}, {"name":"Верхнебелое","state":"Amur","territory":"","country":"Russia","latitude":50.608765,"longitude":128.934967,"population":311,"stateCapital":false,"nationalCapital":false,"pk":null,"quiz":"asia","code":null,"archived":false,"percentageOfSessions":null}, {"name":"Верхнеблаговещенское","state":"Amur","territory":"","country":"Russia","latitude":50.2866068,"longitude":127.4047834,"population":679,"stateCapital":false,"nationalCapital":false,"pk":null,"quiz":"asia","code":null,"archived":false,"percentageOfSessions":null}, {"name":"Верхнеборовая","state":"Amur","territory":"","country":"Russia","latitude":51.176701,"longitude":129.041962,"population":38,"stateCapital":false,"nationalCapital":false,"pk":null,"quiz":"asia","code":null,"archived":false,"percentageOfSessions":null}, {"name":"Верхнезейск","state":"Amur","territory":"","country":"Russia","latitude":54.620228,"longitude":128.553482,"population":1609,"stateCapital":false,"nationalCapital":false,"pk":null,"quiz":"asia","code":null,"archived":false,"percentageOfSessions":null}, {"name":"Верхнеильиновка","state":"Amur","territory":"","country":"Russia","latitude":50.214068,"longitude":129.6992867,"population":235,"stateCapital":false,"nationalCapital":false,"pk":null,"quiz":"asia","code":null,"archived":false,"percentageOfSessions":null}, {"name":"Верхний Уртуй","state":"Amur","territory":"","country":"Russia","latitude":49.8536594,"longitude":128.0005712,"population":438,"stateCapital":false,"nationalCapital":false,"pk":null,"quiz":"asia","code":null,"archived":false,"percentageOfSessions":null}, {"name":"Верхняя Полтавка","state":"Amur","territory":"","country":"Russia","latitude":49.896854,"longitude":128.206696,"population":713,"stateCapital":false,"nationalCapital":false,"pk":null,"quiz":"asia","code":null,"archived":false,"percentageOfSessions":null}, {"name":"Веселое","state":"Amur","territory":"","country":"Russia","latitude":51.299469,"longitude":128.308167,"population":94,"stateCapital":false,"nationalCapital":false,"pk":null,"quiz":"asia","code":null,"archived":false,"percentageOfSessions":null}, {"name":"Винниково","state":"Amur","territory":"","country":"Russia","latitude":49.5349717,"longitude":129.2933563,"population":239,"stateCapital":false,"nationalCapital":false,"pk":null,"quiz":"asia","code":null,"archived":false,"percentageOfSessions":null}, {"name":"Виноградовка","state":"Amur","territory":"","country":"Russia","latitude":49.6656906,"longitude":129.4097645,"population":526,"stateCapital":false,"nationalCapital":false,"pk":null,"quiz":"asia","code":null,"archived":false,"percentageOfSessions":null}, {"name":"Вишневка","state":"Amur","territory":"","country":"Russia","latitude":50.390736,"longitude":128.221649,"population":6,"stateCapital":false,"nationalCapital":false,"pk":null,"quiz":"asia","code":null,"archived":false,"percentageOfSessions":null}, {"name":"Владимировка","state":"Amur","territory":"","country":"Russia","latitude":50.2969572,"longitude":127.6406447,"population":558,"stateCapital":false,"nationalCapital":false,"pk":null,"quiz":"asia","code":null,"archived":false,"percentageOfSessions":null}, {"name":"Водораздельное","state":"Amur","territory":"","country":"Russia","latitude":51.081606,"longitude":128.9239562,"population":243,"stateCapital":false,"nationalCapital":false,"pk":null,"quiz":"asia","code":null,"archived":false,"percentageOfSessions":null}, {"name":"Возжаевка","state":"Amur","territory":"","country":"Russia","latitude":50.7334057,"longitude":128.7189807,"population":6027,"stateCapital":false,"nationalCapital":false,"pk":null,"quiz":"asia","code":null,"archived":false,"percentageOfSessions":null}, {"name":"Вознесеновка","state":"Amur","territory":"","country":"Russia","latitude":50.2553212,"longitude":128.0042051,"population":5,"stateCapital":false,"nationalCapital":false,"pk":null,"quiz":"asia","code":null,"archived":false,"percentageOfSessions":null}, {"name":"Вознесеновка","state":"Amur","territory":"","country":"Russia","latitude":50.608887,"longitude":128.691391,"population":86,"stateCapital":false,"nationalCapital":false,"pk":null,"quiz":"asia","code":null,"archived":false,"percentageOfSessions":null}, {"name":"Войково","state":"Amur","territory":"","country":"Russia","latitude":49.6120905,"longitude":128.1836835,"population":195,"stateCapital":false,"nationalCapital":false,"pk":null,"quiz":"asia","code":null,"archived":false,"percentageOfSessions":null}, {"name":"Волково","state":"Amur","territory":"","country":"Russia","latitude":50.2498677,"longitude":127.776129,"population":1776,"stateCapital":false,"nationalCapital":false,"pk":null,"quiz":"asia","code":null,"archived":false,"percentageOfSessions":null}, {"name":"Вольное","state":"Amur","territory":"","country":"Russia","latitude":49.2776806,"longitude":129.913533,"population":109,"stateCapital":false,"nationalCapital":false,"pk":null,"quiz":"asia","code":null,"archived":false,"percentageOfSessions":null}, {"name":"Воронжа","state":"Amur","territory":"","country":"Russia","latitude":51.150097,"longitude":128.113358,"population":42,"stateCapital":false,"nationalCapital":false,"pk":null,"quiz":"asia","code":null,"archived":false,"percentageOfSessions":null}, {"name":"Воскресеновка","state":"Amur","territory":"","country":"Russia","latitude":49.8285964,"longitude":128.9735809,"population":269,"stateCapital":false,"nationalCapital":false,"pk":null,"quiz":"asia","code":null,"archived":false,"percentageOfSessions":null}, {"name":"Воскресеновка","state":"Amur","territory":"","country":"Russia","latitude":49.8285964,"longitude":128.9735809,"population":90,"stateCapital":false,"nationalCapital":false,"pk":null,"quiz":"asia","code":null,"archived":false,"percentageOfSessions":null}, {"name":"Воскресеновка","state":"Amur","territory":"","country":"Russia","latitude":51.022652,"longitude":129.300278,"population":78,"stateCapital":false,"nationalCapital":false,"pk":null,"quiz":"asia","code":null,"archived":false,"percentageOfSessions":null}, {"name":"Восточная Нива","state":"Amur","territory":"","country":"Russia","latitude":50.6313032,"longitude":129.5696891,"population":6,"stateCapital":false,"nationalCapital":false,"pk":null,"quiz":"asia","code":null,"archived":false,"percentageOfSessions":null}, {"name":"Восточный","state":"Amur","territory":"","country":"Russia","latitude":50.352638,"longitude":129.128494,"population":1411,"stateCapital":false,"nationalCapital":false,"pk":null,"quiz":"asia","code":null,"archived":false,"percentageOfSessions":null}, {"name":"Восточный","state":"Amur","territory":"","country":"Russia","latitude":55.172081,"longitude":124.898933,"population":1483,"stateCapital":false,"nationalCapital":false,"pk":null,"quiz":"asia","code":null,"archived":false,"percentageOfSessions":null}, {"name":"Высокое","state":"Amur","territory":"","country":"Russia","latitude":49.588352,"longitude":129.135529,"population":3,"stateCapital":false,"nationalCapital":false,"pk":null,"quiz":"asia","code":null,"archived":false,"percentageOfSessions":null}, {"name":"Высокое","state":"Amur","territory":"","country":"Russia","latitude":50.5245286,"longitude":128.7228875,"population":30,"stateCapital":false,"nationalCapital":false,"pk":null,"quiz":"asia","code":null,"archived":false,"percentageOfSessions":null}, {"name":"Гащенка","state":"Amur","territory":"","country":"Russia","latitude":51.5093907,"longitude":128.3691586,"population":163,"stateCapital":false,"nationalCapital":false,"pk":null,"quiz":"asia","code":null,"archived":false,"percentageOfSessions":null}, {"name":"Георгиевка","state":"Amur","territory":"","country":"Russia","latitude":50.5230019,"longitude":129.0915285,"population":55,"stateCapital":false,"nationalCapital":false,"pk":null,"quiz":"asia","code":null,"archived":false,"percentageOfSessions":null}, {"name":"Гильчин","state":"Amur","territory":"","country":"Russia","latitude":49.9061319,"longitude":127.8679056,"population":399,"stateCapital":false,"nationalCapital":false,"pk":null,"quiz":"asia","code":null,"archived":false,"percentageOfSessions":null}, {"name":"Глубокий","state":"Amur","territory":"","country":"Russia","latitude":54.026245,"longitude":123.039696,"population":7,"stateCapital":false,"nationalCapital":false,"pk":null,"quiz":"asia","code":null,"archived":false,"percentageOfSessions":null}, {"name":"Глухари","state":"Amur","territory":"","country":"Russia","latitude":51.74426,"longitude":128.0677648,"population":255,"stateCapital":false,"nationalCapital":false,"pk":null,"quiz":"asia","code":null,"archived":false,"percentageOfSessions":null}, {"name":"Голубое","state":"Amur","territory":"","country":"Russia","latitude":51.7820974,"longitude":127.9690792,"population":241,"stateCapital":false,"nationalCapital":false,"pk":null,"quiz":"asia","code":null,"archived":false,"percentageOfSessions":null}, {"name":"Гомелевка","state":"Amur","territory":"","country":"Russia","latitude":49.6722527,"longitude":129.7251276,"population":18,"stateCapital":false,"nationalCapital":false,"pk":null,"quiz":"asia","code":null,"archived":false,"percentageOfSessions":null}, {"name":"Гонжа","state":"Amur","territory":"","country":"Russia","latitude":53.584911,"longitude":125.373978,"population":839,"stateCapital":false,"nationalCapital":false,"pk":null,"quiz":"asia","code":null,"archived":false,"percentageOfSessions":null}, {"name":"Горный","state":"Amur","territory":"","country":"Russia","latitude":54.650135,"longitude":128.421646,"population":867,"stateCapital":false,"nationalCapital":false,"pk":null,"quiz":"asia","code":null,"archived":false,"percentageOfSessions":null}, {"name":"Грибовка","state":"Amur","territory":"","country":"Russia","latitude":49.4730308,"longitude":130.3722595,"population":254,"stateCapital":false,"nationalCapital":false,"pk":null,"quiz":"asia","code":null,"archived":false,"percentageOfSessions":null}, {"name":"Грибское","state":"Amur","territory":"","country":"Russia","latitude":50.2008652,"longitude":127.7543598,"population":972,"stateCapital":false,"nationalCapital":false,"pk":null,"quiz":"asia","code":null,"archived":false,"percentageOfSessions":null}, {"name":"Григорьевка","state":"Amur","territory":"","country":"Russia","latitude":50.5183007,"longitude":128.7895007,"population":99,"stateCapital":false,"nationalCapital":false,"pk":null,"quiz":"asia","code":null,"archived":false,"percentageOfSessions":null}, {"name":"Гродеково","state":"Amur","territory":"","country":"Russia","latitude":50.1211972,"longitude":127.5778735,"population":551,"stateCapital":false,"nationalCapital":false,"pk":null,"quiz":"asia","code":null,"archived":false,"percentageOfSessions":null}, {"name":"Грязнушка","state":"Amur","territory":"","country":"Russia","latitude":50.6549613,"longitude":127.492566,"population":319,"stateCapital":false,"nationalCapital":false,"pk":null,"quiz":"asia","code":null,"archived":false,"percentageOfSessions":null}, {"name":"Гудачи","state":"Amur","territory":"","country":"Russia","latitude":53.685146,"longitude":125.236671,"population":398,"stateCapital":false,"nationalCapital":false,"pk":null,"quiz":"asia","code":null,"archived":false,"percentageOfSessions":null}, {"name":"Гулик","state":"Amur","territory":"","country":"Russia","latitude":53.746994,"longitude":127.100159,"population":358,"stateCapital":false,"nationalCapital":false,"pk":null,"quiz":"asia","code":null,"archived":false,"percentageOfSessions":null}, {"name":"Гуликовка","state":"Amur","territory":"","country":"Russia","latitude":49.721317,"longitude":129.8622526,"population":19,"stateCapital":false,"nationalCapital":false,"pk":null,"quiz":"asia","code":null,"archived":false,"percentageOfSessions":null}, {"name":"Гуран","state":"Amur","territory":"","country":"Russia","latitude":51.0151726,"longitude":127.300423,"population":162,"stateCapital":false,"nationalCapital":false,"pk":null,"quiz":"asia","code":null,"archived":false,"percentageOfSessions":null}, {"name":"Дактуй","state":"Amur","territory":"","country":"Russia","latitude":53.334049,"longitude":126.166367,"population":723,"stateCapital":false,"nationalCapital":false,"pk":null,"quiz":"asia","code":null,"archived":false,"percentageOfSessions":null}, {"name":"Дальневосточное","state":"Amur","territory":"","country":"Russia","latitude":50.5161041,"longitude":128.873486,"population":326,"stateCapital":false,"nationalCapital":false,"pk":null,"quiz":"asia","code":null,"archived":false,"percentageOfSessions":null}, {"name":"Демьяновка","state":"Amur","territory":"","country":"Russia","latitude":49.990276,"longitude":129.22435,"population":113,"stateCapital":false,"nationalCapital":false,"pk":null,"quiz":"asia","code":null,"archived":false,"percentageOfSessions":null}, {"name":"Демьяновка","state":"Amur","territory":"","country":"Russia","latitude":49.990276,"longitude":129.22435,"population":0,"stateCapital":false,"nationalCapital":false,"pk":null,"quiz":"asia","code":null,"archived":false,"percentageOfSessions":null}, {"name":"Державинка","state":"Amur","territory":"","country":"Russia","latitude":51.1603941,"longitude":128.8530601,"population":143,"stateCapital":false,"nationalCapital":false,"pk":null,"quiz":"asia","code":null,"archived":false,"percentageOfSessions":null}, {"name":"Дея","state":"Amur","territory":"","country":"Russia","latitude":50.048153,"longitude":129.557465,"population":25,"stateCapital":false,"nationalCapital":false,"pk":null,"quiz":"asia","code":null,"archived":false,"percentageOfSessions":null}, {"name":"Джалинда","state":"Amur","territory":"","country":"Russia","latitude":53.482464,"longitude":123.901459,"population":1224,"stateCapital":false,"nationalCapital":false,"pk":null,"quiz":"asia","code":null,"archived":false,"percentageOfSessions":null}, {"name":"Джатва","state":"Amur","territory":"","country":"Russia","latitude":51.8264703,"longitude":128.0033947,"population":7,"stateCapital":false,"nationalCapital":false,"pk":null,"quiz":"asia","code":null,"archived":false,"percentageOfSessions":null}, {"name":"Дим","state":"Amur","territory":"","country":"Russia","latitude":49.65374,"longitude":128.435318,"population":836,"stateCapital":false,"nationalCapital":false,"pk":null,"quiz":"asia","code":null,"archived":false,"percentageOfSessions":null}, {"name":"Дипкун","state":"Amur","territory":"","country":"Russia","latitude":55.1288913,"longitude":126.7849656,"population":1907,"stateCapital":false,"nationalCapital":false,"pk":null,"quiz":"asia","code":null,"archived":false,"percentageOfSessions":null}, {"name":"Дмитриевка","state":"Amur","territory":"","country":"Russia","latitude":50.406395,"longitude":127.934479,"population":1020,"stateCapital":false,"nationalCapital":false,"pk":null,"quiz":"asia","code":null,"archived":false,"percentageOfSessions":null}, {"name":"Дмитриевка","state":"Amur","territory":"","country":"Russia","latitude":51.347134,"longitude":128.934326,"population":206,"stateCapital":false,"nationalCapital":false,"pk":null,"quiz":"asia","code":null,"archived":false,"percentageOfSessions":null}, {"name":"Дмитриевка","state":"Amur","territory":"","country":"Russia","latitude":51.500126,"longitude":128.135361,"population":392,"stateCapital":false,"nationalCapital":false,"pk":null,"quiz":"asia","code":null,"archived":false,"percentageOfSessions":null}, {"name":"Добрянка","state":"Amur","territory":"","country":"Russia","latitude":51.209927,"longitude":128.395538,"population":192,"stateCapital":false,"nationalCapital":false,"pk":null,"quiz":"asia","code":null,"archived":false,"percentageOfSessions":null}, {"name":"Долдыкан","state":"Amur","territory":"","country":"Russia","latitude":49.8977561,"longitude":129.8779345,"population":386,"stateCapital":false,"nationalCapital":false,"pk":null,"quiz":"asia","code":null,"archived":false,"percentageOfSessions":null}, {"name":"Домикан","state":"Amur","territory":"","country":"Russia","latitude":49.653139,"longitude":129.9338532,"population":206,"stateCapital":false,"nationalCapital":false,"pk":null,"quiz":"asia","code":null,"archived":false,"percentageOfSessions":null}, {"name":"Домикан","state":"Amur","territory":"","country":"Russia","latitude":49.653139,"longitude":129.9338532,"population":58,"stateCapital":false,"nationalCapital":false,"pk":null,"quiz":"asia","code":null,"archived":false,"percentageOfSessions":null}, {"name":"Дроново","state":"Amur","territory":"","country":"Russia","latitude":50.1722881,"longitude":127.8346866,"population":207,"stateCapital":false,"nationalCapital":false,"pk":null,"quiz":"asia","code":null,"archived":false,"percentageOfSessions":null}, {"name":"Дружное","state":"Amur","territory":"","country":"Russia","latitude":51.489506,"longitude":129.007019,"population":31,"stateCapital":false,"nationalCapital":false,"pk":null,"quiz":"asia","code":null,"archived":false,"percentageOfSessions":null}, {"name":"Дубовое","state":"Amur","territory":"","country":"Russia","latitude":49.714943,"longitude":128.782928,"population":358,"stateCapital":false,"nationalCapital":false,"pk":null,"quiz":"asia","code":null,"archived":false,"percentageOfSessions":null}, {"name":"Дубровка","state":"Amur","territory":"","country":"Russia","latitude":50.6832207,"longitude":128.859772,"population":88,"stateCapital":false,"nationalCapital":false,"pk":null,"quiz":"asia","code":null,"archived":false,"percentageOfSessions":null}, {"name":"Дугда","state":"Amur","territory":"","country":"Russia","latitude":53.350864,"longitude":130.00058,"population":709,"stateCapital":false,"nationalCapital":false,"pk":null,"quiz":"asia","code":null,"archived":false,"percentageOfSessions":null}, {"name":"Духовское","state":"Amur","territory":"","country":"Russia","latitude":49.9510069,"longitude":127.7127889,"population":106,"stateCapital":false,"nationalCapital":false,"pk":null,"quiz":"asia","code":null,"archived":false,"percentageOfSessions":null}, {"name":"Егорьевка","state":"Amur","territory":"","country":"Russia","latitude":50.6852904,"longitude":127.7011961,"population":197,"stateCapital":false,"nationalCapital":false,"pk":null,"quiz":"asia","code":null,"archived":false,"percentageOfSessions":null}, {"name":"Екатеринославка","state":"Amur","territory":"","country":"Russia","latitude":50.371284,"longitude":129.107193,"population":9723,"stateCapital":false,"nationalCapital":false,"pk":null,"quiz":"asia","code":null,"archived":false,"percentageOfSessions":null}, {"name":"Ерахта","state":"Amur","territory":"","country":"Russia","latitude":49.417031,"longitude":130.2945237,"population":1,"stateCapital":false,"nationalCapital":false,"pk":null,"quiz":"asia","code":null,"archived":false,"percentageOfSessions":null}, {"name":"Ерковцы","state":"Amur","territory":"","country":"Russia","latitude":50.4795637,"longitude":128.4267715,"population":979,"stateCapital":false,"nationalCapital":false,"pk":null,"quiz":"asia","code":null,"archived":false,"percentageOfSessions":null}, {"name":"Ерофей Павлович","state":"Amur","territory":"","country":"Russia","latitude":53.959244,"longitude":121.9524,"population":5164,"stateCapital":false,"nationalCapital":false,"pk":null,"quiz":"asia","code":null,"archived":false,"percentageOfSessions":null}, {"name":"Есауловка","state":"Amur","territory":"","country":"Russia","latitude":49.0008076,"longitude":130.9131687,"population":2,"stateCapital":false,"nationalCapital":false,"pk":null,"quiz":"asia","code":null,"archived":false,"percentageOfSessions":null}, {"name":"Жариково","state":"Amur","territory":"","country":"Russia","latitude":50.016758,"longitude":128.020035,"population":627,"stateCapital":false,"nationalCapital":false,"pk":null,"quiz":"asia","code":null,"archived":false,"percentageOfSessions":null}, {"name":"Желтоярово","state":"Amur","territory":"","country":"Russia","latitude":51.525883,"longitude":128.441162,"population":502,"stateCapital":false,"nationalCapital":false,"pk":null,"quiz":"asia","code":null,"archived":false,"percentageOfSessions":null}, {"name":"Житомировка","state":"Amur","territory":"","country":"Russia","latitude":50.2080423,"longitude":129.6195956,"population":0,"stateCapital":false,"nationalCapital":false,"pk":null,"quiz":"asia","code":null,"archived":false,"percentageOfSessions":null}, {"name":"Журавлевка","state":"Amur","territory":"","country":"Russia","latitude":49.0820187,"longitude":129.9993242,"population":208,"stateCapital":false,"nationalCapital":false,"pk":null,"quiz":"asia","code":null,"archived":false,"percentageOfSessions":null}, {"name":"Журавли","state":"Amur","territory":"","country":"Russia","latitude":49.5111124,"longitude":129.9855764,"population":12,"stateCapital":false,"nationalCapital":false,"pk":null,"quiz":"asia","code":null,"archived":false,"percentageOfSessions":null}, {"name":"Завитинск","state":"Amur","territory":"","country":"Russia","latitude":50.111154,"longitude":129.4402341,"population":11481,"stateCapital":false,"nationalCapital":false,"pk":null,"quiz":"asia","code":null,"archived":false,"percentageOfSessions":null}, {"name":"Заган","state":"Amur","territory":"","country":"Russia","latitude":51.5475033,"longitude":128.4998558,"population":134,"stateCapital":false,"nationalCapital":false,"pk":null,"quiz":"asia","code":null,"archived":false,"percentageOfSessions":null}, {"name":"Загорная Селитьба","state":"Amur","territory":"","country":"Russia","latitude":51.138657,"longitude":127.251053,"population":491,"stateCapital":false,"nationalCapital":false,"pk":null,"quiz":"asia","code":null,"archived":false,"percentageOfSessions":null}, {"name":"Заозерный","state":"Amur","territory":"","country":"Russia","latitude":50.0032182,"longitude":128.7263128,"population":77,"stateCapital":false,"nationalCapital":false,"pk":null,"quiz":"asia","code":null,"archived":false,"percentageOfSessions":null}, {"name":"Заречная Слобода","state":"Amur","territory":"","country":"Russia","latitude":53.7174003,"longitude":127.2726422,"population":638,"stateCapital":false,"nationalCapital":false,"pk":null,"quiz":"asia","code":null,"archived":false,"percentageOfSessions":null}, {"name":"Заречное","state":"Amur","territory":"","country":"Russia","latitude":49.3899755,"longitude":130.2328658,"population":64,"stateCapital":false,"nationalCapital":false,"pk":null,"quiz":"asia","code":null,"archived":false,"percentageOfSessions":null}, {"name":"Заречное","state":"Amur","territory":"","country":"Russia","latitude":50.6272817,"longitude":128.622021,"population":462,"stateCapital":false,"nationalCapital":false,"pk":null,"quiz":"asia","code":null,"archived":false,"percentageOfSessions":null}, {"name":"Заречное","state":"Amur","territory":"","country":"Russia","latitude":53.568882,"longitude":126.740364,"population":1,"stateCapital":false,"nationalCapital":false,"pk":null,"quiz":"asia","code":null,"archived":false,"percentageOfSessions":null}, {"name":"Заречный","state":"Amur","territory":"","country":"Russia","latitude":50.2491855,"longitude":127.6744292,"population":138,"stateCapital":false,"nationalCapital":false,"pk":null,"quiz":"asia","code":null,"archived":false,"percentageOfSessions":null}, {"name":"Захарьевка","state":"Amur","territory":"","country":"Russia","latitude":50.6410321,"longitude":128.2983302,"population":21,"stateCapital":false,"nationalCapital":false,"pk":null,"quiz":"asia","code":null,"archived":false,"percentageOfSessions":null}, {"name":"Зеленый Бор","state":"Amur","territory":"","country":"Russia","latitude":49.6835187,"longitude":128.6375853,"population":617,"stateCapital":false,"nationalCapital":false,"pk":null,"quiz":"asia","code":null,"archived":false,"percentageOfSessions":null}, {"name":"Зеньковка","state":"Amur","territory":"","country":"Russia","latitude":49.9146189,"longitude":128.3743921,"population":465,"stateCapital":false,"nationalCapital":false,"pk":null,"quiz":"asia","code":null,"archived":false,"percentageOfSessions":null}, {"name":"Зея","state":"Amur","territory":"","country":"Russia","latitude":53.7403584,"longitude":127.2716246,"population":24986,"stateCapital":false,"nationalCapital":false,"pk":null,"quiz":"asia","code":null,"archived":false,"percentageOfSessions":null}, {"name":"Зиговка","state":"Amur","territory":"","country":"Russia","latitude":51.3511769,"longitude":127.6383236,"population":137,"stateCapital":false,"nationalCapital":false,"pk":null,"quiz":"asia","code":null,"archived":false,"percentageOfSessions":null}, {"name":"Златоустовск","state":"Amur","territory":"","country":"Russia","latitude":52.9669931,"longitude":133.5979449,"population":710,"stateCapital":false,"nationalCapital":false,"pk":null,"quiz":"asia","code":null,"archived":false,"percentageOfSessions":null}, {"name":"Знаменка","state":"Amur","territory":"","country":"Russia","latitude":50.6228322,"longitude":129.0520552,"population":480,"stateCapital":false,"nationalCapital":false,"pk":null,"quiz":"asia","code":null,"archived":false,"percentageOfSessions":null}, {"name":"Золотая Гора","state":"Amur","territory":"","country":"Russia","latitude":54.2816238,"longitude":126.6322373,"population":104,"stateCapital":false,"nationalCapital":false,"pk":null,"quiz":"asia","code":null,"archived":false,"percentageOfSessions":null}, {"name":"Золотоножка","state":"Amur","territory":"","country":"Russia","latitude":49.8415441,"longitude":128.3689,"population":265,"stateCapital":false,"nationalCapital":false,"pk":null,"quiz":"asia","code":null,"archived":false,"percentageOfSessions":null}, {"name":"Зорино","state":"Amur","territory":"","country":"Russia","latitude":50.3423019,"longitude":128.8613995,"population":5,"stateCapital":false,"nationalCapital":false,"pk":null,"quiz":"asia","code":null,"archived":false,"percentageOfSessions":null}, {"name":"Ивановка","state":"Amur","territory":"","country":"Russia","latitude":49.982616,"longitude":129.174866,"population":243,"stateCapital":false,"nationalCapital":false,"pk":null,"quiz":"asia","code":null,"archived":false,"percentageOfSessions":null}, {"name":"Ивановка","state":"Amur","territory":"","country":"Russia","latitude":53.629936,"longitude":126.72905,"population":504,"stateCapital":false,"nationalCapital":false,"pk":null,"quiz":"asia","code":null,"archived":false,"percentageOfSessions":null}, {"name":"Ивановка","state":"Amur","territory":"","country":"Russia","latitude":50.358143,"longitude":128.003128,"population":6617,"stateCapital":false,"nationalCapital":false,"pk":null,"quiz":"asia","code":null,"archived":false,"percentageOfSessions":null}, {"name":"Ивановский","state":"Amur","territory":"","country":"Russia","latitude":52.280762,"longitude":129.54306,"population":488,"stateCapital":false,"nationalCapital":false,"pk":null,"quiz":"asia","code":null,"archived":false,"percentageOfSessions":null}, {"name":"Ивановское","state":"Amur","territory":"","country":"Russia","latitude":52.864307,"longitude":133.408951,"population":416,"stateCapital":false,"nationalCapital":false,"pk":null,"quiz":"asia","code":null,"archived":false,"percentageOfSessions":null}, {"name":"Игнатьево","state":"Amur","territory":"","country":"Russia","latitude":50.447229,"longitude":127.3928187,"population":887,"stateCapital":false,"nationalCapital":false,"pk":null,"quiz":"asia","code":null,"archived":false,"percentageOfSessions":null}, {"name":"Игнашино","state":"Amur","territory":"","country":"Russia","latitude":53.461102,"longitude":122.399857,"population":189,"stateCapital":false,"nationalCapital":false,"pk":null,"quiz":"asia","code":null,"archived":false,"percentageOfSessions":null}, {"name":"Ильиновка","state":"Amur","territory":"","country":"Russia","latitude":49.9759907,"longitude":128.5461061,"population":195,"stateCapital":false,"nationalCapital":false,"pk":null,"quiz":"asia","code":null,"archived":false,"percentageOfSessions":null}, {"name":"Имачи","state":"Amur","territory":"","country":"Russia","latitude":54.0418857,"longitude":123.7974298,"population":0,"stateCapital":false,"nationalCapital":false,"pk":null,"quiz":"asia","code":null,"archived":false,"percentageOfSessions":null}, {"name":"Иннокентьевка","state":"Amur","territory":"","country":"Russia","latitude":49.3012361,"longitude":129.6965951,"population":520,"stateCapital":false,"nationalCapital":false,"pk":null,"quiz":"asia","code":null,"archived":false,"percentageOfSessions":null}, {"name":"Иннокентьевка","state":"Amur","territory":"","country":"Russia","latitude":49.9739682,"longitude":129.1767176,"population":285,"stateCapital":false,"nationalCapital":false,"pk":null,"quiz":"asia","code":null,"archived":false,"percentageOfSessions":null}, {"name":"Иса","state":"Amur","territory":"","country":"Russia","latitude":51.75449,"longitude":131.027817,"population":517,"stateCapital":false,"nationalCapital":false,"pk":null,"quiz":"asia","code":null,"archived":false,"percentageOfSessions":null}, {"name":"Источный","state":"Amur","territory":"","country":"Russia","latitude":51.106972,"longitude":127.955513,"population":91,"stateCapital":false,"nationalCapital":false,"pk":null,"quiz":"asia","code":null,"archived":false,"percentageOfSessions":null}, {"name":"Иташино","state":"Amur","territory":"","country":"Russia","latitude":53.991951,"longitude":122.041992,"population":5,"stateCapital":false,"nationalCapital":false,"pk":null,"quiz":"asia","code":null,"archived":false,"percentageOfSessions":null}, {"name":"Кавказ","state":"Amur","territory":"","country":"Russia","latitude":49.7406065,"longitude":128.9636455,"population":88,"stateCapital":false,"nationalCapital":false,"pk":null,"quiz":"asia","code":null,"archived":false,"percentageOfSessions":null}, {"name":"Казанка","state":"Amur","territory":"","country":"Russia","latitude":51.067558,"longitude":128.058701,"population":505,"stateCapital":false,"nationalCapital":false,"pk":null,"quiz":"asia","code":null,"archived":false,"percentageOfSessions":null}, {"name":"Казановка","state":"Amur","territory":"","country":"Russia","latitude":49.6007016,"longitude":129.6792,"population":42,"stateCapital":false,"nationalCapital":false,"pk":null,"quiz":"asia","code":null,"archived":false,"percentageOfSessions":null}, {"name":"Казачий","state":"Amur","territory":"","country":"Russia","latitude":49.0548846,"longitude":130.8255887,"population":3,"stateCapital":false,"nationalCapital":false,"pk":null,"quiz":"asia","code":null,"archived":false,"percentageOfSessions":null}, {"name":"Калинино","state":"Amur","territory":"","country":"Russia","latitude":49.386945,"longitude":129.2860589,"population":648,"stateCapital":false,"nationalCapital":false,"pk":null,"quiz":"asia","code":null,"archived":false,"percentageOfSessions":null}, {"name":"Калиновка","state":"Amur","territory":"","country":"Russia","latitude":52.608391,"longitude":125.982033,"population":4,"stateCapital":false,"nationalCapital":false,"pk":null,"quiz":"asia","code":null,"archived":false,"percentageOfSessions":null}, {"name":"Калиновка","state":"Amur","territory":"","country":"Russia","latitude":50.679153,"longitude":129.38031,"population":220,"stateCapital":false,"nationalCapital":false,"pk":null,"quiz":"asia","code":null,"archived":false,"percentageOfSessions":null}, {"name":"Калиновка","state":"Amur","territory":"","country":"Russia","latitude":51.0490155,"longitude":128.055398,"population":0,"stateCapital":false,"nationalCapital":false,"pk":null,"quiz":"asia","code":null,"archived":false,"percentageOfSessions":null}, {"name":"Каменка","state":"Amur","territory":"","country":"Russia","latitude":49.7700324,"longitude":129.9145953,"population":40,"stateCapital":false,"nationalCapital":false,"pk":null,"quiz":"asia","code":null,"archived":false,"percentageOfSessions":null}, {"name":"Каменка","state":"Amur","territory":"","country":"Russia","latitude":51.551418,"longitude":128.681122,"population":20,"stateCapital":false,"nationalCapital":false,"pk":null,"quiz":"asia","code":null,"archived":false,"percentageOfSessions":null}, {"name":"Каменный Карьер","state":"Amur","territory":"","country":"Russia","latitude":49.309031,"longitude":130.1784537,"population":161,"stateCapital":false,"nationalCapital":false,"pk":null,"quiz":"asia","code":null,"archived":false,"percentageOfSessions":null}, {"name":"Камышевка","state":"Amur","territory":"","country":"Russia","latitude":50.8808847,"longitude":128.2342027,"population":80,"stateCapital":false,"nationalCapital":false,"pk":null,"quiz":"asia","code":null,"archived":false,"percentageOfSessions":null}, {"name":"Камышенка","state":"Amur","territory":"","country":"Russia","latitude":50.093361,"longitude":129.331497,"population":220,"stateCapital":false,"nationalCapital":false,"pk":null,"quiz":"asia","code":null,"archived":false,"percentageOfSessions":null}, {"name":"Каникурган","state":"Amur","territory":"","country":"Russia","latitude":50.2051729,"longitude":127.6334491,"population":223,"stateCapital":false,"nationalCapital":false,"pk":null,"quiz":"asia","code":null,"archived":false,"percentageOfSessions":null}, {"name":"Каничи","state":"Amur","territory":"","country":"Russia","latitude":51.3349076,"longitude":128.9729052,"population":71,"stateCapital":false,"nationalCapital":false,"pk":null,"quiz":"asia","code":null,"archived":false,"percentageOfSessions":null}, {"name":"Кантон-Коммуна","state":"Amur","territory":"","country":"Russia","latitude":50.4076707,"longitude":127.5470435,"population":69,"stateCapital":false,"nationalCapital":false,"pk":null,"quiz":"asia","code":null,"archived":false,"percentageOfSessions":null}, {"name":"Касаткино","state":"Amur","territory":"","country":"Russia","latitude":48.9709501,"longitude":130.0731021,"population":401,"stateCapital":false,"nationalCapital":false,"pk":null,"quiz":"asia","code":null,"archived":false,"percentageOfSessions":null}, {"name":"Каховка","state":"Amur","territory":"","country":"Russia","latitude":50.791424,"longitude":129.218094,"population":332,"stateCapital":false,"nationalCapital":false,"pk":null,"quiz":"asia","code":null,"archived":false,"percentageOfSessions":null}, {"name":"Кивдинский","state":"Amur","territory":"","country":"Russia","latitude":49.826359,"longitude":129.63797,"population":17,"stateCapital":false,"nationalCapital":false,"pk":null,"quiz":"asia","code":null,"archived":false,"percentageOfSessions":null}, {"name":"Кивдо-Тюкан","state":"Amur","territory":"","country":"Russia","latitude":49.849112,"longitude":129.680721,"population":47,"stateCapital":false,"nationalCapital":false,"pk":null,"quiz":"asia","code":null,"archived":false,"percentageOfSessions":null}, {"name":"Кировский","state":"Amur","territory":"","country":"Russia","latitude":54.429516,"longitude":126.977577,"population":35,"stateCapital":false,"nationalCapital":false,"pk":null,"quiz":"asia","code":null,"archived":false,"percentageOfSessions":null}, {"name":"Киселеозерка","state":"Amur","territory":"","country":"Russia","latitude":50.9380926,"longitude":128.124699,"population":240,"stateCapital":false,"nationalCapital":false,"pk":null,"quiz":"asia","code":null,"archived":false,"percentageOfSessions":null}, {"name":"Кислый Ключ","state":"Amur","territory":"","country":"Russia","latitude":53.655422,"longitude":125.410202,"population":28,"stateCapital":false,"nationalCapital":false,"pk":null,"quiz":"asia","code":null,"archived":false,"percentageOfSessions":null}, {"name":"Климовка","state":"Amur","territory":"","country":"Russia","latitude":50.5871602,"longitude":128.5621908,"population":31,"stateCapital":false,"nationalCapital":false,"pk":null,"quiz":"asia","code":null,"archived":false,"percentageOfSessions":null}, {"name":"Климоуцы","state":"Amur","territory":"","country":"Russia","latitude":51.470795,"longitude":127.59623,"population":752,"stateCapital":false,"nationalCapital":false,"pk":null,"quiz":"asia","code":null,"archived":false,"percentageOfSessions":null}, {"name":"Ключевое","state":"Amur","territory":"","country":"Russia","latitude":52.3074201,"longitude":127.2232403,"population":350,"stateCapital":false,"nationalCapital":false,"pk":null,"quiz":"asia","code":null,"archived":false,"percentageOfSessions":null}, {"name":"Ключи","state":"Amur","territory":"","country":"Russia","latitude":50.9409194,"longitude":128.170713,"population":216,"stateCapital":false,"nationalCapital":false,"pk":null,"quiz":"asia","code":null,"archived":false,"percentageOfSessions":null}, {"name":"Ключи","state":"Amur","territory":"","country":"Russia","latitude":49.72826,"longitude":128.088913,"population":812,"stateCapital":false,"nationalCapital":false,"pk":null,"quiz":"asia","code":null,"archived":false,"percentageOfSessions":null}, {"name":"Ключики","state":"Amur","territory":"","country":"Russia","latitude":51.229836,"longitude":128.215256,"population":183,"stateCapital":false,"nationalCapital":false,"pk":null,"quiz":"asia","code":null,"archived":false,"percentageOfSessions":null}, {"name":"Коболдо","state":"Amur","territory":"","country":"Russia","latitude":52.963951,"longitude":132.729797,"population":445,"stateCapital":false,"nationalCapital":false,"pk":null,"quiz":"asia","code":null,"archived":false,"percentageOfSessions":null}, {"name":"Ковали","state":"Amur","territory":"","country":"Russia","latitude":54.0668782,"longitude":122.8355214,"population":0,"stateCapital":false,"nationalCapital":false,"pk":null,"quiz":"asia","code":null,"archived":false,"percentageOfSessions":null}, {"name":"Коврижка","state":"Amur","territory":"","country":"Russia","latitude":49.713722,"longitude":127.833298,"population":390,"stateCapital":false,"nationalCapital":false,"pk":null,"quiz":"asia","code":null,"archived":false,"percentageOfSessions":null}, {"name":"Козловка","state":"Amur","territory":"","country":"Russia","latitude":51.830738,"longitude":129.200668,"population":93,"stateCapital":false,"nationalCapital":false,"pk":null,"quiz":"asia","code":null,"archived":false,"percentageOfSessions":null}, {"name":"Козьмодемьяновка","state":"Amur","territory":"","country":"Russia","latitude":50.138523,"longitude":128.241501,"population":1567,"stateCapital":false,"nationalCapital":false,"pk":null,"quiz":"asia","code":null,"archived":false,"percentageOfSessions":null}, {"name":"Кольцовка","state":"Amur","territory":"","country":"Russia","latitude":51.360199,"longitude":128.970627,"population":42,"stateCapital":false,"nationalCapital":false,"pk":null,"quiz":"asia","code":null,"archived":false,"percentageOfSessions":null}, {"name":"Комиссаровка","state":"Amur","territory":"","country":"Russia","latitude":50.8615387,"longitude":127.990655,"population":123,"stateCapital":false,"nationalCapital":false,"pk":null,"quiz":"asia","code":null,"archived":false,"percentageOfSessions":null}, {"name":"Константиновка","state":"Amur","territory":"","country":"Russia","latitude":49.6180004,"longitude":127.9852534,"population":5329,"stateCapital":false,"nationalCapital":false,"pk":null,"quiz":"asia","code":null,"archived":false,"percentageOfSessions":null}, {"name":"Константиноградовка","state":"Amur","territory":"","country":"Russia","latitude":50.4592578,"longitude":128.2911976,"population":580,"stateCapital":false,"nationalCapital":false,"pk":null,"quiz":"asia","code":null,"archived":false,"percentageOfSessions":null}, {"name":"Короли","state":"Amur","territory":"","country":"Russia","latitude":50.478573,"longitude":129.024857,"population":247,"stateCapital":false,"nationalCapital":false,"pk":null,"quiz":"asia","code":null,"archived":false,"percentageOfSessions":null}, {"name":"Корфово","state":"Amur","territory":"","country":"Russia","latitude":49.897911,"longitude":127.543159,"population":107,"stateCapital":false,"nationalCapital":false,"pk":null,"quiz":"asia","code":null,"archived":false,"percentageOfSessions":null}, {"name":"Коршуновка","state":"Amur","territory":"","country":"Russia","latitude":49.7725626,"longitude":128.6461505,"population":482,"stateCapital":false,"nationalCapital":false,"pk":null,"quiz":"asia","code":null,"archived":false,"percentageOfSessions":null}, {"name":"Косицино","state":"Amur","territory":"","country":"Russia","latitude":50.0591511,"longitude":128.024047,"population":704,"stateCapital":false,"nationalCapital":false,"pk":null,"quiz":"asia","code":null,"archived":false,"percentageOfSessions":null}, {"name":"Костюковка","state":"Amur","territory":"","country":"Russia","latitude":51.3171078,"longitude":127.6777212,"population":552,"stateCapital":false,"nationalCapital":false,"pk":null,"quiz":"asia","code":null,"archived":false,"percentageOfSessions":null}, {"name":"Красная Горка","state":"Amur","territory":"","country":"Russia","latitude":49.5157155,"longitude":129.9544415,"population":17,"stateCapital":false,"nationalCapital":false,"pk":null,"quiz":"asia","code":null,"archived":false,"percentageOfSessions":null}, {"name":"Красная Орловка","state":"Amur","territory":"","country":"Russia","latitude":49.6036465,"longitude":128.7700905,"population":145,"stateCapital":false,"nationalCapital":false,"pk":null,"quiz":"asia","code":null,"archived":false,"percentageOfSessions":null}, {"name":"Красная Падь","state":"Amur","territory":"","country":"Russia","latitude":53.443592,"longitude":126.01799,"population":17,"stateCapital":false,"nationalCapital":false,"pk":null,"quiz":"asia","code":null,"archived":false,"percentageOfSessions":null}, {"name":"Красная Поляна","state":"Amur","territory":"","country":"Russia","latitude":50.9948286,"longitude":128.427334,"population":151,"stateCapital":false,"nationalCapital":false,"pk":null,"quiz":"asia","code":null,"archived":false,"percentageOfSessions":null}, {"name":"Красное","state":"Amur","territory":"","country":"Russia","latitude":49.9835767,"longitude":127.5169256,"population":308,"stateCapital":false,"nationalCapital":false,"pk":null,"quiz":"asia","code":null,"archived":false,"percentageOfSessions":null}, {"name":"Красноярово","state":"Amur","territory":"","country":"Russia","latitude":51.458015,"longitude":128.434479,"population":1061,"stateCapital":false,"nationalCapital":false,"pk":null,"quiz":"asia","code":null,"archived":false,"percentageOfSessions":null}, {"name":"Красный Восток","state":"Amur","territory":"","country":"Russia","latitude":49.715233,"longitude":128.597595,"population":97,"stateCapital":false,"nationalCapital":false,"pk":null,"quiz":"asia","code":null,"archived":false,"percentageOfSessions":null}, {"name":"Красный Исток","state":"Amur","territory":"","country":"Russia","latitude":49.2838255,"longitude":130.0413058,"population":64,"stateCapital":false,"nationalCapital":false,"pk":null,"quiz":"asia","code":null,"archived":false,"percentageOfSessions":null}, {"name":"Красный Луч","state":"Amur","territory":"","country":"Russia","latitude":49.3451836,"longitude":129.5854333,"population":55,"stateCapital":false,"nationalCapital":false,"pk":null,"quiz":"asia","code":null,"archived":false,"percentageOfSessions":null}, {"name":"Красный Яр","state":"Amur","territory":"","country":"Russia","latitude":49.839539,"longitude":128.746719,"population":158,"stateCapital":false,"nationalCapital":false,"pk":null,"quiz":"asia","code":null,"archived":false,"percentageOfSessions":null}, {"name":"Крестовоздвиженка","state":"Amur","territory":"","country":"Russia","latitude":49.7751752,"longitude":127.9685643,"population":1008,"stateCapital":false,"nationalCapital":false,"pk":null,"quiz":"asia","code":null,"archived":false,"percentageOfSessions":null}, {"name":"Крещеновка","state":"Amur","territory":"","country":"Russia","latitude":50.2729095,"longitude":127.9583028,"population":184,"stateCapital":false,"nationalCapital":false,"pk":null,"quiz":"asia","code":null,"archived":false,"percentageOfSessions":null}, {"name":"Круглое","state":"Amur","territory":"","country":"Russia","latitude":50.8729315,"longitude":128.8522188,"population":95,"stateCapital":false,"nationalCapital":false,"pk":null,"quiz":"asia","code":null,"archived":false,"percentageOfSessions":null}, {"name":"Кувыкта","state":"Amur","territory":"","country":"Russia","latitude":55.191715,"longitude":124.216087,"population":315,"stateCapital":false,"nationalCapital":false,"pk":null,"quiz":"asia","code":null,"archived":false,"percentageOfSessions":null}, {"name":"Кузнецово","state":"Amur","territory":"","country":"Russia","latitude":52.5638827,"longitude":126.1663369,"population":209,"stateCapital":false,"nationalCapital":false,"pk":null,"quiz":"asia","code":null,"archived":false,"percentageOfSessions":null}, {"name":"Кузьмичи","state":"Amur","territory":"","country":"Russia","latitude":50.6060682,"longitude":129.0660701,"population":41,"stateCapital":false,"nationalCapital":false,"pk":null,"quiz":"asia","code":null,"archived":false,"percentageOfSessions":null}, {"name":"Кулустай","state":"Amur","territory":"","country":"Russia","latitude":49.7544313,"longitude":129.9058475,"population":4,"stateCapital":false,"nationalCapital":false,"pk":null,"quiz":"asia","code":null,"archived":false,"percentageOfSessions":null}, {"name":"Кундур","state":"Amur","territory":"","country":"Russia","latitude":49.1026774,"longitude":130.7595139,"population":866,"stateCapital":false,"nationalCapital":false,"pk":null,"quiz":"asia","code":null,"archived":false,"percentageOfSessions":null}, {"name":"Куприяновка","state":"Amur","territory":"","country":"Russia","latitude":49.957478,"longitude":129.333847,"population":382,"stateCapital":false,"nationalCapital":false,"pk":null,"quiz":"asia","code":null,"archived":false,"percentageOfSessions":null}, {"name":"Куприяново","state":"Amur","territory":"","country":"Russia","latitude":49.465569,"longitude":129.008499,"population":148,"stateCapital":false,"nationalCapital":false,"pk":null,"quiz":"asia","code":null,"archived":false,"percentageOfSessions":null}, {"name":"Курган","state":"Amur","territory":"","country":"Russia","latitude":51.736702,"longitude":128.107285,"population":53,"stateCapital":false,"nationalCapital":false,"pk":null,"quiz":"asia","code":null,"archived":false,"percentageOfSessions":null}, {"name":"Куропатино","state":"Amur","territory":"","country":"Russia","latitude":49.998554,"longitude":127.665764,"population":509,"stateCapital":false,"nationalCapital":false,"pk":null,"quiz":"asia","code":null,"archived":false,"percentageOfSessions":null}, {"name":"Кустанаевка","state":"Amur","territory":"","country":"Russia","latitude":50.7998998,"longitude":128.2641974,"population":441,"stateCapital":false,"nationalCapital":false,"pk":null,"quiz":"asia","code":null,"archived":false,"percentageOfSessions":null}, {"name":"Кутилово","state":"Amur","territory":"","country":"Russia","latitude":50.1422226,"longitude":128.761391,"population":42,"stateCapital":false,"nationalCapital":false,"pk":null,"quiz":"asia","code":null,"archived":false,"percentageOfSessions":null}, {"name":"Кухтерин Луг","state":"Amur","territory":"","country":"Russia","latitude":52.417805,"longitude":128.103516,"population":38,"stateCapital":false,"nationalCapital":false,"pk":null,"quiz":"asia","code":null,"archived":false,"percentageOfSessions":null}, {"name":"Лазаревка","state":"Amur","territory":"","country":"Russia","latitude":50.223385,"longitude":128.344513,"population":380,"stateCapital":false,"nationalCapital":false,"pk":null,"quiz":"asia","code":null,"archived":false,"percentageOfSessions":null}, {"name":"Лапри","state":"Amur","territory":"","country":"Russia","latitude":55.692642,"longitude":124.906982,"population":5,"stateCapital":false,"nationalCapital":false,"pk":null,"quiz":"asia","code":null,"archived":false,"percentageOfSessions":null}, {"name":"Ларба","state":"Amur","territory":"","country":"Russia","latitude":55.501808,"longitude":123.125832,"population":503,"stateCapital":false,"nationalCapital":false,"pk":null,"quiz":"asia","code":null,"archived":false,"percentageOfSessions":null}, {"name":"Лебяжье","state":"Amur","territory":"","country":"Russia","latitude":50.9865988,"longitude":128.1468324,"population":415,"stateCapital":false,"nationalCapital":false,"pk":null,"quiz":"asia","code":null,"archived":false,"percentageOfSessions":null}, {"name":"Левый Берег","state":"Amur","territory":"","country":"Russia","latitude":49.7862662,"longitude":129.8840781,"population":1,"stateCapital":false,"nationalCapital":false,"pk":null,"quiz":"asia","code":null,"archived":false,"percentageOfSessions":null}, {"name":"Ленино","state":"Amur","territory":"","country":"Russia","latitude":49.81279,"longitude":129.31311,"population":57,"stateCapital":false,"nationalCapital":false,"pk":null,"quiz":"asia","code":null,"archived":false,"percentageOfSessions":null}, {"name":"Ленинское","state":"Amur","territory":"","country":"Russia","latitude":49.2545921,"longitude":129.9467809,"population":407,"stateCapital":false,"nationalCapital":false,"pk":null,"quiz":"asia","code":null,"archived":false,"percentageOfSessions":null}, {"name":"Леонтьевка","state":"Amur","territory":"","country":"Russia","latitude":51.475807,"longitude":128.526764,"population":73,"stateCapital":false,"nationalCapital":false,"pk":null,"quiz":"asia","code":null,"archived":false,"percentageOfSessions":null}, {"name":"Лермонтовка","state":"Amur","territory":"","country":"Russia","latitude":50.08427,"longitude":127.867157,"population":704,"stateCapital":false,"nationalCapital":false,"pk":null,"quiz":"asia","code":null,"archived":false,"percentageOfSessions":null}, {"name":"Лермонтово","state":"Amur","territory":"","country":"Russia","latitude":51.346336,"longitude":128.683548,"population":306,"stateCapital":false,"nationalCapital":false,"pk":null,"quiz":"asia","code":null,"archived":false,"percentageOfSessions":null}, {"name":"Лесной","state":"Amur","territory":"","country":"Russia","latitude":53.880222,"longitude":123.8239676,"population":349,"stateCapital":false,"nationalCapital":false,"pk":null,"quiz":"asia","code":null,"archived":false,"percentageOfSessions":null}, {"name":"Лиманное","state":"Amur","territory":"","country":"Russia","latitude":51.2651837,"longitude":128.8361918,"population":327,"stateCapital":false,"nationalCapital":false,"pk":null,"quiz":"asia","code":null,"archived":false,"percentageOfSessions":null}, {"name":"Лиманное","state":"Amur","territory":"","country":"Russia","latitude":50.0571534,"longitude":128.3062509,"population":163,"stateCapital":false,"nationalCapital":false,"pk":null,"quiz":"asia","code":null,"archived":false,"percentageOfSessions":null}, {"name":"Липовка","state":"Amur","territory":"","country":"Russia","latitude":51.0525071,"longitude":128.2365468,"population":93,"stateCapital":false,"nationalCapital":false,"pk":null,"quiz":"asia","code":null,"archived":false,"percentageOfSessions":null}, {"name":"Липовка","state":"Amur","territory":"","country":"Russia","latitude":50.2109683,"longitude":128.1731837,"population":124,"stateCapital":false,"nationalCapital":false,"pk":null,"quiz":"asia","code":null,"archived":false,"percentageOfSessions":null}, {"name":"Лозовое","state":"Amur","territory":"","country":"Russia","latitude":50.7797696,"longitude":128.3187857,"population":16,"stateCapital":false,"nationalCapital":false,"pk":null,"quiz":"asia","code":null,"archived":false,"percentageOfSessions":null}, {"name":"Лозовое","state":"Amur","territory":"","country":"Russia","latitude":50.2362909,"longitude":127.8881388,"population":900,"stateCapital":false,"nationalCapital":false,"pk":null,"quiz":"asia","code":null,"archived":false,"percentageOfSessions":null}, {"name":"Лопча","state":"Amur","territory":"","country":"Russia","latitude":55.768532,"longitude":122.77179,"population":504,"stateCapital":false,"nationalCapital":false,"pk":null,"quiz":"asia","code":null,"archived":false,"percentageOfSessions":null}, {"name":"Лохвицы","state":"Amur","territory":"","country":"Russia","latitude":50.7346722,"longitude":128.2112003,"population":758,"stateCapital":false,"nationalCapital":false,"pk":null,"quiz":"asia","code":null,"archived":false,"percentageOfSessions":null}, {"name":"Луговое","state":"Amur","territory":"","country":"Russia","latitude":50.7602114,"longitude":129.0518288,"population":60,"stateCapital":false,"nationalCapital":false,"pk":null,"quiz":"asia","code":null,"archived":false,"percentageOfSessions":null}, {"name":"Луговое","state":"Amur","territory":"","country":"Russia","latitude":50.4253985,"longitude":128.1204191,"population":237,"stateCapital":false,"nationalCapital":false,"pk":null,"quiz":"asia","code":null,"archived":false,"percentageOfSessions":null}, {"name":"Лукьяновка","state":"Amur","territory":"","country":"Russia","latitude":50.8364069,"longitude":128.205118,"population":165,"stateCapital":false,"nationalCapital":false,"pk":null,"quiz":"asia","code":null,"archived":false,"percentageOfSessions":null}, {"name":"Любимое","state":"Amur","territory":"","country":"Russia","latitude":50.6238556,"longitude":129.2124509,"population":153,"stateCapital":false,"nationalCapital":false,"pk":null,"quiz":"asia","code":null,"archived":false,"percentageOfSessions":null}, {"name":"Магдагачи","state":"Amur","territory":"","country":"Russia","latitude":53.4509086,"longitude":125.8035421,"population":10897,"stateCapital":false,"nationalCapital":false,"pk":null,"quiz":"asia","code":null,"archived":false,"percentageOfSessions":null}, {"name":"Мадалан","state":"Amur","territory":"","country":"Russia","latitude":54.064598,"longitude":123.413338,"population":419,"stateCapital":false,"nationalCapital":false,"pk":null,"quiz":"asia","code":null,"archived":false,"percentageOfSessions":null}, {"name":"Мазаново","state":"Amur","territory":"","country":"Russia","latitude":51.631123,"longitude":128.830551,"population":719,"stateCapital":false,"nationalCapital":false,"pk":null,"quiz":"asia","code":null,"archived":false,"percentageOfSessions":null}, {"name":"Майский","state":"Amur","territory":"","country":"Russia","latitude":52.2926992,"longitude":129.5924776,"population":134,"stateCapital":false,"nationalCapital":false,"pk":null,"quiz":"asia","code":null,"archived":false,"percentageOfSessions":null}, {"name":"Максимовка","state":"Amur","territory":"","country":"Russia","latitude":50.1628473,"longitude":128.8033564,"population":356,"stateCapital":false,"nationalCapital":false,"pk":null,"quiz":"asia","code":null,"archived":false,"percentageOfSessions":null}, {"name":"Малая Сазанка","state":"Amur","territory":"","country":"Russia","latitude":51.226128,"longitude":128.074158,"population":1402,"stateCapital":false,"nationalCapital":false,"pk":null,"quiz":"asia","code":null,"archived":false,"percentageOfSessions":null}, {"name":"Малиновка","state":"Amur","territory":"","country":"Russia","latitude":49.7837877,"longitude":129.8487282,"population":1022,"stateCapital":false,"nationalCapital":false,"pk":null,"quiz":"asia","code":null,"archived":false,"percentageOfSessions":null}, {"name":"Малиновка","state":"Amur","territory":"","country":"Russia","latitude":52.023743,"longitude":127.769234,"population":163,"stateCapital":false,"nationalCapital":false,"pk":null,"quiz":"asia","code":null,"archived":false,"percentageOfSessions":null}, {"name":"Малый Эргель","state":"Amur","territory":"","country":"Russia","latitude":51.270065,"longitude":127.685806,"population":37,"stateCapital":false,"nationalCapital":false,"pk":null,"quiz":"asia","code":null,"archived":false,"percentageOfSessions":null}, {"name":"Маргаритовка","state":"Amur","territory":"","country":"Russia","latitude":51.33131,"longitude":129.211136,"population":373,"stateCapital":false,"nationalCapital":false,"pk":null,"quiz":"asia","code":null,"archived":false,"percentageOfSessions":null}, {"name":"Маревый","state":"Amur","territory":"","country":"Russia","latitude":55.3098749,"longitude":125.8954783,"population":698,"stateCapital":false,"nationalCapital":false,"pk":null,"quiz":"asia","code":null,"archived":false,"percentageOfSessions":null}, {"name":"Мариинск","state":"Amur","territory":"","country":"Russia","latitude":53.1530756,"longitude":132.1786185,"population":6,"stateCapital":false,"nationalCapital":false,"pk":null,"quiz":"asia","code":null,"archived":false,"percentageOfSessions":null}, {"name":"Марково","state":"Amur","territory":"","country":"Russia","latitude":50.543309,"longitude":127.3727457,"population":1335,"stateCapital":false,"nationalCapital":false,"pk":null,"quiz":"asia","code":null,"archived":false,"percentageOfSessions":null}, {"name":"Маркучи","state":"Amur","territory":"","country":"Russia","latitude":51.573814,"longitude":127.707176,"population":255,"stateCapital":false,"nationalCapital":false,"pk":null,"quiz":"asia","code":null,"archived":false,"percentageOfSessions":null}, {"name":"Марьяновка","state":"Amur","territory":"","country":"Russia","latitude":50.314606,"longitude":129.450607,"population":205,"stateCapital":false,"nationalCapital":false,"pk":null,"quiz":"asia","code":null,"archived":false,"percentageOfSessions":null}, {"name":"Междугранка","state":"Amur","territory":"","country":"Russia","latitude":50.904123,"longitude":128.5816861,"population":298,"stateCapital":false,"nationalCapital":false,"pk":null,"quiz":"asia","code":null,"archived":false,"percentageOfSessions":null}, {"name":"Милехино","state":"Amur","territory":"","country":"Russia","latitude":51.030193,"longitude":128.954941,"population":71,"stateCapital":false,"nationalCapital":false,"pk":null,"quiz":"asia","code":null,"archived":false,"percentageOfSessions":null}, {"name":"Мирное","state":"Amur","territory":"","country":"Russia","latitude":50.7406116,"longitude":128.6039127,"population":236,"stateCapital":false,"nationalCapital":false,"pk":null,"quiz":"asia","code":null,"archived":false,"percentageOfSessions":null}, {"name":"Михайловка","state":"Amur","territory":"","country":"Russia","latitude":49.1930283,"longitude":129.8520179,"population":49,"stateCapital":false,"nationalCapital":false,"pk":null,"quiz":"asia","code":null,"archived":false,"percentageOfSessions":null}, {"name":"Михайловка","state":"Amur","territory":"","country":"Russia","latitude":50.6354091,"longitude":127.3697943,"population":582,"stateCapital":false,"nationalCapital":false,"pk":null,"quiz":"asia","code":null,"archived":false,"percentageOfSessions":null}, {"name":"Михайловка","state":"Amur","territory":"","country":"Russia","latitude":51.4517481,"longitude":128.6679069,"population":116,"stateCapital":false,"nationalCapital":false,"pk":null,"quiz":"asia","code":null,"archived":false,"percentageOfSessions":null}, {"name":"Михайловка","state":"Amur","territory":"","country":"Russia","latitude":49.918407,"longitude":128.849884,"population":720,"stateCapital":false,"nationalCapital":false,"pk":null,"quiz":"asia","code":null,"archived":false,"percentageOfSessions":null}, {"name":"Могилевка","state":"Amur","territory":"","country":"Russia","latitude":49.4375475,"longitude":130.3738119,"population":74,"stateCapital":false,"nationalCapital":false,"pk":null,"quiz":"asia","code":null,"archived":false,"percentageOfSessions":null}, {"name":"Могот","state":"Amur","territory":"","country":"Russia","latitude":55.605724,"longitude":124.917374,"population":772,"stateCapital":false,"nationalCapital":false,"pk":null,"quiz":"asia","code":null,"archived":false,"percentageOfSessions":null}, {"name":"Молчаново","state":"Amur","territory":"","country":"Russia","latitude":51.375744,"longitude":128.332794,"population":478,"stateCapital":false,"nationalCapital":false,"pk":null,"quiz":"asia","code":null,"archived":false,"percentageOfSessions":null}, {"name":"Морозовка","state":"Amur","territory":"","country":"Russia","latitude":50.5891843,"longitude":129.2851166,"population":87,"stateCapital":false,"nationalCapital":false,"pk":null,"quiz":"asia","code":null,"archived":false,"percentageOfSessions":null}, {"name":"Москвитино","state":"Amur","territory":"","country":"Russia","latitude":51.148535,"longitude":127.9812757,"population":447,"stateCapital":false,"nationalCapital":false,"pk":null,"quiz":"asia","code":null,"archived":false,"percentageOfSessions":null}, {"name":"Мостовое","state":"Amur","territory":"","country":"Russia","latitude":50.7633399,"longitude":128.9338868,"population":20,"stateCapital":false,"nationalCapital":false,"pk":null,"quiz":"asia","code":null,"archived":false,"percentageOfSessions":null}, {"name":"Муравка","state":"Amur","territory":"","country":"Russia","latitude":49.7952878,"longitude":129.6004693,"population":98,"stateCapital":false,"nationalCapital":false,"pk":null,"quiz":"asia","code":null,"archived":false,"percentageOfSessions":null}, {"name":"Муравьевка","state":"Amur","territory":"","country":"Russia","latitude":49.8338969,"longitude":127.7235419,"population":530,"stateCapital":false,"nationalCapital":false,"pk":null,"quiz":"asia","code":null,"archived":false,"percentageOfSessions":null}, {"name":"Муртыгит","state":"Amur","territory":"","country":"Russia","latitude":54.425144,"longitude":123.863121,"population":385,"stateCapital":false,"nationalCapital":false,"pk":null,"quiz":"asia","code":null,"archived":false,"percentageOfSessions":null}, {"name":"Мухинка","state":"Amur","territory":"","country":"Russia","latitude":50.541969,"longitude":127.653397,"population":149,"stateCapital":false,"nationalCapital":false,"pk":null,"quiz":"asia","code":null,"archived":false,"percentageOfSessions":null}, {"name":"Мухино","state":"Amur","territory":"","country":"Russia","latitude":52.2712111,"longitude":127.2193229,"population":958,"stateCapital":false,"nationalCapital":false,"pk":null,"quiz":"asia","code":null,"archived":false,"percentageOfSessions":null}, {"name":"Мухинский","state":"Amur","territory":"","country":"Russia","latitude":50.255878,"longitude":128.679428,"population":626,"stateCapital":false,"nationalCapital":false,"pk":null,"quiz":"asia","code":null,"archived":false,"percentageOfSessions":null}, {"name":"Нагорный","state":"Amur","territory":"","country":"Russia","latitude":50.4008283,"longitude":128.9813107,"population":46,"stateCapital":false,"nationalCapital":false,"pk":null,"quiz":"asia","code":null,"archived":false,"percentageOfSessions":null}, {"name":"Надежденское","state":"Amur","territory":"","country":"Russia","latitude":50.510257,"longitude":127.9991588,"population":92,"stateCapital":false,"nationalCapital":false,"pk":null,"quiz":"asia","code":null,"archived":false,"percentageOfSessions":null}, {"name":"Натальино","state":"Amur","territory":"","country":"Russia","latitude":50.9732879,"longitude":127.8345169,"population":318,"stateCapital":false,"nationalCapital":false,"pk":null,"quiz":"asia","code":null,"archived":false,"percentageOfSessions":null}, {"name":"Невер","state":"Amur","territory":"","country":"Russia","latitude":53.979195,"longitude":124.163048,"population":1598,"stateCapital":false,"nationalCapital":false,"pk":null,"quiz":"asia","code":null,"archived":false,"percentageOfSessions":null}, {"name":"Некрасовка","state":"Amur","territory":"","country":"Russia","latitude":50.678318,"longitude":128.354563,"population":494,"stateCapital":false,"nationalCapital":false,"pk":null,"quiz":"asia","code":null,"archived":false,"percentageOfSessions":null}, {"name":"Некрасовка","state":"Amur","territory":"","country":"Russia","latitude":50.3461411,"longitude":128.0888615,"population":80,"stateCapital":false,"nationalCapital":false,"pk":null,"quiz":"asia","code":null,"archived":false,"percentageOfSessions":null}, {"name":"Нижнезавитинка","state":"Amur","territory":"","country":"Russia","latitude":49.830395,"longitude":128.701019,"population":51,"stateCapital":false,"nationalCapital":false,"pk":null,"quiz":"asia","code":null,"archived":false,"percentageOfSessions":null}, {"name":"Нижние Бузули","state":"Amur","territory":"","country":"Russia","latitude":51.62767,"longitude":128.192429,"population":920,"stateCapital":false,"nationalCapital":false,"pk":null,"quiz":"asia","code":null,"archived":false,"percentageOfSessions":null}, {"name":"Нижняя Ильиновка","state":"Amur","territory":"","country":"Russia","latitude":49.9159394,"longitude":128.53642,"population":314,"stateCapital":false,"nationalCapital":false,"pk":null,"quiz":"asia","code":null,"archived":false,"percentageOfSessions":null}, {"name":"Нижняя Полтавка","state":"Amur","territory":"","country":"Russia","latitude":49.7188295,"longitude":128.2392776,"population":1235,"stateCapital":false,"nationalCapital":false,"pk":null,"quiz":"asia","code":null,"archived":false,"percentageOfSessions":null}, {"name":"Низинное","state":"Amur","territory":"","country":"Russia","latitude":50.858192,"longitude":128.408463,"population":467,"stateCapital":false,"nationalCapital":false,"pk":null,"quiz":"asia","code":null,"archived":false,"percentageOfSessions":null}, {"name":"Николаевка","state":"Amur","territory":"","country":"Russia","latitude":49.7925729,"longitude":129.9025075,"population":963,"stateCapital":false,"nationalCapital":false,"pk":null,"quiz":"asia","code":null,"archived":false,"percentageOfSessions":null}, {"name":"Николаевка","state":"Amur","territory":"","country":"Russia","latitude":53.5805852,"longitude":127.0142759,"population":316,"stateCapital":false,"nationalCapital":false,"pk":null,"quiz":"asia","code":null,"archived":false,"percentageOfSessions":null}, {"name":"Николаевка","state":"Amur","territory":"","country":"Russia","latitude":50.5996075,"longitude":128.3342058,"population":346,"stateCapital":false,"nationalCapital":false,"pk":null,"quiz":"asia","code":null,"archived":false,"percentageOfSessions":null}, {"name":"Николаевка","state":"Amur","territory":"","country":"Russia","latitude":50.0636459,"longitude":127.6675647,"population":1053,"stateCapital":false,"nationalCapital":false,"pk":null,"quiz":"asia","code":null,"archived":false,"percentageOfSessions":null}, {"name":"Николаевка-2","state":"Amur","territory":"","country":"Russia","latitude":53.594997,"longitude":127.03019,"population":29,"stateCapital":false,"nationalCapital":false,"pk":null,"quiz":"asia","code":null,"archived":false,"percentageOfSessions":null}, {"name":"Николо-Александровка","state":"Amur","territory":"","country":"Russia","latitude":50.1640979,"longitude":128.5044158,"population":565,"stateCapital":false,"nationalCapital":false,"pk":null,"quiz":"asia","code":null,"archived":false,"percentageOfSessions":null}, {"name":"Никольское","state":"Amur","territory":"","country":"Russia","latitude":50.9240685,"longitude":128.2940448,"population":1556,"stateCapital":false,"nationalCapital":false,"pk":null,"quiz":"asia","code":null,"archived":false,"percentageOfSessions":null}, {"name":"Новгородка","state":"Amur","territory":"","country":"Russia","latitude":51.234833,"longitude":128.111099,"population":733,"stateCapital":false,"nationalCapital":false,"pk":null,"quiz":"asia","code":null,"archived":false,"percentageOfSessions":null}, {"name":"Новинка","state":"Amur","territory":"","country":"Russia","latitude":50.6446376,"longitude":127.6665926,"population":128,"stateCapital":false,"nationalCapital":false,"pk":null,"quiz":"asia","code":null,"archived":false,"percentageOfSessions":null}, {"name":"Новоалександровка","state":"Amur","territory":"","country":"Russia","latitude":50.001751,"longitude":128.28096,"population":1338,"stateCapital":false,"nationalCapital":false,"pk":null,"quiz":"asia","code":null,"archived":false,"percentageOfSessions":null}, {"name":"Новоалексеевка","state":"Amur","territory":"","country":"Russia","latitude":50.20908,"longitude":129.336044,"population":133,"stateCapital":false,"nationalCapital":false,"pk":null,"quiz":"asia","code":null,"archived":false,"percentageOfSessions":null}, {"name":"Новоалексеевка","state":"Amur","territory":"","country":"Russia","latitude":50.55587,"longitude":128.08461,"population":689,"stateCapital":false,"nationalCapital":false,"pk":null,"quiz":"asia","code":null,"archived":false,"percentageOfSessions":null}, {"name":"Новоандреевка","state":"Amur","territory":"","country":"Russia","latitude":50.8823783,"longitude":127.8799109,"population":138,"stateCapital":false,"nationalCapital":false,"pk":null,"quiz":"asia","code":null,"archived":false,"percentageOfSessions":null}, {"name":"Новобурейский","state":"Amur","territory":"","country":"Russia","latitude":49.7939604,"longitude":129.8734105,"population":8344,"stateCapital":false,"nationalCapital":false,"pk":null,"quiz":"asia","code":null,"archived":false,"percentageOfSessions":null}, {"name":"Нововоскресеновка","state":"Amur","territory":"","country":"Russia","latitude":52.1070052,"longitude":126.5682043,"population":551,"stateCapital":false,"nationalCapital":false,"pk":null,"quiz":"asia","code":null,"archived":false,"percentageOfSessions":null}, {"name":"Нововысокое","state":"Amur","territory":"","country":"Russia","latitude":52.929893,"longitude":127.637405,"population":0,"stateCapital":false,"nationalCapital":false,"pk":null,"quiz":"asia","code":null,"archived":false,"percentageOfSessions":null}, {"name":"Новогеоргиевка","state":"Amur","territory":"","country":"Russia","latitude":49.894817,"longitude":128.77475,"population":35,"stateCapital":false,"nationalCapital":false,"pk":null,"quiz":"asia","code":null,"archived":false,"percentageOfSessions":null}, {"name":"Новогеоргиевка","state":"Amur","territory":"","country":"Russia","latitude":51.8491889,"longitude":127.1079184,"population":469,"stateCapital":false,"nationalCapital":false,"pk":null,"quiz":"asia","code":null,"archived":false,"percentageOfSessions":null}, {"name":"Новодомикан","state":"Amur","territory":"","country":"Russia","latitude":49.6696915,"longitude":129.9664861,"population":70,"stateCapital":false,"nationalCapital":false,"pk":null,"quiz":"asia","code":null,"archived":false,"percentageOfSessions":null}, {"name":"Новое","state":"Amur","territory":"","country":"Russia","latitude":50.8699253,"longitude":128.9855997,"population":479,"stateCapital":false,"nationalCapital":false,"pk":null,"quiz":"asia","code":null,"archived":false,"percentageOfSessions":null}, {"name":"Новоивановка","state":"Amur","territory":"","country":"Russia","latitude":51.4001662,"longitude":127.984362,"population":546,"stateCapital":false,"nationalCapital":false,"pk":null,"quiz":"asia","code":null,"archived":false,"percentageOfSessions":null}, {"name":"Новокиевка","state":"Amur","territory":"","country":"Russia","latitude":51.677769,"longitude":128.915451,"population":719,"stateCapital":false,"nationalCapital":false,"pk":null,"quiz":"asia","code":null,"archived":false,"percentageOfSessions":null}, {"name":"Новокиевский Увал","state":"Amur","territory":"","country":"Russia","latitude":51.6624387,"longitude":128.920503,"population":4315,"stateCapital":false,"nationalCapital":false,"pk":null,"quiz":"asia","code":null,"archived":false,"percentageOfSessions":null}, {"name":"Новолиствянка","state":"Amur","territory":"","country":"Russia","latitude":50.918217,"longitude":129.190399,"population":0,"stateCapital":false,"nationalCapital":false,"pk":null,"quiz":"asia","code":null,"archived":false,"percentageOfSessions":null}, {"name":"Новомихайловка","state":"Amur","territory":"","country":"Russia","latitude":50.2319398,"longitude":129.2535355,"population":431,"stateCapital":false,"nationalCapital":false,"pk":null,"quiz":"asia","code":null,"archived":false,"percentageOfSessions":null}, {"name":"Новоназаровка","state":"Amur","territory":"","country":"Russia","latitude":50.6911665,"longitude":128.4556713,"population":52,"stateCapital":false,"nationalCapital":false,"pk":null,"quiz":"asia","code":null,"archived":false,"percentageOfSessions":null}, {"name":"Новониколаевка","state":"Amur","territory":"","country":"Russia","latitude":50.743332,"longitude":129.534454,"population":122,"stateCapital":false,"nationalCapital":false,"pk":null,"quiz":"asia","code":null,"archived":false,"percentageOfSessions":null}, {"name":"Новоникольск","state":"Amur","territory":"","country":"Russia","latitude":51.616413,"longitude":128.636826,"population":70,"stateCapital":false,"nationalCapital":false,"pk":null,"quiz":"asia","code":null,"archived":false,"percentageOfSessions":null}, {"name":"Новоострополь","state":"Amur","territory":"","country":"Russia","latitude":51.6694187,"longitude":128.2887675,"population":56,"stateCapital":false,"nationalCapital":false,"pk":null,"quiz":"asia","code":null,"archived":false,"percentageOfSessions":null}, {"name":"Новоохочье","state":"Amur","territory":"","country":"Russia","latitude":51.219891,"longitude":128.557251,"population":128,"stateCapital":false,"nationalCapital":false,"pk":null,"quiz":"asia","code":null,"archived":false,"percentageOfSessions":null}, {"name":"Новопетровка","state":"Amur","territory":"","country":"Russia","latitude":50.7900357,"longitude":127.7603592,"population":756,"stateCapital":false,"nationalCapital":false,"pk":null,"quiz":"asia","code":null,"archived":false,"percentageOfSessions":null}, {"name":"Новопетровка","state":"Amur","territory":"","country":"Russia","latitude":49.574436,"longitude":128.265884,"population":567,"stateCapital":false,"nationalCapital":false,"pk":null,"quiz":"asia","code":null,"archived":false,"percentageOfSessions":null}, {"name":"Новопокровка","state":"Amur","territory":"","country":"Russia","latitude":48.9054091,"longitude":130.2029284,"population":108,"stateCapital":false,"nationalCapital":false,"pk":null,"quiz":"asia","code":null,"archived":false,"percentageOfSessions":null}, {"name":"Новопокровка","state":"Amur","territory":"","country":"Russia","latitude":50.6088497,"longitude":128.2134967,"population":188,"stateCapital":false,"nationalCapital":false,"pk":null,"quiz":"asia","code":null,"archived":false,"percentageOfSessions":null}, {"name":"Новопокровка","state":"Amur","territory":"","country":"Russia","latitude":53.1586533,"longitude":126.3725056,"population":0,"stateCapital":false,"nationalCapital":false,"pk":null,"quiz":"asia","code":null,"archived":false,"percentageOfSessions":null}, {"name":"Новорайчихинск","state":"Amur","territory":"","country":"Russia","latitude":49.783817,"longitude":129.591034,"population":2143,"stateCapital":false,"nationalCapital":false,"pk":null,"quiz":"asia","code":null,"archived":false,"percentageOfSessions":null}, {"name":"Новороссийка","state":"Amur","territory":"","country":"Russia","latitude":52.1471223,"longitude":129.4670454,"population":329,"stateCapital":false,"nationalCapital":false,"pk":null,"quiz":"asia","code":null,"archived":false,"percentageOfSessions":null}, {"name":"Новороссийка","state":"Amur","territory":"","country":"Russia","latitude":50.618351,"longitude":128.848785,"population":156,"stateCapital":false,"nationalCapital":false,"pk":null,"quiz":"asia","code":null,"archived":false,"percentageOfSessions":null}, {"name":"Новоселитьба","state":"Amur","territory":"","country":"Russia","latitude":50.618951,"longitude":128.4335803,"population":56,"stateCapital":false,"nationalCapital":false,"pk":null,"quiz":"asia","code":null,"archived":false,"percentageOfSessions":null}, {"name":"Новосергеевка","state":"Amur","territory":"","country":"Russia","latitude":49.2382644,"longitude":130.293973,"population":102,"stateCapital":false,"nationalCapital":false,"pk":null,"quiz":"asia","code":null,"archived":false,"percentageOfSessions":null}, {"name":"Новосергеевка","state":"Amur","territory":"","country":"Russia","latitude":50.913467,"longitude":128.784775,"population":495,"stateCapital":false,"nationalCapital":false,"pk":null,"quiz":"asia","code":null,"archived":false,"percentageOfSessions":null}, {"name":"Новоспасск","state":"Amur","territory":"","country":"Russia","latitude":49.652214,"longitude":129.780036,"population":279,"stateCapital":false,"nationalCapital":false,"pk":null,"quiz":"asia","code":null,"archived":false,"percentageOfSessions":null}, {"name":"Новостепановка","state":"Amur","territory":"","country":"Russia","latitude":51.4054046,"longitude":127.2853713,"population":233,"stateCapital":false,"nationalCapital":false,"pk":null,"quiz":"asia","code":null,"archived":false,"percentageOfSessions":null}, {"name":"Новотроицкое","state":"Amur","territory":"","country":"Russia","latitude":50.4984676,"longitude":127.5564177,"population":878,"stateCapital":false,"nationalCapital":false,"pk":null,"quiz":"asia","code":null,"archived":false,"percentageOfSessions":null}, {"name":"Новотроицкое","state":"Amur","territory":"","country":"Russia","latitude":49.808681,"longitude":128.071259,"population":483,"stateCapital":false,"nationalCapital":false,"pk":null,"quiz":"asia","code":null,"archived":false,"percentageOfSessions":null}, {"name":"Новочесноково","state":"Amur","territory":"","country":"Russia","latitude":49.567543,"longitude":129.01004,"population":713,"stateCapital":false,"nationalCapital":false,"pk":null,"quiz":"asia","code":null,"archived":false,"percentageOfSessions":null}, {"name":"Новый Быт","state":"Amur","territory":"","country":"Russia","latitude":50.9189336,"longitude":129.1178648,"population":162,"stateCapital":false,"nationalCapital":false,"pk":null,"quiz":"asia","code":null,"archived":false,"percentageOfSessions":null}, {"name":"Норск","state":"Amur","territory":"","country":"Russia","latitude":52.3347051,"longitude":129.9035314,"population":355,"stateCapital":false,"nationalCapital":false,"pk":null,"quiz":"asia","code":null,"archived":false,"percentageOfSessions":null}, {"name":"Нюкжа","state":"Amur","territory":"","country":"Russia","latitude":53.5319512,"longitude":125.5852675,"population":0,"stateCapital":false,"nationalCapital":false,"pk":null,"quiz":"asia","code":null,"archived":false,"percentageOfSessions":null}, {"name":"Овсянка","state":"Amur","territory":"","country":"Russia","latitude":53.580074,"longitude":126.906075,"population":3180,"stateCapital":false,"nationalCapital":false,"pk":null,"quiz":"asia","code":null,"archived":false,"percentageOfSessions":null}, {"name":"Огоджа","state":"Amur","territory":"","country":"Russia","latitude":52.765392,"longitude":132.541656,"population":395,"stateCapital":false,"nationalCapital":false,"pk":null,"quiz":"asia","code":null,"archived":false,"percentageOfSessions":null}, {"name":"Огорон","state":"Amur","territory":"","country":"Russia","latitude":53.9614061,"longitude":129.1446355,"population":341,"stateCapital":false,"nationalCapital":false,"pk":null,"quiz":"asia","code":null,"archived":false,"percentageOfSessions":null}, {"name":"Озерное","state":"Amur","territory":"","country":"Russia","latitude":51.248535,"longitude":128.268478,"population":537,"stateCapital":false,"nationalCapital":false,"pk":null,"quiz":"asia","code":null,"archived":false,"percentageOfSessions":null}, {"name":"Озеряне","state":"Amur","territory":"","country":"Russia","latitude":50.6423069,"longitude":128.7500803,"population":127,"stateCapital":false,"nationalCapital":false,"pk":null,"quiz":"asia","code":null,"archived":false,"percentageOfSessions":null}, {"name":"Октябрьский","state":"Amur","territory":"","country":"Russia","latitude":53.016234,"longitude":128.6472371,"population":1331,"stateCapital":false,"nationalCapital":false,"pk":null,"quiz":"asia","code":null,"archived":false,"percentageOfSessions":null}, {"name":"Октябрьское","state":"Amur","territory":"","country":"Russia","latitude":49.686848,"longitude":127.869858,"population":106,"stateCapital":false,"nationalCapital":false,"pk":null,"quiz":"asia","code":null,"archived":false,"percentageOfSessions":null},