{"cities":[{"name":"101 Км","state":"Khabarovsk","territory":"","country":"Russia","latitude":50.957694,"longitude":138.283786,"population":0,"stateCapital":false,"nationalCapital":false,"pk":null,"quiz":"asia","code":null,"archived":false,"percentageOfSessions":null}, {"name":"105 Км","state":"Khabarovsk","territory":"","country":"Russia","latitude":50.2960609,"longitude":138.0311968,"population":12,"stateCapital":false,"nationalCapital":false,"pk":null,"quiz":"asia","code":null,"archived":false,"percentageOfSessions":null}, {"name":"135 Км","state":"Khabarovsk","territory":"","country":"Russia","latitude":50.34417,"longitude":138.393433,"population":1,"stateCapital":false,"nationalCapital":false,"pk":null,"quiz":"asia","code":null,"archived":false,"percentageOfSessions":null}, {"name":"142 Км","state":"Khabarovsk","territory":"","country":"Russia","latitude":49.8489111,"longitude":131.979409,"population":1,"stateCapital":false,"nationalCapital":false,"pk":null,"quiz":"asia","code":null,"archived":false,"percentageOfSessions":null}, {"name":"147 Км","state":"Khabarovsk","territory":"","country":"Russia","latitude":49.439297,"longitude":135.258179,"population":9,"stateCapital":false,"nationalCapital":false,"pk":null,"quiz":"asia","code":null,"archived":false,"percentageOfSessions":null}, {"name":"18 Км","state":"Khabarovsk","territory":"","country":"Russia","latitude":48.303429,"longitude":135.072739,"population":13,"stateCapital":false,"nationalCapital":false,"pk":null,"quiz":"asia","code":null,"archived":false,"percentageOfSessions":null}, {"name":"180 Км","state":"Khabarovsk","territory":"","country":"Russia","latitude":50.1068731,"longitude":132.2324538,"population":1,"stateCapital":false,"nationalCapital":false,"pk":null,"quiz":"asia","code":null,"archived":false,"percentageOfSessions":null}, {"name":"18-й разъезд","state":"Khabarovsk","territory":"","country":"Russia","latitude":49.693863,"longitude":135.638809,"population":33,"stateCapital":false,"nationalCapital":false,"pk":null,"quiz":"asia","code":null,"archived":false,"percentageOfSessions":null}, {"name":"193 Км","state":"Khabarovsk","territory":"","country":"Russia","latitude":50.2122018,"longitude":132.2593939,"population":0,"stateCapital":false,"nationalCapital":false,"pk":null,"quiz":"asia","code":null,"archived":false,"percentageOfSessions":null}, {"name":"207 Км","state":"Khabarovsk","territory":"","country":"Russia","latitude":49.731041,"longitude":135.817139,"population":15,"stateCapital":false,"nationalCapital":false,"pk":null,"quiz":"asia","code":null,"archived":false,"percentageOfSessions":null}, {"name":"213 Км","state":"Khabarovsk","territory":"","country":"Russia","latitude":49.780148,"longitude":135.846695,"population":0,"stateCapital":false,"nationalCapital":false,"pk":null,"quiz":"asia","code":null,"archived":false,"percentageOfSessions":null}, {"name":"21-й разъезд","state":"Khabarovsk","territory":"","country":"Russia","latitude":49.822861,"longitude":135.939468,"population":21,"stateCapital":false,"nationalCapital":false,"pk":null,"quiz":"asia","code":null,"archived":false,"percentageOfSessions":null}, {"name":"24 Км","state":"Khabarovsk","territory":"","country":"Russia","latitude":48.262066,"longitude":135.052689,"population":78,"stateCapital":false,"nationalCapital":false,"pk":null,"quiz":"asia","code":null,"archived":false,"percentageOfSessions":null}, {"name":"286 Км","state":"Khabarovsk","territory":"","country":"Russia","latitude":50.136803,"longitude":136.602783,"population":1,"stateCapital":false,"nationalCapital":false,"pk":null,"quiz":"asia","code":null,"archived":false,"percentageOfSessions":null}, {"name":"34 Км","state":"Khabarovsk","territory":"","country":"Russia","latitude":48.1163981,"longitude":135.5412466,"population":66,"stateCapital":false,"nationalCapital":false,"pk":null,"quiz":"asia","code":null,"archived":false,"percentageOfSessions":null}, {"name":"37 Км","state":"Khabarovsk","territory":"","country":"Russia","latitude":48.739475,"longitude":134.760834,"population":2,"stateCapital":false,"nationalCapital":false,"pk":null,"quiz":"asia","code":null,"archived":false,"percentageOfSessions":null}, {"name":"43 Км","state":"Khabarovsk","territory":"","country":"Russia","latitude":48.0900585,"longitude":135.6526318,"population":214,"stateCapital":false,"nationalCapital":false,"pk":null,"quiz":"asia","code":null,"archived":false,"percentageOfSessions":null}, {"name":"51 Км","state":"Khabarovsk","territory":"","country":"Russia","latitude":48.824589,"longitude":134.89151,"population":0,"stateCapital":false,"nationalCapital":false,"pk":null,"quiz":"asia","code":null,"archived":false,"percentageOfSessions":null}, {"name":"52 Км","state":"Khabarovsk","territory":"","country":"Russia","latitude":48.1151337,"longitude":135.7339344,"population":33,"stateCapital":false,"nationalCapital":false,"pk":null,"quiz":"asia","code":null,"archived":false,"percentageOfSessions":null}, {"name":"59 Км","state":"Khabarovsk","territory":"","country":"Russia","latitude":48.878197,"longitude":134.944351,"population":0,"stateCapital":false,"nationalCapital":false,"pk":null,"quiz":"asia","code":null,"archived":false,"percentageOfSessions":null}, {"name":"Аван","state":"Khabarovsk","territory":"","country":"Russia","latitude":47.481731,"longitude":134.660049,"population":760,"stateCapital":false,"nationalCapital":false,"pk":null,"quiz":"asia","code":null,"archived":false,"percentageOfSessions":null}, {"name":"Адникан","state":"Khabarovsk","territory":"","country":"Russia","latitude":50.9558967,"longitude":132.4189899,"population":0,"stateCapital":false,"nationalCapital":false,"pk":null,"quiz":"asia","code":null,"archived":false,"percentageOfSessions":null}, {"name":"Аим","state":"Khabarovsk","territory":"","country":"Russia","latitude":58.774773,"longitude":134.254242,"population":205,"stateCapital":false,"nationalCapital":false,"pk":null,"quiz":"asia","code":null,"archived":false,"percentageOfSessions":null}, {"name":"Аимчан","state":"Khabarovsk","territory":"","country":"Russia","latitude":57.193913,"longitude":136.906326,"population":0,"stateCapital":false,"nationalCapital":false,"pk":null,"quiz":"asia","code":null,"archived":false,"percentageOfSessions":null}, {"name":"Аксака","state":"Khabarovsk","territory":"","country":"Russia","latitude":50.2811214,"longitude":138.4845616,"population":0,"stateCapital":false,"nationalCapital":false,"pk":null,"quiz":"asia","code":null,"archived":false,"percentageOfSessions":null}, {"name":"Акур","state":"Khabarovsk","territory":"","country":"Russia","latitude":49.820774,"longitude":140.095734,"population":26,"stateCapital":false,"nationalCapital":false,"pk":null,"quiz":"asia","code":null,"archived":false,"percentageOfSessions":null}, {"name":"Акурский Совхоз-38","state":"Khabarovsk","territory":"","country":"Russia","latitude":49.7966277,"longitude":140.1702748,"population":2,"stateCapital":false,"nationalCapital":false,"pk":null,"quiz":"asia","code":null,"archived":false,"percentageOfSessions":null}, {"name":"Аланап","state":"Khabarovsk","territory":"","country":"Russia","latitude":50.016182,"longitude":131.991928,"population":227,"stateCapital":false,"nationalCapital":false,"pk":null,"quiz":"asia","code":null,"archived":false,"percentageOfSessions":null}, {"name":"Алгазея","state":"Khabarovsk","territory":"","country":"Russia","latitude":54.6997936,"longitude":135.1945359,"population":63,"stateCapital":false,"nationalCapital":false,"pk":null,"quiz":"asia","code":null,"archived":false,"percentageOfSessions":null}, {"name":"Алдома","state":"Khabarovsk","territory":"","country":"Russia","latitude":56.8170143,"longitude":138.4358081,"population":0,"stateCapital":false,"nationalCapital":false,"pk":null,"quiz":"asia","code":null,"archived":false,"percentageOfSessions":null}, {"name":"Алеевка","state":"Khabarovsk","territory":"","country":"Russia","latitude":52.836956,"longitude":141.192581,"population":60,"stateCapital":false,"nationalCapital":false,"pk":null,"quiz":"asia","code":null,"archived":false,"percentageOfSessions":null}, {"name":"Алексеевка","state":"Khabarovsk","territory":"","country":"Russia","latitude":52.860249,"longitude":141.230484,"population":7,"stateCapital":false,"nationalCapital":false,"pk":null,"quiz":"asia","code":null,"archived":false,"percentageOfSessions":null}, {"name":"Алонка","state":"Khabarovsk","territory":"","country":"Russia","latitude":51.367386,"longitude":132.440765,"population":431,"stateCapital":false,"nationalCapital":false,"pk":null,"quiz":"asia","code":null,"archived":false,"percentageOfSessions":null}, {"name":"Амгунь","state":"Khabarovsk","territory":"","country":"Russia","latitude":51.414101,"longitude":135.077332,"population":461,"stateCapital":false,"nationalCapital":false,"pk":null,"quiz":"asia","code":null,"archived":false,"percentageOfSessions":null}, {"name":"Амурск","state":"Khabarovsk","territory":"","country":"Russia","latitude":50.2265588,"longitude":136.9100919,"population":42970,"stateCapital":false,"nationalCapital":false,"pk":null,"quiz":"asia","code":null,"archived":false,"percentageOfSessions":null}, {"name":"Анастасьевка","state":"Khabarovsk","territory":"","country":"Russia","latitude":48.575329,"longitude":135.567657,"population":2154,"stateCapital":false,"nationalCapital":false,"pk":null,"quiz":"asia","code":null,"archived":false,"percentageOfSessions":null}, {"name":"Аннинские Минеральные Воды","state":"Khabarovsk","territory":"","country":"Russia","latitude":52.767075,"longitude":140.171509,"population":234,"stateCapital":false,"nationalCapital":false,"pk":null,"quiz":"asia","code":null,"archived":false,"percentageOfSessions":null}, {"name":"Аргунское","state":"Khabarovsk","territory":"","country":"Russia","latitude":47.96339,"longitude":134.578018,"population":4,"stateCapital":false,"nationalCapital":false,"pk":null,"quiz":"asia","code":null,"archived":false,"percentageOfSessions":null}, {"name":"Арка","state":"Khabarovsk","territory":"","country":"Russia","latitude":60.081268,"longitude":142.333679,"population":699,"stateCapital":false,"nationalCapital":false,"pk":null,"quiz":"asia","code":null,"archived":false,"percentageOfSessions":null}, {"name":"Арсеньево","state":"Khabarovsk","territory":"","country":"Russia","latitude":49.21719,"longitude":137.085205,"population":334,"stateCapital":false,"nationalCapital":false,"pk":null,"quiz":"asia","code":null,"archived":false,"percentageOfSessions":null}, {"name":"Ачан","state":"Khabarovsk","territory":"","country":"Russia","latitude":49.88958,"longitude":136.621765,"population":512,"stateCapital":false,"nationalCapital":false,"pk":null,"quiz":"asia","code":null,"archived":false,"percentageOfSessions":null}, {"name":"Аэропорт","state":"Khabarovsk","territory":"","country":"Russia","latitude":59.414764,"longitude":143.074966,"population":427,"stateCapital":false,"nationalCapital":false,"pk":null,"quiz":"asia","code":null,"archived":false,"percentageOfSessions":null}, {"name":"Аян","state":"Khabarovsk","territory":"","country":"Russia","latitude":56.4609007,"longitude":138.1817339,"population":967,"stateCapital":false,"nationalCapital":false,"pk":null,"quiz":"asia","code":null,"archived":false,"percentageOfSessions":null}, {"name":"База Дрофа","state":"Khabarovsk","territory":"","country":"Russia","latitude":47.887253,"longitude":135.03299,"population":553,"stateCapital":false,"nationalCapital":false,"pk":null,"quiz":"asia","code":null,"archived":false,"percentageOfSessions":null}, {"name":"Байдуково","state":"Khabarovsk","territory":"","country":"Russia","latitude":53.2996808,"longitude":141.4754969,"population":5,"stateCapital":false,"nationalCapital":false,"pk":null,"quiz":"asia","code":null,"archived":false,"percentageOfSessions":null}, {"name":"Белоглинка","state":"Khabarovsk","territory":"","country":"Russia","latitude":52.929203,"longitude":139.850952,"population":51,"stateCapital":false,"nationalCapital":false,"pk":null,"quiz":"asia","code":null,"archived":false,"percentageOfSessions":null}, {"name":"Бельго","state":"Khabarovsk","territory":"","country":"Russia","latitude":50.649067,"longitude":137.258942,"population":378,"stateCapital":false,"nationalCapital":false,"pk":null,"quiz":"asia","code":null,"archived":false,"percentageOfSessions":null}, {"name":"Березовый","state":"Khabarovsk","territory":"","country":"Russia","latitude":51.6679129,"longitude":135.6757407,"population":5498,"stateCapital":false,"nationalCapital":false,"pk":null,"quiz":"asia","code":null,"archived":false,"percentageOfSessions":null}, {"name":"Бикин","state":"Khabarovsk","territory":"","country":"Russia","latitude":46.819363,"longitude":134.254822,"population":17154,"stateCapital":false,"nationalCapital":false,"pk":null,"quiz":"asia","code":null,"archived":false,"percentageOfSessions":null}, {"name":"Бичевая","state":"Khabarovsk","territory":"","country":"Russia","latitude":47.776417,"longitude":135.627594,"population":1509,"stateCapital":false,"nationalCapital":false,"pk":null,"quiz":"asia","code":null,"archived":false,"percentageOfSessions":null}, {"name":"Бичи","state":"Khabarovsk","territory":"","country":"Russia","latitude":50.7481982,"longitude":137.6545024,"population":4,"stateCapital":false,"nationalCapital":false,"pk":null,"quiz":"asia","code":null,"archived":false,"percentageOfSessions":null}, {"name":"Благодатное","state":"Khabarovsk","territory":"","country":"Russia","latitude":48.423798,"longitude":135.482956,"population":820,"stateCapital":false,"nationalCapital":false,"pk":null,"quiz":"asia","code":null,"archived":false,"percentageOfSessions":null}, {"name":"Богородское","state":"Khabarovsk","territory":"","country":"Russia","latitude":52.370987,"longitude":140.441208,"population":3900,"stateCapital":false,"nationalCapital":false,"pk":null,"quiz":"asia","code":null,"archived":false,"percentageOfSessions":null}, {"name":"Бойцово","state":"Khabarovsk","territory":"","country":"Russia","latitude":46.98172,"longitude":134.326157,"population":54,"stateCapital":false,"nationalCapital":false,"pk":null,"quiz":"asia","code":null,"archived":false,"percentageOfSessions":null}, {"name":"Боктор","state":"Khabarovsk","territory":"","country":"Russia","latitude":51.096905,"longitude":137.409531,"population":343,"stateCapital":false,"nationalCapital":false,"pk":null,"quiz":"asia","code":null,"archived":false,"percentageOfSessions":null}, {"name":"Болен","state":"Khabarovsk","territory":"","country":"Russia","latitude":51.563026,"longitude":135.879364,"population":132,"stateCapital":false,"nationalCapital":false,"pk":null,"quiz":"asia","code":null,"archived":false,"percentageOfSessions":null}, {"name":"Болодек","state":"Khabarovsk","territory":"","country":"Russia","latitude":53.6911356,"longitude":133.0560186,"population":0,"stateCapital":false,"nationalCapital":false,"pk":null,"quiz":"asia","code":null,"archived":false,"percentageOfSessions":null}, {"name":"Болонь","state":"Khabarovsk","territory":"","country":"Russia","latitude":49.8978214,"longitude":136.1365116,"population":946,"stateCapital":false,"nationalCapital":false,"pk":null,"quiz":"asia","code":null,"archived":false,"percentageOfSessions":null}, {"name":"Большая Картель","state":"Khabarovsk","territory":"","country":"Russia","latitude":50.389942,"longitude":137.382172,"population":1568,"stateCapital":false,"nationalCapital":false,"pk":null,"quiz":"asia","code":null,"archived":false,"percentageOfSessions":null}, {"name":"Большие Санники","state":"Khabarovsk","territory":"","country":"Russia","latitude":51.6468377,"longitude":140.461428,"population":392,"stateCapital":false,"nationalCapital":false,"pk":null,"quiz":"asia","code":null,"archived":false,"percentageOfSessions":null}, {"name":"Большой Шантар","state":"Khabarovsk","territory":"","country":"Russia","latitude":54.8617475,"longitude":137.496684,"population":4,"stateCapital":false,"nationalCapital":false,"pk":null,"quiz":"asia","code":null,"archived":false,"percentageOfSessions":null}, {"name":"Бриакан","state":"Khabarovsk","territory":"","country":"Russia","latitude":52.315929,"longitude":135.836121,"population":1173,"stateCapital":false,"nationalCapital":false,"pk":null,"quiz":"asia","code":null,"archived":false,"percentageOfSessions":null}, {"name":"Булава","state":"Khabarovsk","territory":"","country":"Russia","latitude":51.939217,"longitude":140.40831,"population":1720,"stateCapital":false,"nationalCapital":false,"pk":null,"quiz":"asia","code":null,"archived":false,"percentageOfSessions":null}, {"name":"Булгин","state":"Khabarovsk","territory":"","country":"Russia","latitude":59.370098,"longitude":143.147827,"population":650,"stateCapital":false,"nationalCapital":false,"pk":null,"quiz":"asia","code":null,"archived":false,"percentageOfSessions":null}, {"name":"Быстринск","state":"Khabarovsk","territory":"","country":"Russia","latitude":51.430897,"longitude":139.471848,"population":252,"stateCapital":false,"nationalCapital":false,"pk":null,"quiz":"asia","code":null,"archived":false,"percentageOfSessions":null}, {"name":"Бычиха","state":"Khabarovsk","territory":"","country":"Russia","latitude":48.302067,"longitude":134.824692,"population":1603,"stateCapital":false,"nationalCapital":false,"pk":null,"quiz":"asia","code":null,"archived":false,"percentageOfSessions":null}, {"name":"Вандан","state":"Khabarovsk","territory":"","country":"Russia","latitude":48.985512,"longitude":135.09668,"population":10,"stateCapital":false,"nationalCapital":false,"pk":null,"quiz":"asia","code":null,"archived":false,"percentageOfSessions":null}, {"name":"Ванино","state":"Khabarovsk","territory":"","country":"Russia","latitude":49.090481,"longitude":140.260864,"population":17001,"stateCapital":false,"nationalCapital":false,"pk":null,"quiz":"asia","code":null,"archived":false,"percentageOfSessions":null}, {"name":"Васильевка","state":"Khabarovsk","territory":"","country":"Russia","latitude":46.83971,"longitude":134.050903,"population":33,"stateCapital":false,"nationalCapital":false,"pk":null,"quiz":"asia","code":null,"archived":false,"percentageOfSessions":null}, {"name":"Васильевка","state":"Khabarovsk","territory":"","country":"Russia","latitude":47.898243,"longitude":135.450989,"population":98,"stateCapital":false,"nationalCapital":false,"pk":null,"quiz":"asia","code":null,"archived":false,"percentageOfSessions":null}, {"name":"Венюково","state":"Khabarovsk","territory":"","country":"Russia","latitude":47.483768,"longitude":134.572617,"population":353,"stateCapital":false,"nationalCapital":false,"pk":null,"quiz":"asia","code":null,"archived":false,"percentageOfSessions":null}, {"name":"Верхнетамбовское","state":"Khabarovsk","territory":"","country":"Russia","latitude":50.666649,"longitude":137.402374,"population":173,"stateCapital":false,"nationalCapital":false,"pk":null,"quiz":"asia","code":null,"archived":false,"percentageOfSessions":null}, {"name":"Верхний Нерген","state":"Khabarovsk","territory":"","country":"Russia","latitude":49.84697,"longitude":136.803497,"population":508,"stateCapital":false,"nationalCapital":false,"pk":null,"quiz":"asia","code":null,"archived":false,"percentageOfSessions":null}, {"name":"Верхняя Манома","state":"Khabarovsk","territory":"","country":"Russia","latitude":49.3233439,"longitude":137.0762508,"population":201,"stateCapital":false,"nationalCapital":false,"pk":null,"quiz":"asia","code":null,"archived":false,"percentageOfSessions":null}, {"name":"Верхняя Эконь","state":"Khabarovsk","territory":"","country":"Russia","latitude":50.425472,"longitude":137.082901,"population":531,"stateCapital":false,"nationalCapital":false,"pk":null,"quiz":"asia","code":null,"archived":false,"percentageOfSessions":null}, {"name":"Веселая Горка","state":"Khabarovsk","territory":"","country":"Russia","latitude":52.284069,"longitude":135.804016,"population":77,"stateCapital":false,"nationalCapital":false,"pk":null,"quiz":"asia","code":null,"archived":false,"percentageOfSessions":null}, {"name":"Веселый","state":"Khabarovsk","territory":"","country":"Russia","latitude":51.1360485,"longitude":132.9318076,"population":54,"stateCapital":false,"nationalCapital":false,"pk":null,"quiz":"asia","code":null,"archived":false,"percentageOfSessions":null}, {"name":"Виданово","state":"Khabarovsk","territory":"","country":"Russia","latitude":51.996014,"longitude":141.220901,"population":39,"stateCapital":false,"nationalCapital":false,"pk":null,"quiz":"asia","code":null,"archived":false,"percentageOfSessions":null}, {"name":"Видное","state":"Khabarovsk","territory":"","country":"Russia","latitude":47.24081,"longitude":134.168045,"population":132,"stateCapital":false,"nationalCapital":false,"pk":null,"quiz":"asia","code":null,"archived":false,"percentageOfSessions":null}, {"name":"Виноградовка","state":"Khabarovsk","territory":"","country":"Russia","latitude":47.4328962,"longitude":134.497564,"population":198,"stateCapital":false,"nationalCapital":false,"pk":null,"quiz":"asia","code":null,"archived":false,"percentageOfSessions":null}, {"name":"Виноградовка","state":"Khabarovsk","territory":"","country":"Russia","latitude":48.613922,"longitude":135.123322,"population":819,"stateCapital":false,"nationalCapital":false,"pk":null,"quiz":"asia","code":null,"archived":false,"percentageOfSessions":null}, {"name":"Владимировка","state":"Khabarovsk","territory":"","country":"Russia","latitude":48.1147054,"longitude":135.1398638,"population":144,"stateCapital":false,"nationalCapital":false,"pk":null,"quiz":"asia","code":null,"archived":false,"percentageOfSessions":null}, {"name":"Владимировка","state":"Khabarovsk","territory":"","country":"Russia","latitude":52.47229,"longitude":136.59642,"population":251,"stateCapital":false,"nationalCapital":false,"pk":null,"quiz":"asia","code":null,"archived":false,"percentageOfSessions":null}, {"name":"Власьево","state":"Khabarovsk","territory":"","country":"Russia","latitude":53.4260162,"longitude":140.9029413,"population":18,"stateCapital":false,"nationalCapital":false,"pk":null,"quiz":"asia","code":null,"archived":false,"percentageOfSessions":null}, {"name":"Вознесенское","state":"Khabarovsk","territory":"","country":"Russia","latitude":50.130497,"longitude":136.936539,"population":2061,"stateCapital":false,"nationalCapital":false,"pk":null,"quiz":"asia","code":null,"archived":false,"percentageOfSessions":null}, {"name":"Воронежское-1","state":"Khabarovsk","territory":"","country":"Russia","latitude":48.6136721,"longitude":135.0505311,"population":11,"stateCapital":false,"nationalCapital":false,"pk":null,"quiz":"asia","code":null,"archived":false,"percentageOfSessions":null}, {"name":"Воронежское-2","state":"Khabarovsk","territory":"","country":"Russia","latitude":48.622814,"longitude":135.065857,"population":182,"stateCapital":false,"nationalCapital":false,"pk":null,"quiz":"asia","code":null,"archived":false,"percentageOfSessions":null}, {"name":"Воронежское-3","state":"Khabarovsk","territory":"","country":"Russia","latitude":48.627449,"longitude":135.086258,"population":29,"stateCapital":false,"nationalCapital":false,"pk":null,"quiz":"asia","code":null,"archived":false,"percentageOfSessions":null}, {"name":"Воскресенское","state":"Khabarovsk","territory":"","country":"Russia","latitude":52.856186,"longitude":139.995483,"population":23,"stateCapital":false,"nationalCapital":false,"pk":null,"quiz":"asia","code":null,"archived":false,"percentageOfSessions":null}, {"name":"Восточное","state":"Khabarovsk","territory":"","country":"Russia","latitude":48.482643,"longitude":135.263748,"population":3700,"stateCapital":false,"nationalCapital":false,"pk":null,"quiz":"asia","code":null,"archived":false,"percentageOfSessions":null}, {"name":"Вострецово","state":"Khabarovsk","territory":"","country":"Russia","latitude":59.2908999,"longitude":142.8843943,"population":560,"stateCapital":false,"nationalCapital":false,"pk":null,"quiz":"asia","code":null,"archived":false,"percentageOfSessions":null}, {"name":"Восход","state":"Khabarovsk","territory":"","country":"Russia","latitude":48.3178816,"longitude":134.9418972,"population":228,"stateCapital":false,"nationalCapital":false,"pk":null,"quiz":"asia","code":null,"archived":false,"percentageOfSessions":null}, {"name":"Второй Сплавной Участок","state":"Khabarovsk","territory":"","country":"Russia","latitude":47.877045,"longitude":135.489853,"population":82,"stateCapital":false,"nationalCapital":false,"pk":null,"quiz":"asia","code":null,"archived":false,"percentageOfSessions":null}, {"name":"Высокогорный","state":"Khabarovsk","territory":"","country":"Russia","latitude":50.097515,"longitude":139.125916,"population":3376,"stateCapital":false,"nationalCapital":false,"pk":null,"quiz":"asia","code":null,"archived":false,"percentageOfSessions":null}, {"name":"Вяземский","state":"Khabarovsk","territory":"","country":"Russia","latitude":47.533455,"longitude":134.757874,"population":14555,"stateCapital":false,"nationalCapital":false,"pk":null,"quiz":"asia","code":null,"archived":false,"percentageOfSessions":null}, {"name":"Вятское","state":"Khabarovsk","territory":"","country":"Russia","latitude":48.739002,"longitude":135.7167645,"population":1886,"stateCapital":false,"nationalCapital":false,"pk":null,"quiz":"asia","code":null,"archived":false,"percentageOfSessions":null}, {"name":"Гайтер","state":"Khabarovsk","territory":"","country":"Russia","latitude":50.365131,"longitude":137.251129,"population":2212,"stateCapital":false,"nationalCapital":false,"pk":null,"quiz":"asia","code":null,"archived":false,"percentageOfSessions":null}, {"name":"Гайтер","state":"Khabarovsk","territory":"","country":"Russia","latitude":50.365131,"longitude":137.251129,"population":37,"stateCapital":false,"nationalCapital":false,"pk":null,"quiz":"asia","code":null,"archived":false,"percentageOfSessions":null}, {"name":"Галичный","state":"Khabarovsk","territory":"","country":"Russia","latitude":50.724453,"longitude":137.202591,"population":581,"stateCapital":false,"nationalCapital":false,"pk":null,"quiz":"asia","code":null,"archived":false,"percentageOfSessions":null}, {"name":"Галкино","state":"Khabarovsk","territory":"","country":"Russia","latitude":48.561298,"longitude":135.364441,"population":1599,"stateCapital":false,"nationalCapital":false,"pk":null,"quiz":"asia","code":null,"archived":false,"percentageOfSessions":null}, {"name":"Гаровка-1","state":"Khabarovsk","territory":"","country":"Russia","latitude":48.443726,"longitude":135.217728,"population":1302,"stateCapital":false,"nationalCapital":false,"pk":null,"quiz":"asia","code":null,"archived":false,"percentageOfSessions":null}, {"name":"Гаровка-2","state":"Khabarovsk","territory":"","country":"Russia","latitude":48.409851,"longitude":135.215851,"population":1795,"stateCapital":false,"nationalCapital":false,"pk":null,"quiz":"asia","code":null,"archived":false,"percentageOfSessions":null}, {"name":"Гасси","state":"Khabarovsk","territory":"","country":"Russia","latitude":49.1211417,"longitude":136.4930026,"population":48,"stateCapital":false,"nationalCapital":false,"pk":null,"quiz":"asia","code":null,"archived":false,"percentageOfSessions":null}, {"name":"Гатка","state":"Khabarovsk","territory":"","country":"Russia","latitude":48.893929,"longitude":140.133255,"population":777,"stateCapital":false,"nationalCapital":false,"pk":null,"quiz":"asia","code":null,"archived":false,"percentageOfSessions":null}, {"name":"Гвасюги","state":"Khabarovsk","territory":"","country":"Russia","latitude":47.670811,"longitude":136.183044,"population":251,"stateCapital":false,"nationalCapital":false,"pk":null,"quiz":"asia","code":null,"archived":false,"percentageOfSessions":null}, {"name":"Гедике","state":"Khabarovsk","territory":"","country":"Russia","latitude":47.3611691,"longitude":134.5000966,"population":13,"stateCapital":false,"nationalCapital":false,"pk":null,"quiz":"asia","code":null,"archived":false,"percentageOfSessions":null}, {"name":"Георгиевка","state":"Khabarovsk","territory":"","country":"Russia","latitude":47.956577,"longitude":135.268417,"population":1431,"stateCapital":false,"nationalCapital":false,"pk":null,"quiz":"asia","code":null,"archived":false,"percentageOfSessions":null}, {"name":"Герби","state":"Khabarovsk","territory":"","country":"Russia","latitude":50.80558,"longitude":134.119354,"population":320,"stateCapital":false,"nationalCapital":false,"pk":null,"quiz":"asia","code":null,"archived":false,"percentageOfSessions":null}, {"name":"Главный Стан","state":"Khabarovsk","territory":"","country":"Russia","latitude":52.267578,"longitude":135.765961,"population":146,"stateCapital":false,"nationalCapital":false,"pk":null,"quiz":"asia","code":null,"archived":false,"percentageOfSessions":null}, {"name":"Глебово","state":"Khabarovsk","territory":"","country":"Russia","latitude":47.25753,"longitude":134.362259,"population":258,"stateCapital":false,"nationalCapital":false,"pk":null,"quiz":"asia","code":null,"archived":false,"percentageOfSessions":null}, {"name":"Голубичное","state":"Khabarovsk","territory":"","country":"Russia","latitude":48.827271,"longitude":134.917618,"population":22,"stateCapital":false,"nationalCapital":false,"pk":null,"quiz":"asia","code":null,"archived":false,"percentageOfSessions":null}, {"name":"Горин","state":"Khabarovsk","territory":"","country":"Russia","latitude":51.1929302,"longitude":136.6648021,"population":4152,"stateCapital":false,"nationalCapital":false,"pk":null,"quiz":"asia","code":null,"archived":false,"percentageOfSessions":null}, {"name":"Горный","state":"Khabarovsk","territory":"","country":"Russia","latitude":50.763821,"longitude":136.446335,"population":1523,"stateCapital":false,"nationalCapital":false,"pk":null,"quiz":"asia","code":null,"archived":false,"percentageOfSessions":null}, {"name":"Гродеково","state":"Khabarovsk","territory":"","country":"Russia","latitude":47.964321,"longitude":135.004944,"population":1152,"stateCapital":false,"nationalCapital":false,"pk":null,"quiz":"asia","code":null,"archived":false,"percentageOfSessions":null}, {"name":"Гроссевичи","state":"Khabarovsk","territory":"","country":"Russia","latitude":47.985031,"longitude":139.533112,"population":3,"stateCapital":false,"nationalCapital":false,"pk":null,"quiz":"asia","code":null,"archived":false,"percentageOfSessions":null}, {"name":"Гуга","state":"Khabarovsk","territory":"","country":"Russia","latitude":52.6979998,"longitude":137.5375736,"population":1,"stateCapital":false,"nationalCapital":false,"pk":null,"quiz":"asia","code":null,"archived":false,"percentageOfSessions":null}, {"name":"Гурское","state":"Khabarovsk","territory":"","country":"Russia","latitude":50.316696,"longitude":138.102539,"population":777,"stateCapital":false,"nationalCapital":false,"pk":null,"quiz":"asia","code":null,"archived":false,"percentageOfSessions":null}, {"name":"Гырман","state":"Khabarovsk","territory":"","country":"Russia","latitude":53.294945,"longitude":140.096146,"population":68,"stateCapital":false,"nationalCapital":false,"pk":null,"quiz":"asia","code":null,"archived":false,"percentageOfSessions":null}, {"name":"Дада","state":"Khabarovsk","territory":"","country":"Russia","latitude":49.168819,"longitude":136.471863,"population":433,"stateCapital":false,"nationalCapital":false,"pk":null,"quiz":"asia","code":null,"archived":false,"percentageOfSessions":null}, {"name":"Даерга","state":"Khabarovsk","territory":"","country":"Russia","latitude":49.264194,"longitude":136.474289,"population":801,"stateCapital":false,"nationalCapital":false,"pk":null,"quiz":"asia","code":null,"archived":false,"percentageOfSessions":null}, {"name":"Даппы","state":"Khabarovsk","territory":"","country":"Russia","latitude":50.189091,"longitude":137.390717,"population":358,"stateCapital":false,"nationalCapital":false,"pk":null,"quiz":"asia","code":null,"archived":false,"percentageOfSessions":null}, {"name":"Датта","state":"Khabarovsk","territory":"","country":"Russia","latitude":49.283756,"longitude":140.369186,"population":652,"stateCapital":false,"nationalCapital":false,"pk":null,"quiz":"asia","code":null,"archived":false,"percentageOfSessions":null}, {"name":"Датта","state":"Khabarovsk","territory":"","country":"Russia","latitude":49.283756,"longitude":140.369186,"population":24,"stateCapital":false,"nationalCapital":false,"pk":null,"quiz":"asia","code":null,"archived":false,"percentageOfSessions":null}, {"name":"Де-Кастри","state":"Khabarovsk","territory":"","country":"Russia","latitude":51.475426,"longitude":140.768982,"population":3238,"stateCapital":false,"nationalCapital":false,"pk":null,"quiz":"asia","code":null,"archived":false,"percentageOfSessions":null}, {"name":"Джамку","state":"Khabarovsk","territory":"","country":"Russia","latitude":51.12077,"longitude":134.644714,"population":646,"stateCapital":false,"nationalCapital":false,"pk":null,"quiz":"asia","code":null,"archived":false,"percentageOfSessions":null}, {"name":"Джана","state":"Khabarovsk","territory":"","country":"Russia","latitude":55.478513,"longitude":134.3499398,"population":5,"stateCapital":false,"nationalCapital":false,"pk":null,"quiz":"asia","code":null,"archived":false,"percentageOfSessions":null}, {"name":"Джаоре","state":"Khabarovsk","territory":"","country":"Russia","latitude":52.67446,"longitude":141.2575864,"population":3,"stateCapital":false,"nationalCapital":false,"pk":null,"quiz":"asia","code":null,"archived":false,"percentageOfSessions":null}, {"name":"Джари","state":"Khabarovsk","territory":"","country":"Russia","latitude":49.43729,"longitude":136.518555,"population":687,"stateCapital":false,"nationalCapital":false,"pk":null,"quiz":"asia","code":null,"archived":false,"percentageOfSessions":null}, {"name":"Джармен","state":"Khabarovsk","territory":"","country":"Russia","latitude":48.71809,"longitude":134.664352,"population":6,"stateCapital":false,"nationalCapital":false,"pk":null,"quiz":"asia","code":null,"archived":false,"percentageOfSessions":null}, {"name":"Джелюмкен","state":"Khabarovsk","territory":"","country":"Russia","latitude":48.9283643,"longitude":134.9704635,"population":14,"stateCapital":false,"nationalCapital":false,"pk":null,"quiz":"asia","code":null,"archived":false,"percentageOfSessions":null}, {"name":"Джигда","state":"Khabarovsk","territory":"","country":"Russia","latitude":57.5468601,"longitude":135.8847255,"population":264,"stateCapital":false,"nationalCapital":false,"pk":null,"quiz":"asia","code":null,"archived":false,"percentageOfSessions":null}, {"name":"Джонка","state":"Khabarovsk","territory":"","country":"Russia","latitude":49.672062,"longitude":136.940872,"population":1310,"stateCapital":false,"nationalCapital":false,"pk":null,"quiz":"asia","code":null,"archived":false,"percentageOfSessions":null}, {"name":"Джуен","state":"Khabarovsk","territory":"","country":"Russia","latitude":49.850094,"longitude":136.25621,"population":461,"stateCapital":false,"nationalCapital":false,"pk":null,"quiz":"asia","code":null,"archived":false,"percentageOfSessions":null}, {"name":"Диппы","state":"Khabarovsk","territory":"","country":"Russia","latitude":50.150459,"longitude":136.98233,"population":36,"stateCapital":false,"nationalCapital":false,"pk":null,"quiz":"asia","code":null,"archived":false,"percentageOfSessions":null}, {"name":"Добролюбово","state":"Khabarovsk","territory":"","country":"Russia","latitude":47.206364,"longitude":134.322922,"population":126,"stateCapital":false,"nationalCapital":false,"pk":null,"quiz":"asia","code":null,"archived":false,"percentageOfSessions":null}, {"name":"Догордон","state":"Khabarovsk","territory":"","country":"Russia","latitude":49.4071971,"longitude":133.2863207,"population":81,"stateCapital":false,"nationalCapital":false,"pk":null,"quiz":"asia","code":null,"archived":false,"percentageOfSessions":null}, {"name":"Долми","state":"Khabarovsk","territory":"","country":"Russia","latitude":47.373386,"longitude":135.624771,"population":351,"stateCapital":false,"nationalCapital":false,"pk":null,"quiz":"asia","code":null,"archived":false,"percentageOfSessions":null}, {"name":"Дом Отдыха Шарголь","state":"Khabarovsk","territory":"","country":"Russia","latitude":50.715561,"longitude":137.3241784,"population":1,"stateCapital":false,"nationalCapital":false,"pk":null,"quiz":"asia","code":null,"archived":false,"percentageOfSessions":null}, {"name":"Домостроительный Завод","state":"Khabarovsk","territory":"","country":"Russia","latitude":51.061768,"longitude":136.858047,"population":503,"stateCapital":false,"nationalCapital":false,"pk":null,"quiz":"asia","code":null,"archived":false,"percentageOfSessions":null}, {"name":"Дормидонтовка","state":"Khabarovsk","territory":"","country":"Russia","latitude":47.770195,"longitude":134.907562,"population":1426,"stateCapital":false,"nationalCapital":false,"pk":null,"quiz":"asia","code":null,"archived":false,"percentageOfSessions":null}, {"name":"Дормидонтовка","state":"Khabarovsk","territory":"","country":"Russia","latitude":47.770195,"longitude":134.907562,"population":556,"stateCapital":false,"nationalCapital":false,"pk":null,"quiz":"asia","code":null,"archived":false,"percentageOfSessions":null}, {"name":"Дрофа","state":"Khabarovsk","territory":"","country":"Russia","latitude":47.88903,"longitude":134.991776,"population":615,"stateCapital":false,"nationalCapital":false,"pk":null,"quiz":"asia","code":null,"archived":false,"percentageOfSessions":null}, {"name":"Дружба","state":"Khabarovsk","territory":"","country":"Russia","latitude":48.3846882,"longitude":135.3141208,"population":1946,"stateCapital":false,"nationalCapital":false,"pk":null,"quiz":"asia","code":null,"archived":false,"percentageOfSessions":null}, {"name":"Дубовый Мыс","state":"Khabarovsk","territory":"","country":"Russia","latitude":49.109417,"longitude":136.499329,"population":1358,"stateCapital":false,"nationalCapital":false,"pk":null,"quiz":"asia","code":null,"archived":false,"percentageOfSessions":null}, {"name":"Дуди","state":"Khabarovsk","territory":"","country":"Russia","latitude":52.093876,"longitude":140.202591,"population":340,"stateCapital":false,"nationalCapital":false,"pk":null,"quiz":"asia","code":null,"archived":false,"percentageOfSessions":null}, {"name":"Дуки","state":"Khabarovsk","territory":"","country":"Russia","latitude":51.566414,"longitude":135.822784,"population":1727,"stateCapital":false,"nationalCapital":false,"pk":null,"quiz":"asia","code":null,"archived":false,"percentageOfSessions":null}, {"name":"Дуки","state":"Khabarovsk","territory":"","country":"Russia","latitude":51.566414,"longitude":135.822784,"population":0,"stateCapital":false,"nationalCapital":false,"pk":null,"quiz":"asia","code":null,"archived":false,"percentageOfSessions":null}, {"name":"Дурмин","state":"Khabarovsk","territory":"","country":"Russia","latitude":48.090298,"longitude":135.842911,"population":847,"stateCapital":false,"nationalCapital":false,"pk":null,"quiz":"asia","code":null,"archived":false,"percentageOfSessions":null}, {"name":"Дюанка","state":"Khabarovsk","territory":"","country":"Russia","latitude":49.1905693,"longitude":140.3223901,"population":7,"stateCapital":false,"nationalCapital":false,"pk":null,"quiz":"asia","code":null,"archived":false,"percentageOfSessions":null}, {"name":"Екатеринославка","state":"Khabarovsk","territory":"","country":"Russia","latitude":47.950008,"longitude":135.129501,"population":856,"stateCapital":false,"nationalCapital":false,"pk":null,"quiz":"asia","code":null,"archived":false,"percentageOfSessions":null}, {"name":"Елабуга","state":"Khabarovsk","territory":"","country":"Russia","latitude":48.798058,"longitude":135.867722,"population":677,"stateCapital":false,"nationalCapital":false,"pk":null,"quiz":"asia","code":null,"archived":false,"percentageOfSessions":null}, {"name":"Забайкальское","state":"Khabarovsk","territory":"","country":"Russia","latitude":47.614983,"longitude":134.686356,"population":415,"stateCapital":false,"nationalCapital":false,"pk":null,"quiz":"asia","code":null,"archived":false,"percentageOfSessions":null}, {"name":"Заветы Ильича","state":"Khabarovsk","territory":"","country":"Russia","latitude":49.030109,"longitude":140.272903,"population":9162,"stateCapital":false,"nationalCapital":false,"pk":null,"quiz":"asia","code":null,"archived":false,"percentageOfSessions":null}, {"name":"Заозерное","state":"Khabarovsk","territory":"","country":"Russia","latitude":48.598843,"longitude":135.2293363,"population":3931,"stateCapital":false,"nationalCapital":false,"pk":null,"quiz":"asia","code":null,"archived":false,"percentageOfSessions":null}, {"name":"Зимовье","state":"Khabarovsk","territory":"","country":"Russia","latitude":49.610615,"longitude":131.585098,"population":77,"stateCapital":false,"nationalCapital":false,"pk":null,"quiz":"asia","code":null,"archived":false,"percentageOfSessions":null}, {"name":"Змейка","state":"Khabarovsk","territory":"","country":"Russia","latitude":48.092876,"longitude":135.596237,"population":12,"stateCapital":false,"nationalCapital":false,"pk":null,"quiz":"asia","code":null,"archived":false,"percentageOfSessions":null}, {"name":"Зоевка","state":"Khabarovsk","territory":"","country":"Russia","latitude":48.064377,"longitude":135.128403,"population":180,"stateCapital":false,"nationalCapital":false,"pk":null,"quiz":"asia","code":null,"archived":false,"percentageOfSessions":null}, {"name":"Золотой","state":"Khabarovsk","territory":"","country":"Russia","latitude":48.0622217,"longitude":136.3881753,"population":427,"stateCapital":false,"nationalCapital":false,"pk":null,"quiz":"asia","code":null,"archived":false,"percentageOfSessions":null}, {"name":"Иванковцы","state":"Khabarovsk","territory":"","country":"Russia","latitude":49.094215,"longitude":134.457535,"population":5,"stateCapital":false,"nationalCapital":false,"pk":null,"quiz":"asia","code":null,"archived":false,"percentageOfSessions":null}, {"name":"Известковый","state":"Khabarovsk","territory":"","country":"Russia","latitude":50.2592971,"longitude":136.6468282,"population":1574,"stateCapital":false,"nationalCapital":false,"pk":null,"quiz":"asia","code":null,"archived":false,"percentageOfSessions":null}, {"name":"Ильинка","state":"Khabarovsk","territory":"","country":"Russia","latitude":48.368259,"longitude":135.126389,"population":2729,"stateCapital":false,"nationalCapital":false,"pk":null,"quiz":"asia","code":null,"archived":false,"percentageOfSessions":null}, {"name":"им. Полины Осипенко","state":"Khabarovsk","territory":"","country":"Russia","latitude":52.422848,"longitude":136.48938,"population":2252,"stateCapital":false,"nationalCapital":false,"pk":null,"quiz":"asia","code":null,"archived":false,"percentageOfSessions":null}, {"name":"Имени Максима Горького","state":"Khabarovsk","territory":"","country":"Russia","latitude":51.383645,"longitude":138.9228171,"population":4,"stateCapital":false,"nationalCapital":false,"pk":null,"quiz":"asia","code":null,"archived":false,"percentageOfSessions":null}, {"name":"Иннокентьевка","state":"Khabarovsk","territory":"","country":"Russia","latitude":49.676037,"longitude":136.898621,"population":1109,"stateCapital":false,"nationalCapital":false,"pk":null,"quiz":"asia","code":null,"archived":false,"percentageOfSessions":null}, {"name":"Иннокентьевка","state":"Khabarovsk","territory":"","country":"Russia","latitude":53.230278,"longitude":140.321426,"population":464,"stateCapital":false,"nationalCapital":false,"pk":null,"quiz":"asia","code":null,"archived":false,"percentageOfSessions":null}, {"name":"Иннокентьевский","state":"Khabarovsk","territory":"","country":"Russia","latitude":48.607273,"longitude":140.166702,"population":5,"stateCapital":false,"nationalCapital":false,"pk":null,"quiz":"asia","code":null,"archived":false,"percentageOfSessions":null}, {"name":"Иня","state":"Khabarovsk","territory":"","country":"Russia","latitude":59.39127,"longitude":144.829742,"population":370,"stateCapital":false,"nationalCapital":false,"pk":null,"quiz":"asia","code":null,"archived":false,"percentageOfSessions":null}, {"name":"Искра","state":"Khabarovsk","territory":"","country":"Russia","latitude":48.990074,"longitude":136.315811,"population":35,"stateCapital":false,"nationalCapital":false,"pk":null,"quiz":"asia","code":null,"archived":false,"percentageOfSessions":null}, {"name":"Казакевичево","state":"Khabarovsk","territory":"","country":"Russia","latitude":48.2695192,"longitude":134.7364512,"population":824,"stateCapital":false,"nationalCapital":false,"pk":null,"quiz":"asia","code":null,"archived":false,"percentageOfSessions":null}, {"name":"Калинка","state":"Khabarovsk","territory":"","country":"Russia","latitude":48.434029,"longitude":135.425385,"population":2216,"stateCapital":false,"nationalCapital":false,"pk":null,"quiz":"asia","code":null,"archived":false,"percentageOfSessions":null}, {"name":"Калиновка","state":"Khabarovsk","territory":"","country":"Russia","latitude":51.54818,"longitude":139.709534,"population":195,"stateCapital":false,"nationalCapital":false,"pk":null,"quiz":"asia","code":null,"archived":false,"percentageOfSessions":null}, {"name":"Кальма","state":"Khabarovsk","territory":"","country":"Russia","latitude":52.972065,"longitude":139.735626,"population":84,"stateCapital":false,"nationalCapital":false,"pk":null,"quiz":"asia","code":null,"archived":false,"percentageOfSessions":null}, {"name":"Каменец-Подольск","state":"Khabarovsk","territory":"","country":"Russia","latitude":47.835072,"longitude":135.518799,"population":175,"stateCapital":false,"nationalCapital":false,"pk":null,"quiz":"asia","code":null,"archived":false,"percentageOfSessions":null}, {"name":"Каменка","state":"Khabarovsk","territory":"","country":"Russia","latitude":52.250813,"longitude":136.345322,"population":1,"stateCapital":false,"nationalCapital":false,"pk":null,"quiz":"asia","code":null,"archived":false,"percentageOfSessions":null}, {"name":"Каменушка","state":"Khabarovsk","territory":"","country":"Russia","latitude":47.278782,"longitude":134.377457,"population":13,"stateCapital":false,"nationalCapital":false,"pk":null,"quiz":"asia","code":null,"archived":false,"percentageOfSessions":null}, {"name":"Капитоновка","state":"Khabarovsk","territory":"","country":"Russia","latitude":47.670361,"longitude":135.066177,"population":488,"stateCapital":false,"nationalCapital":false,"pk":null,"quiz":"asia","code":null,"archived":false,"percentageOfSessions":null}, {"name":"Катэн","state":"Khabarovsk","territory":"","country":"Russia","latitude":47.3925446,"longitude":136.0971259,"population":108,"stateCapital":false,"nationalCapital":false,"pk":null,"quiz":"asia","code":null,"archived":false,"percentageOfSessions":null}, {"name":"Кедрово","state":"Khabarovsk","territory":"","country":"Russia","latitude":47.429619,"longitude":134.368805,"population":111,"stateCapital":false,"nationalCapital":false,"pk":null,"quiz":"asia","code":null,"archived":false,"percentageOfSessions":null}, {"name":"Кенада","state":"Khabarovsk","territory":"","country":"Russia","latitude":50.136333,"longitude":139.572449,"population":775,"stateCapital":false,"nationalCapital":false,"pk":null,"quiz":"asia","code":null,"archived":false,"percentageOfSessions":null}, {"name":"Кенай","state":"Khabarovsk","territory":"","country":"Russia","latitude":50.190315,"longitude":138.595871,"population":588,"stateCapital":false,"nationalCapital":false,"pk":null,"quiz":"asia","code":null,"archived":false,"percentageOfSessions":null}, {"name":"Кетанда","state":"Khabarovsk","territory":"","country":"Russia","latitude":60.633625,"longitude":141.315384,"population":62,"stateCapital":false,"nationalCapital":false,"pk":null,"quiz":"asia","code":null,"archived":false,"percentageOfSessions":null}, {"name":"Кизи","state":"Khabarovsk","territory":"","country":"Russia","latitude":51.5806823,"longitude":140.5304901,"population":16,"stateCapital":false,"nationalCapital":false,"pk":null,"quiz":"asia","code":null,"archived":false,"percentageOfSessions":null}, {"name":"Киинск","state":"Khabarovsk","territory":"","country":"Russia","latitude":47.9867119,"longitude":134.8232102,"population":580,"stateCapital":false,"nationalCapital":false,"pk":null,"quiz":"asia","code":null,"archived":false,"percentageOfSessions":null}, {"name":"Кирпичный","state":"Khabarovsk","territory":"","country":"Russia","latitude":59.410549,"longitude":143.319,"population":2,"stateCapital":false,"nationalCapital":false,"pk":null,"quiz":"asia","code":null,"archived":false,"percentageOfSessions":null}, {"name":"Киселевка","state":"Khabarovsk","territory":"","country":"Russia","latitude":51.4043378,"longitude":138.9931786,"population":789,"stateCapital":false,"nationalCapital":false,"pk":null,"quiz":"asia","code":null,"archived":false,"percentageOfSessions":null}, {"name":"Кия","state":"Khabarovsk","territory":"","country":"Russia","latitude":47.830627,"longitude":135.635681,"population":170,"stateCapital":false,"nationalCapital":false,"pk":null,"quiz":"asia","code":null,"archived":false,"percentageOfSessions":null}, {"name":"Ключевой","state":"Khabarovsk","territory":"","country":"Russia","latitude":51.465672,"longitude":138.988007,"population":106,"stateCapital":false,"nationalCapital":false,"pk":null,"quiz":"asia","code":null,"archived":false,"percentageOfSessions":null}, {"name":"Князево","state":"Khabarovsk","territory":"","country":"Russia","latitude":52.945095,"longitude":139.243134,"population":42,"stateCapital":false,"nationalCapital":false,"pk":null,"quiz":"asia","code":null,"archived":false,"percentageOfSessions":null}, {"name":"Князе-Волконское","state":"Khabarovsk","territory":"","country":"Russia","latitude":48.4674107,"longitude":135.4542243,"population":9155,"stateCapital":false,"nationalCapital":false,"pk":null,"quiz":"asia","code":null,"archived":false,"percentageOfSessions":null}, {"name":"Кольчем","state":"Khabarovsk","territory":"","country":"Russia","latitude":52.229511,"longitude":140.179413,"population":65,"stateCapital":false,"nationalCapital":false,"pk":null,"quiz":"asia","code":null,"archived":false,"percentageOfSessions":null}, {"name":"Комсомольск-на-Амуре","state":"Khabarovsk","territory":"","country":"Russia","latitude":50.5497277,"longitude":137.0099189,"population":263906,"stateCapital":false,"nationalCapital":false,"pk":null,"quiz":"asia","code":null,"archived":false,"percentageOfSessions":null}, {"name":"Кондон","state":"Khabarovsk","territory":"","country":"Russia","latitude":51.263248,"longitude":136.580795,"population":482,"stateCapital":false,"nationalCapital":false,"pk":null,"quiz":"asia","code":null,"archived":false,"percentageOfSessions":null}, {"name":"Кондратьевка","state":"Khabarovsk","territory":"","country":"Russia","latitude":47.8559912,"longitude":134.9856296,"population":350,"stateCapital":false,"nationalCapital":false,"pk":null,"quiz":"asia","code":null,"archived":false,"percentageOfSessions":null}, {"name":"Константиновка","state":"Khabarovsk","territory":"","country":"Russia","latitude":53.079777,"longitude":140.779846,"population":594,"stateCapital":false,"nationalCapital":false,"pk":null,"quiz":"asia","code":null,"archived":false,"percentageOfSessions":null}, {"name":"Константиновка","state":"Khabarovsk","territory":"","country":"Russia","latitude":48.586132,"longitude":135.446625,"population":382,"stateCapital":false,"nationalCapital":false,"pk":null,"quiz":"asia","code":null,"archived":false,"percentageOfSessions":null}, {"name":"Коппи","state":"Khabarovsk","territory":"","country":"Russia","latitude":48.5488212,"longitude":140.1538245,"population":17,"stateCapital":false,"nationalCapital":false,"pk":null,"quiz":"asia","code":null,"archived":false,"percentageOfSessions":null}, {"name":"Корсаково-1","state":"Khabarovsk","territory":"","country":"Russia","latitude":48.3487428,"longitude":134.9572764,"population":874,"stateCapital":false,"nationalCapital":false,"pk":null,"quiz":"asia","code":null,"archived":false,"percentageOfSessions":null}, {"name":"Корсаково-2","state":"Khabarovsk","territory":"","country":"Russia","latitude":48.334892,"longitude":134.94281,"population":66,"stateCapital":false,"nationalCapital":false,"pk":null,"quiz":"asia","code":null,"archived":false,"percentageOfSessions":null}, {"name":"Корфовский","state":"Khabarovsk","territory":"","country":"Russia","latitude":48.222679,"longitude":135.058899,"population":5733,"stateCapital":false,"nationalCapital":false,"pk":null,"quiz":"asia","code":null,"archived":false,"percentageOfSessions":null}, {"name":"Косграмбо","state":"Khabarovsk","territory":"","country":"Russia","latitude":50.198486,"longitude":138.936646,"population":7,"stateCapital":false,"nationalCapital":false,"pk":null,"quiz":"asia","code":null,"archived":false,"percentageOfSessions":null}, {"name":"Котиково","state":"Khabarovsk","territory":"","country":"Russia","latitude":47.416321,"longitude":134.572372,"population":564,"stateCapital":false,"nationalCapital":false,"pk":null,"quiz":"asia","code":null,"archived":false,"percentageOfSessions":null}, {"name":"Котиково","state":"Khabarovsk","territory":"","country":"Russia","latitude":47.416321,"longitude":134.572372,"population":51,"stateCapital":false,"nationalCapital":false,"pk":null,"quiz":"asia","code":null,"archived":false,"percentageOfSessions":null}, {"name":"Кото","state":"Khabarovsk","territory":"","country":"Russia","latitude":49.998417,"longitude":139.870972,"population":30,"stateCapital":false,"nationalCapital":false,"pk":null,"quiz":"asia","code":null,"archived":false,"percentageOfSessions":null}, {"name":"Красицкое","state":"Khabarovsk","territory":"","country":"Russia","latitude":47.639263,"longitude":134.865555,"population":678,"stateCapital":false,"nationalCapital":false,"pk":null,"quiz":"asia","code":null,"archived":false,"percentageOfSessions":null}, {"name":"Красное","state":"Khabarovsk","territory":"","country":"Russia","latitude":53.115078,"longitude":140.862854,"population":980,"stateCapital":false,"nationalCapital":false,"pk":null,"quiz":"asia","code":null,"archived":false,"percentageOfSessions":null}, {"name":"Краснознаменка","state":"Khabarovsk","territory":"","country":"Russia","latitude":48.532433,"longitude":135.513321,"population":45,"stateCapital":false,"nationalCapital":false,"pk":null,"quiz":"asia","code":null,"archived":false,"percentageOfSessions":null}, {"name":"Краснореченское","state":"Khabarovsk","territory":"","country":"Russia","latitude":48.3538041,"longitude":135.0041682,"population":2165,"stateCapital":false,"nationalCapital":false,"pk":null,"quiz":"asia","code":null,"archived":false,"percentageOfSessions":null}, {"name":"Красносельское","state":"Khabarovsk","territory":"","country":"Russia","latitude":48.8186764,"longitude":135.8921242,"population":7,"stateCapital":false,"nationalCapital":false,"pk":null,"quiz":"asia","code":null,"archived":false,"percentageOfSessions":null}, {"name":"Кругликово","state":"Khabarovsk","territory":"","country":"Russia","latitude":48.104294,"longitude":135.119995,"population":76,"stateCapital":false,"nationalCapital":false,"pk":null,"quiz":"asia","code":null,"archived":false,"percentageOfSessions":null}, {"name":"Кругликово","state":"Khabarovsk","territory":"","country":"Russia","latitude":48.104294,"longitude":135.119995,"population":299,"stateCapital":false,"nationalCapital":false,"pk":null,"quiz":"asia","code":null,"archived":false,"percentageOfSessions":null}, {"name":"Кузнецовский","state":"Khabarovsk","territory":"","country":"Russia","latitude":50.174416,"longitude":138.977463,"population":4,"stateCapital":false,"nationalCapital":false,"pk":null,"quiz":"asia","code":null,"archived":false,"percentageOfSessions":null}, {"name":"Кукан","state":"Khabarovsk","territory":"","country":"Russia","latitude":49.1990839,"longitude":133.4733565,"population":980,"stateCapital":false,"nationalCapital":false,"pk":null,"quiz":"asia","code":null,"archived":false,"percentageOfSessions":null}, {"name":"Кукелево","state":"Khabarovsk","territory":"","country":"Russia","latitude":47.761402,"longitude":134.770111,"population":219,"stateCapital":false,"nationalCapital":false,"pk":null,"quiz":"asia","code":null,"archived":false,"percentageOfSessions":null}, {"name":"Кутузовка","state":"Khabarovsk","territory":"","country":"Russia","latitude":47.689991,"longitude":135.720367,"population":101,"stateCapital":false,"nationalCapital":false,"pk":null,"quiz":"asia","code":null,"archived":false,"percentageOfSessions":null}, {"name":"Лазарев","state":"Khabarovsk","territory":"","country":"Russia","latitude":52.2104004,"longitude":141.5195022,"population":1308,"stateCapital":false,"nationalCapital":false,"pk":null,"quiz":"asia","code":null,"archived":false,"percentageOfSessions":null}, {"name":"Лермонтовка","state":"Khabarovsk","territory":"","country":"Russia","latitude":47.1487377,"longitude":134.3404483,"population":3945,"stateCapital":false,"nationalCapital":false,"pk":null,"quiz":"asia","code":null,"archived":false,"percentageOfSessions":null}, {"name":"Лесное","state":"Khabarovsk","territory":"","country":"Russia","latitude":48.396152,"longitude":135.416183,"population":149,"stateCapital":false,"nationalCapital":false,"pk":null,"quiz":"asia","code":null,"archived":false,"percentageOfSessions":null}, {"name":"Лесной","state":"Khabarovsk","territory":"","country":"Russia","latitude":49.180489,"longitude":135.171158,"population":335,"stateCapital":false,"nationalCapital":false,"pk":null,"quiz":"asia","code":null,"archived":false,"percentageOfSessions":null}, {"name":"Лесопильное","state":"Khabarovsk","territory":"","country":"Russia","latitude":46.740063,"longitude":134.342926,"population":893,"stateCapital":false,"nationalCapital":false,"pk":null,"quiz":"asia","code":null,"archived":false,"percentageOfSessions":null}, {"name":"Лиан","state":"Khabarovsk","territory":"","country":"Russia","latitude":50.880695,"longitude":136.818909,"population":603,"stateCapital":false,"nationalCapital":false,"pk":null,"quiz":"asia","code":null,"archived":false,"percentageOfSessions":null}, {"name":"Лидога","state":"Khabarovsk","territory":"","country":"Russia","latitude":49.508537,"longitude":136.90184,"population":1634,"stateCapital":false,"nationalCapital":false,"pk":null,"quiz":"asia","code":null,"archived":false,"percentageOfSessions":null}, {"name":"Лиственный","state":"Khabarovsk","territory":"","country":"Russia","latitude":51.073948,"longitude":132.560349,"population":0,"stateCapital":false,"nationalCapital":false,"pk":null,"quiz":"asia","code":null,"archived":false,"percentageOfSessions":null}, {"name":"Литке","state":"Khabarovsk","territory":"","country":"Russia","latitude":53.95192,"longitude":140.324707,"population":8,"stateCapital":false,"nationalCapital":false,"pk":null,"quiz":"asia","code":null,"archived":false,"percentageOfSessions":null}, {"name":"Литовко","state":"Khabarovsk","territory":"","country":"Russia","latitude":49.2392982,"longitude":135.1775848,"population":2043,"stateCapital":false,"nationalCapital":false,"pk":null,"quiz":"asia","code":null,"archived":false,"percentageOfSessions":null}, {"name":"Лончаково","state":"Khabarovsk","territory":"","country":"Russia","latitude":47.098175,"longitude":134.223404,"population":534,"stateCapital":false,"nationalCapital":false,"pk":null,"quiz":"asia","code":null,"archived":false,"percentageOfSessions":null}, {"name":"Лососина","state":"Khabarovsk","territory":"","country":"Russia","latitude":49.001648,"longitude":140.320526,"population":3224,"stateCapital":false,"nationalCapital":false,"pk":null,"quiz":"asia","code":null,"archived":false,"percentageOfSessions":null}, {"name":"Мавринск","state":"Khabarovsk","territory":"","country":"Russia","latitude":51.080811,"longitude":136.875122,"population":2,"stateCapital":false,"nationalCapital":false,"pk":null,"quiz":"asia","code":null,"archived":false,"percentageOfSessions":null}, {"name":"Маго","state":"Khabarovsk","territory":"","country":"Russia","latitude":53.268757,"longitude":140.151871,"population":1480,"stateCapital":false,"nationalCapital":false,"pk":null,"quiz":"asia","code":null,"archived":false,"percentageOfSessions":null}, {"name":"Маймагун","state":"Khabarovsk","territory":"","country":"Russia","latitude":53.927322,"longitude":136.550919,"population":0,"stateCapital":false,"nationalCapital":false,"pk":null,"quiz":"asia","code":null,"archived":false,"percentageOfSessions":null}, {"name":"Майский","state":"Khabarovsk","territory":"","country":"Russia","latitude":48.998302,"longitude":140.2052,"population":2598,"stateCapital":false,"nationalCapital":false,"pk":null,"quiz":"asia","code":null,"archived":false,"percentageOfSessions":null}, {"name":"Макаровка","state":"Khabarovsk","territory":"","country":"Russia","latitude":53.22134,"longitude":141.414642,"population":7,"stateCapital":false,"nationalCapital":false,"pk":null,"quiz":"asia","code":null,"archived":false,"percentageOfSessions":null}, {"name":"Малиновка","state":"Khabarovsk","territory":"","country":"Russia","latitude":48.480267,"longitude":135.279541,"population":145,"stateCapital":false,"nationalCapital":false,"pk":null,"quiz":"asia","code":null,"archived":false,"percentageOfSessions":null}, {"name":"Малмыж","state":"Khabarovsk","territory":"","country":"Russia","latitude":49.853775,"longitude":136.762772,"population":72,"stateCapital":false,"nationalCapital":false,"pk":null,"quiz":"asia","code":null,"archived":false,"percentageOfSessions":null}, {"name":"Малмыж","state":"Khabarovsk","territory":"","country":"Russia","latitude":50.303967,"longitude":136.670135,"population":98,"stateCapital":false,"nationalCapital":false,"pk":null,"quiz":"asia","code":null,"archived":false,"percentageOfSessions":null}, {"name":"Малышево","state":"Khabarovsk","territory":"","country":"Russia","latitude":48.733932,"longitude":135.616959,"population":871,"stateCapital":false,"nationalCapital":false,"pk":null,"quiz":"asia","code":null,"archived":false,"percentageOfSessions":null}, {"name":"Мариинский Рейд","state":"Khabarovsk","territory":"","country":"Russia","latitude":51.709869,"longitude":140.20285,"population":608,"stateCapital":false,"nationalCapital":false,"pk":null,"quiz":"asia","code":null,"archived":false,"percentageOfSessions":null}, {"name":"Мариинское","state":"Khabarovsk","territory":"","country":"Russia","latitude":51.728325,"longitude":140.185074,"population":656,"stateCapital":false,"nationalCapital":false,"pk":null,"quiz":"asia","code":null,"archived":false,"percentageOfSessions":null}, {"name":"Марусино","state":"Khabarovsk","territory":"","country":"Russia","latitude":47.972393,"longitude":135.460938,"population":487,"stateCapital":false,"nationalCapital":false,"pk":null,"quiz":"asia","code":null,"archived":false,"percentageOfSessions":null}, {"name":"Матвеевка","state":"Khabarovsk","territory":"","country":"Russia","latitude":48.54895,"longitude":135.187515,"population":2974,"stateCapital":false,"nationalCapital":false,"pk":null,"quiz":"asia","code":null,"archived":false,"percentageOfSessions":null}, {"name":"Мачтовый","state":"Khabarovsk","territory":"","country":"Russia","latitude":50.616142,"longitude":137.881332,"population":3,"stateCapital":false,"nationalCapital":false,"pk":null,"quiz":"asia","code":null,"archived":false,"percentageOfSessions":null}, {"name":"Маяк","state":"Khabarovsk","territory":"","country":"Russia","latitude":48.9177855,"longitude":136.2466245,"population":1638,"stateCapital":false,"nationalCapital":false,"pk":null,"quiz":"asia","code":null,"archived":false,"percentageOfSessions":null}, {"name":"Медвежий","state":"Khabarovsk","territory":"","country":"Russia","latitude":47.3545837,"longitude":135.2083812,"population":136,"stateCapital":false,"nationalCapital":false,"pk":null,"quiz":"asia","code":null,"archived":false,"percentageOfSessions":null}, {"name":"Менгон","state":"Khabarovsk","territory":"","country":"Russia","latitude":49.988029,"longitude":136.323837,"population":36,"stateCapital":false,"nationalCapital":false,"pk":null,"quiz":"asia","code":null,"archived":false,"percentageOfSessions":null}, {"name":"Метеостанция Батомга","state":"Khabarovsk","territory":"","country":"Russia","latitude":56.6627218,"longitude":136.3933769,"population":4,"stateCapital":false,"nationalCapital":false,"pk":null,"quiz":"asia","code":null,"archived":false,"percentageOfSessions":null}, {"name":"Метеостанция Бурукан","state":"Khabarovsk","territory":"","country":"Russia","latitude":53.055618,"longitude":136.00148,"population":5,"stateCapital":false,"nationalCapital":false,"pk":null,"quiz":"asia","code":null,"archived":false,"percentageOfSessions":null}, {"name":"Метеостанция Курун-Урях","state":"Khabarovsk","territory":"","country":"Russia","latitude":58.657166,"longitude":137.289825,"population":5,"stateCapital":false,"nationalCapital":false,"pk":null,"quiz":"asia","code":null,"archived":false,"percentageOfSessions":null}, {"name":"Мирное","state":"Khabarovsk","territory":"","country":"Russia","latitude":48.488628,"longitude":135.224014,"population":1574,"stateCapital":false,"nationalCapital":false,"pk":null,"quiz":"asia","code":null,"archived":false,"percentageOfSessions":null}, {"name":"Мичуринское","state":"Khabarovsk","territory":"","country":"Russia","latitude":48.617676,"longitude":135.105865,"population":987,"stateCapital":false,"nationalCapital":false,"pk":null,"quiz":"asia","code":null,"archived":false,"percentageOfSessions":null}, {"name":"Многовершинный","state":"Khabarovsk","territory":"","country":"Russia","latitude":53.930828,"longitude":139.937195,"population":2324,"stateCapital":false,"nationalCapital":false,"pk":null,"quiz":"asia","code":null,"archived":false,"percentageOfSessions":null}, {"name":"Могилевка","state":"Khabarovsk","territory":"","country":"Russia","latitude":47.970646,"longitude":134.95224,"population":1276,"stateCapital":false,"nationalCapital":false,"pk":null,"quiz":"asia","code":null,"archived":false,"percentageOfSessions":null}, {"name":"Молодежный","state":"Khabarovsk","territory":"","country":"Russia","latitude":50.376225,"longitude":136.950531,"population":1422,"stateCapital":false,"nationalCapital":false,"pk":null,"quiz":"asia","code":null,"archived":false,"percentageOfSessions":null}, {"name":"Монгол","state":"Khabarovsk","territory":"","country":"Russia","latitude":52.129486,"longitude":140.375366,"population":102,"stateCapital":false,"nationalCapital":false,"pk":null,"quiz":"asia","code":null,"archived":false,"percentageOfSessions":null}, {"name":"Монгохто","state":"Khabarovsk","territory":"","country":"Russia","latitude":49.240211,"longitude":140.229019,"population":4120,"stateCapital":false,"nationalCapital":false,"pk":null,"quiz":"asia","code":null,"archived":false,"percentageOfSessions":null}, {"name":"Морской","state":"Khabarovsk","territory":"","country":"Russia","latitude":59.343128,"longitude":143.138916,"population":180,"stateCapital":false,"nationalCapital":false,"pk":null,"quiz":"asia","code":null,"archived":false,"percentageOfSessions":null}, {"name":"Мошка","state":"Khabarovsk","territory":"","country":"Russia","latitude":50.2736004,"longitude":132.2746921,"population":0,"stateCapital":false,"nationalCapital":false,"pk":null,"quiz":"asia","code":null,"archived":false,"percentageOfSessions":null}, {"name":"Мухен","state":"Khabarovsk","territory":"","country":"Russia","latitude":48.194725,"longitude":136.137177,"population":4068,"stateCapital":false,"nationalCapital":false,"pk":null,"quiz":"asia","code":null,"archived":false,"percentageOfSessions":null}, {"name":"Нагорное","state":"Khabarovsk","territory":"","country":"Russia","latitude":48.606106,"longitude":135.065811,"population":257,"stateCapital":false,"nationalCapital":false,"pk":null,"quiz":"asia","code":null,"archived":false,"percentageOfSessions":null}, {"name":"Назарово","state":"Khabarovsk","territory":"","country":"Russia","latitude":56.847935,"longitude":137.020645,"population":0,"stateCapital":false,"nationalCapital":false,"pk":null,"quiz":"asia","code":null,"archived":false,"percentageOfSessions":null}, {"name":"Найхин","state":"Khabarovsk","territory":"","country":"Russia","latitude":49.277477,"longitude":136.465668,"population":945,"stateCapital":false,"nationalCapital":false,"pk":null,"quiz":"asia","code":null,"archived":false,"percentageOfSessions":null}, {"name":"Наумовка","state":"Khabarovsk","territory":"","country":"Russia","latitude":48.991764,"longitude":133.429291,"population":75,"stateCapital":false,"nationalCapital":false,"pk":null,"quiz":"asia","code":null,"archived":false,"percentageOfSessions":null}, {"name":"Невельское","state":"Khabarovsk","territory":"","country":"Russia","latitude":48.117161,"longitude":134.675095,"population":79,"stateCapital":false,"nationalCapital":false,"pk":null,"quiz":"asia","code":null,"archived":false,"percentageOfSessions":null}, {"name":"Некрасовка","state":"Khabarovsk","territory":"","country":"Russia","latitude":48.35223,"longitude":135.231827,"population":8883,"stateCapital":false,"nationalCapital":false,"pk":null,"quiz":"asia","code":null,"archived":false,"percentageOfSessions":null}, {"name":"Нелькан","state":"Khabarovsk","territory":"","country":"Russia","latitude":57.656956,"longitude":136.17157,"population":843,"stateCapital":false,"nationalCapital":false,"pk":null,"quiz":"asia","code":null,"archived":false,"percentageOfSessions":null}, {"name":"Нельма","state":"Khabarovsk","territory":"","country":"Russia","latitude":47.650562,"longitude":139.178238,"population":8,"stateCapital":false,"nationalCapital":false,"pk":null,"quiz":"asia","code":null,"archived":false,"percentageOfSessions":null}, {"name":"Неран","state":"Khabarovsk","territory":"","country":"Russia","latitude":54.6907529,"longitude":135.2721454,"population":90,"stateCapital":false,"nationalCapital":false,"pk":null,"quiz":"asia","code":null,"archived":false,"percentageOfSessions":null}, {"name":"Нигирь","state":"Khabarovsk","territory":"","country":"Russia","latitude":52.1190834,"longitude":141.302441,"population":443,"stateCapital":false,"nationalCapital":false,"pk":null,"quiz":"asia","code":null,"archived":false,"percentageOfSessions":null}, {"name":"Нижнее Пронге","state":"Khabarovsk","territory":"","country":"Russia","latitude":52.8555128,"longitude":141.2009588,"population":307,"stateCapital":false,"nationalCapital":false,"pk":null,"quiz":"asia","code":null,"archived":false,"percentageOfSessions":null}, {"name":"Нижнетамбовское","state":"Khabarovsk","territory":"","country":"Russia","latitude":50.919815,"longitude":138.19104,"population":942,"stateCapital":false,"nationalCapital":false,"pk":null,"quiz":"asia","code":null,"archived":false,"percentageOfSessions":null}, {"name":"Нижние Халбы","state":"Khabarovsk","territory":"","country":"Russia","latitude":50.797367,"longitude":137.928223,"population":351,"stateCapital":false,"nationalCapital":false,"pk":null,"quiz":"asia","code":null,"archived":false,"percentageOfSessions":null}, {"name":"Нижняя Гавань","state":"Khabarovsk","territory":"","country":"Russia","latitude":52.437786,"longitude":140.42453,"population":225,"stateCapital":false,"nationalCapital":false,"pk":null,"quiz":"asia","code":null,"archived":false,"percentageOfSessions":null}, {"name":"Нижняя Манома","state":"Khabarovsk","territory":"","country":"Russia","latitude":49.327042,"longitude":136.628036,"population":181,"stateCapital":false,"nationalCapital":false,"pk":null,"quiz":"asia","code":null,"archived":false,"percentageOfSessions":null}, {"name":"Николаевск-на-Амуре","state":"Khabarovsk","territory":"","country":"Russia","latitude":53.138729,"longitude":140.72493,"population":22752,"stateCapital":false,"nationalCapital":false,"pk":null,"quiz":"asia","code":null,"archived":false,"percentageOfSessions":null}, {"name":"Ниланкан","state":"Khabarovsk","territory":"","country":"Russia","latitude":52.19009,"longitude":136.161652,"population":0,"stateCapital":false,"nationalCapital":false,"pk":null,"quiz":"asia","code":null,"archived":false,"percentageOfSessions":null}, {"name":"Новая Иня","state":"Khabarovsk","territory":"","country":"Russia","latitude":59.375946,"longitude":144.862259,"population":422,"stateCapital":false,"nationalCapital":false,"pk":null,"quiz":"asia","code":null,"archived":false,"percentageOfSessions":null}, {"name":"Новое Устье","state":"Khabarovsk","territory":"","country":"Russia","latitude":59.3310083,"longitude":143.0643295,"population":351,"stateCapital":false,"nationalCapital":false,"pk":null,"quiz":"asia","code":null,"archived":false,"percentageOfSessions":null}, {"name":"Новоильиновка","state":"Khabarovsk","territory":"","country":"Russia","latitude":51.180126,"longitude":138.626053,"population":86,"stateCapital":false,"nationalCapital":false,"pk":null,"quiz":"asia","code":null,"archived":false,"percentageOfSessions":null}, {"name":"Новокаменка","state":"Khabarovsk","territory":"","country":"Russia","latitude":48.60537,"longitude":134.813995,"population":2,"stateCapital":false,"nationalCapital":false,"pk":null,"quiz":"asia","code":null,"archived":false,"percentageOfSessions":null}, {"name":"Новокуровка","state":"Khabarovsk","territory":"","country":"Russia","latitude":48.848606,"longitude":134.308624,"population":460,"stateCapital":false,"nationalCapital":false,"pk":null,"quiz":"asia","code":null,"archived":false,"percentageOfSessions":null}, {"name":"Новостройка","state":"Khabarovsk","territory":"","country":"Russia","latitude":47.8494548,"longitude":134.9543381,"population":710,"stateCapital":false,"nationalCapital":false,"pk":null,"quiz":"asia","code":null,"archived":false,"percentageOfSessions":null}, {"name":"Новотроицкое","state":"Khabarovsk","territory":"","country":"Russia","latitude":53.190483,"longitude":139.870529,"population":6,"stateCapital":false,"nationalCapital":false,"pk":null,"quiz":"asia","code":null,"archived":false,"percentageOfSessions":null}, {"name":"Новотроицкое","state":"Khabarovsk","territory":"","country":"Russia","latitude":48.313267,"longitude":134.837677,"population":216,"stateCapital":false,"nationalCapital":false,"pk":null,"quiz":"asia","code":null,"archived":false,"percentageOfSessions":null}, {"name":"Новый Мир","state":"Khabarovsk","territory":"","country":"Russia","latitude":50.4585,"longitude":136.963272,"population":1114,"stateCapital":false,"nationalCapital":false,"pk":null,"quiz":"asia","code":null,"archived":false,"percentageOfSessions":null}, {"name":"Новый Ургал","state":"Khabarovsk","territory":"","country":"Russia","latitude":51.071144,"longitude":132.605484,"population":6803,"stateCapital":false,"nationalCapital":false,"pk":null,"quiz":"asia","code":null,"archived":false,"percentageOfSessions":null}, {"name":"Нусхи","state":"Khabarovsk","territory":"","country":"Russia","latitude":49.485245,"longitude":135.290237,"population":9,"stateCapital":false,"nationalCapital":false,"pk":null,"quiz":"asia","code":null,"archived":false,"percentageOfSessions":null}, {"name":"Нядбаки","state":"Khabarovsk","territory":"","country":"Russia","latitude":61.178165,"longitude":143.670746,"population":49,"stateCapital":false,"nationalCapital":false,"pk":null,"quiz":"asia","code":null,"archived":false,"percentageOfSessions":null}, {"name":"Обор","state":"Khabarovsk","territory":"","country":"Russia","latitude":48.093163,"longitude":135.685684,"population":666,"stateCapital":false,"nationalCapital":false,"pk":null,"quiz":"asia","code":null,"archived":false,"percentageOfSessions":null}, {"name":"Обхорощее","state":"Khabarovsk","territory":"","country":"Russia","latitude":52.7967195,"longitude":136.5523095,"population":1,"stateCapital":false,"nationalCapital":false,"pk":null,"quiz":"asia","code":null,"archived":false,"percentageOfSessions":null}, {"name":"Оглонги","state":"Khabarovsk","territory":"","country":"Russia","latitude":52.943268,"longitude":138.890121,"population":530,"stateCapital":false,"nationalCapital":false,"pk":null,"quiz":"asia","code":null,"archived":false,"percentageOfSessions":null}, {"name":"Озерпах","state":"Khabarovsk","territory":"","country":"Russia","latitude":53.041965,"longitude":141.244461,"population":235,"stateCapital":false,"nationalCapital":false,"pk":null,"quiz":"asia","code":null,"archived":false,"percentageOfSessions":null}, {"name":"Октябрьский","state":"Khabarovsk","territory":"","country":"Russia","latitude":49.058681,"longitude":140.252335,"population":6240,"stateCapital":false,"nationalCapital":false,"pk":null,"quiz":"asia","code":null,"archived":false,"percentageOfSessions":null}, {"name":"Октябрьский","state":"Khabarovsk","territory":"","country":"Russia","latitude":52.690445,"longitude":139.426117,"population":0,"stateCapital":false,"nationalCapital":false,"pk":null,"quiz":"asia","code":null,"archived":false,"percentageOfSessions":null}, {"name":"Октябрьский","state":"Khabarovsk","territory":"","country":"Russia","latitude":50.719185,"longitude":137.947357,"population":2,"stateCapital":false,"nationalCapital":false,"pk":null,"quiz":"asia","code":null,"archived":false,"percentageOfSessions":null}, {"name":"Омми","state":"Khabarovsk","territory":"","country":"Russia","latitude":50.090126,"longitude":136.788818,"population":413,"stateCapital":false,"nationalCapital":false,"pk":null,"quiz":"asia","code":null,"archived":false,"percentageOfSessions":null}, {"name":"Орель-Чля","state":"Khabarovsk","territory":"","country":"Russia","latitude":53.3602006,"longitude":139.8286203,"population":43,"stateCapital":false,"nationalCapital":false,"pk":null,"quiz":"asia","code":null,"archived":false,"percentageOfSessions":null}, {"name":"Оремиф","state":"Khabarovsk","territory":"","country":"Russia","latitude":53.009583,"longitude":141.098068,"population":262,"stateCapital":false,"nationalCapital":false,"pk":null,"quiz":"asia","code":null,"archived":false,"percentageOfSessions":null}, {"name":"Оренбургское","state":"Khabarovsk","territory":"","country":"Russia","latitude":46.795956,"longitude":134.24202,"population":754,"stateCapital":false,"nationalCapital":false,"pk":null,"quiz":"asia","code":null,"archived":false,"percentageOfSessions":null}, {"name":"Осиновая Речка","state":"Khabarovsk","territory":"","country":"Russia","latitude":48.329025,"longitude":134.892029,"population":1751,"stateCapital":false,"nationalCapital":false,"pk":null,"quiz":"asia","code":null,"archived":false,"percentageOfSessions":null}, {"name":"Отрадное","state":"Khabarovsk","territory":"","country":"Russia","latitude":47.49593,"longitude":134.702713,"population":860,"stateCapital":false,"nationalCapital":false,"pk":null,"quiz":"asia","code":null,"archived":false,"percentageOfSessions":null}, {"name":"Оунэ","state":"Khabarovsk","territory":"","country":"Russia","latitude":50.2052982,"longitude":138.8551748,"population":16,"stateCapital":false,"nationalCapital":false,"pk":null,"quiz":"asia","code":null,"archived":false,"percentageOfSessions":null}, {"name":"Охотск","state":"Khabarovsk","territory":"","country":"Russia","latitude":59.3619947,"longitude":143.2146511,"population":4215,"stateCapital":false,"nationalCapital":false,"pk":null,"quiz":"asia","code":null,"archived":false,"percentageOfSessions":null}, {"name":"Павленково","state":"Khabarovsk","territory":"","country":"Russia","latitude":47.971451,"longitude":135.239243,"population":443,"stateCapital":false,"nationalCapital":false,"pk":null,"quiz":"asia","code":null,"archived":false,"percentageOfSessions":null}, {"name":"Падали","state":"Khabarovsk","territory":"","country":"Russia","latitude":50.2136954,"longitude":136.6500048,"population":389,"stateCapital":false,"nationalCapital":false,"pk":null,"quiz":"asia","code":null,"archived":false,"percentageOfSessions":null}, {"name":"Партизанские Сопки","state":"Khabarovsk","territory":"","country":"Russia","latitude":48.804047,"longitude":134.866425,"population":5,"stateCapital":false,"nationalCapital":false,"pk":null,"quiz":"asia","code":null,"archived":false,"percentageOfSessions":null}, {"name":"Пасека","state":"Khabarovsk","territory":"","country":"Russia","latitude":49.0604496,"longitude":134.3568043,"population":392,"stateCapital":false,"nationalCapital":false,"pk":null,"quiz":"asia","code":null,"archived":false,"percentageOfSessions":null}, {"name":"Перелесок","state":"Khabarovsk","territory":"","country":"Russia","latitude":46.905006,"longitude":134.272522,"population":26,"stateCapital":false,"nationalCapital":false,"pk":null,"quiz":"asia","code":null,"archived":false,"percentageOfSessions":null}, {"name":"Переяславка","state":"Khabarovsk","territory":"","country":"Russia","latitude":47.968636,"longitude":135.054947,"population":8921,"stateCapital":false,"nationalCapital":false,"pk":null,"quiz":"asia","code":null,"archived":false,"percentageOfSessions":null}, {"name":"Петровичи","state":"Khabarovsk","territory":"","country":"Russia","latitude":47.937271,"longitude":135.542084,"population":285,"stateCapital":false,"nationalCapital":false,"pk":null,"quiz":"asia","code":null,"archived":false,"percentageOfSessions":null}, {"name":"Петропавловка","state":"Khabarovsk","territory":"","country":"Russia","latitude":48.683811,"longitude":135.528885,"population":125,"stateCapital":false,"nationalCapital":false,"pk":null,"quiz":"asia","code":null,"archived":false,"percentageOfSessions":null}, {"name":"Пивань","state":"Khabarovsk","territory":"","country":"Russia","latitude":50.481987,"longitude":137.085251,"population":1754,"stateCapital":false,"nationalCapital":false,"pk":null,"quiz":"asia","code":null,"archived":false,"percentageOfSessions":null}, {"name":"Пионерский Лагерь Имени Олега Кошевого","state":"Khabarovsk","territory":"","country":"Russia","latitude":50.636543,"longitude":137.227707,"population":6,"stateCapital":false,"nationalCapital":false,"pk":null,"quiz":"asia","code":null,"archived":false,"percentageOfSessions":null}, {"name":"Победа","state":"Khabarovsk","territory":"","country":"Russia","latitude":49.059418,"longitude":134.327255,"population":733,"stateCapital":false,"nationalCapital":false,"pk":null,"quiz":"asia","code":null,"archived":false,"percentageOfSessions":null}, {"name":"Подгорное","state":"Khabarovsk","territory":"","country":"Russia","latitude":53.1016203,"longitude":140.7605906,"population":16,"stateCapital":false,"nationalCapital":false,"pk":null,"quiz":"asia","code":null,"archived":false,"percentageOfSessions":null}, {"name":"Покровка","state":"Khabarovsk","territory":"","country":"Russia","latitude":46.716328,"longitude":134.025269,"population":224,"stateCapital":false,"nationalCapital":false,"pk":null,"quiz":"asia","code":null,"archived":false,"percentageOfSessions":null}, {"name":"Полетное","state":"Khabarovsk","territory":"","country":"Russia","latitude":47.897896,"longitude":135.600601,"population":1156,"stateCapital":false,"nationalCapital":false,"pk":null,"quiz":"asia","code":null,"archived":false,"percentageOfSessions":null}, {"name":"Пони","state":"Khabarovsk","territory":"","country":"Russia","latitude":50.26569,"longitude":137.79335,"population":4,"stateCapital":false,"nationalCapital":false,"pk":null,"quiz":"asia","code":null,"archived":false,"percentageOfSessions":null}, {"name":"Почепта","state":"Khabarovsk","territory":"","country":"Russia","latitude":50.356364,"longitude":138.2538473,"population":2,"stateCapital":false,"nationalCapital":false,"pk":null,"quiz":"asia","code":null,"archived":false,"percentageOfSessions":null}, {"name":"Прудки","state":"Khabarovsk","territory":"","country":"Russia","latitude":47.868702,"longitude":135.622833,"population":128,"stateCapital":false,"nationalCapital":false,"pk":null,"quiz":"asia","code":null,"archived":false,"percentageOfSessions":null}, {"name":"Пуир","state":"Khabarovsk","territory":"","country":"Russia","latitude":53.1663758,"longitude":141.4337696,"population":223,"stateCapital":false,"nationalCapital":false,"pk":null,"quiz":"asia","code":null,"archived":false,"percentageOfSessions":null}, {"name":"Пушкино","state":"Khabarovsk","territory":"","country":"Russia","latitude":47.132782,"longitude":134.373795,"population":472,"stateCapital":false,"nationalCapital":false,"pk":null,"quiz":"asia","code":null,"archived":false,"percentageOfSessions":null}, {"name":"Разрезной","state":"Khabarovsk","territory":"","country":"Russia","latitude":56.155636,"longitude":137.41011,"population":4,"stateCapital":false,"nationalCapital":false,"pk":null,"quiz":"asia","code":null,"archived":false,"percentageOfSessions":null}, {"name":"Ракитное","state":"Khabarovsk","territory":"","country":"Russia","latitude":48.404976,"longitude":135.195313,"population":2348,"stateCapital":false,"nationalCapital":false,"pk":null,"quiz":"asia","code":null,"archived":false,"percentageOfSessions":null}, {"name":"Резиденция","state":"Khabarovsk","territory":"","country":"Russia","latitude":59.431366,"longitude":143.301559,"population":121,"stateCapital":false,"nationalCapital":false,"pk":null,"quiz":"asia","code":null,"archived":false,"percentageOfSessions":null}, {"name":"Решающий","state":"Khabarovsk","territory":"","country":"Russia","latitude":51.416429,"longitude":139.5324453,"population":245,"stateCapital":false,"nationalCapital":false,"pk":null,"quiz":"asia","code":null,"archived":false,"percentageOfSessions":null}, {"name":"Ровное","state":"Khabarovsk","territory":"","country":"Russia","latitude":48.491062,"longitude":135.357758,"population":86,"stateCapital":false,"nationalCapital":false,"pk":null,"quiz":"asia","code":null,"archived":false,"percentageOfSessions":null}, {"name":"Розенгартовка","state":"Khabarovsk","territory":"","country":"Russia","latitude":47.160278,"longitude":134.310913,"population":203,"stateCapital":false,"nationalCapital":false,"pk":null,"quiz":"asia","code":null,"archived":false,"percentageOfSessions":null}, {"name":"Роскошь","state":"Khabarovsk","territory":"","country":"Russia","latitude":47.358219,"longitude":134.516571,"population":1,"stateCapital":false,"nationalCapital":false,"pk":null,"quiz":"asia","code":null,"archived":false,"percentageOfSessions":null}, {"name":"Рощино","state":"Khabarovsk","territory":"","country":"Russia","latitude":48.34761,"longitude":134.977875,"population":746,"stateCapital":false,"nationalCapital":false,"pk":null,"quiz":"asia","code":null,"archived":false,"percentageOfSessions":null}, {"name":"Рыббаза","state":"Khabarovsk","territory":"","country":"Russia","latitude":50.141846,"longitude":136.958374,"population":50,"stateCapital":false,"nationalCapital":false,"pk":null,"quiz":"asia","code":null,"archived":false,"percentageOfSessions":null}, {"name":"Савинское","state":"Khabarovsk","territory":"","country":"Russia","latitude":52.162476,"longitude":140.373383,"population":327,"stateCapital":false,"nationalCapital":false,"pk":null,"quiz":"asia","code":null,"archived":false,"percentageOfSessions":null}, {"name":"Садовое","state":"Khabarovsk","territory":"","country":"Russia","latitude":47.551323,"longitude":134.810547,"population":212,"stateCapital":false,"nationalCapital":false,"pk":null,"quiz":"asia","code":null,"archived":false,"percentageOfSessions":null}, {"name":"Санболи","state":"Khabarovsk","territory":"","country":"Russia","latitude":49.368793,"longitude":135.175156,"population":1109,"stateCapital":false,"nationalCapital":false,"pk":null,"quiz":"asia","code":null,"archived":false,"percentageOfSessions":null}, {"name":"Сахаровка","state":"Khabarovsk","territory":"","country":"Russia","latitude":53.247036,"longitude":140.276047,"population":60,"stateCapital":false,"nationalCapital":false,"pk":null,"quiz":"asia","code":null,"archived":false,"percentageOfSessions":null}, {"name":"Свечино","state":"Khabarovsk","territory":"","country":"Russia","latitude":48.643242,"longitude":135.412994,"population":43,"stateCapital":false,"nationalCapital":false,"pk":null,"quiz":"asia","code":null,"archived":false,"percentageOfSessions":null}, {"name":"Свободное","state":"Khabarovsk","territory":"","country":"Russia","latitude":53.027084,"longitude":141.228333,"population":0,"stateCapital":false,"nationalCapital":false,"pk":null,"quiz":"asia","code":null,"archived":false,"percentageOfSessions":null}, {"name":"Святогорье","state":"Khabarovsk","territory":"","country":"Russia","latitude":47.854782,"longitude":135.421951,"population":659,"stateCapital":false,"nationalCapital":false,"pk":null,"quiz":"asia","code":null,"archived":false,"percentageOfSessions":null}, {"name":"Селихино","state":"Khabarovsk","territory":"","country":"Russia","latitude":50.36974,"longitude":137.507019,"population":4255,"stateCapital":false,"nationalCapital":false,"pk":null,"quiz":"asia","code":null,"archived":false,"percentageOfSessions":null}, {"name":"Сельгон","state":"Khabarovsk","territory":"","country":"Russia","latitude":49.586414,"longitude":135.415649,"population":82,"stateCapital":false,"nationalCapital":false,"pk":null,"quiz":"asia","code":null,"archived":false,"percentageOfSessions":null}, {"name":"Сельхоз","state":"Khabarovsk","territory":"","country":"Russia","latitude":51.3227234,"longitude":136.5476568,"population":80,"stateCapital":false,"nationalCapital":false,"pk":null,"quiz":"asia","code":null,"archived":false,"percentageOfSessions":null}, {"name":"Сельхозферма","state":"Khabarovsk","territory":"","country":"Russia","latitude":59.4071005,"longitude":144.8228941,"population":28,"stateCapital":false,"nationalCapital":false,"pk":null,"quiz":"asia","code":null,"archived":false,"percentageOfSessions":null}, {"name":"Семиречье","state":"Khabarovsk","territory":"","country":"Russia","latitude":56.707363,"longitude":137.42981,"population":0,"stateCapital":false,"nationalCapital":false,"pk":null,"quiz":"asia","code":null,"archived":false,"percentageOfSessions":null}, {"name":"Сергеевка","state":"Khabarovsk","territory":"","country":"Russia","latitude":48.47073,"longitude":135.37764,"population":1829,"stateCapital":false,"nationalCapital":false,"pk":null,"quiz":"asia","code":null,"archived":false,"percentageOfSessions":null}, {"name":"Сидима","state":"Khabarovsk","territory":"","country":"Russia","latitude":48.125187,"longitude":136.033417,"population":767,"stateCapital":false,"nationalCapital":false,"pk":null,"quiz":"asia","code":null,"archived":false,"percentageOfSessions":null}, {"name":"Сикачи-Алян","state":"Khabarovsk","territory":"","country":"Russia","latitude":48.750561,"longitude":135.64119,"population":264,"stateCapital":false,"nationalCapital":false,"pk":null,"quiz":"asia","code":null,"archived":false,"percentageOfSessions":null}, {"name":"Синда","state":"Khabarovsk","territory":"","country":"Russia","latitude":48.958141,"longitude":136.300507,"population":868,"stateCapital":false,"nationalCapital":false,"pk":null,"quiz":"asia","code":null,"archived":false,"percentageOfSessions":null}, {"name":"Сита","state":"Khabarovsk","territory":"","country":"Russia","latitude":48.134018,"longitude":135.410538,"population":1883,"stateCapital":false,"nationalCapital":false,"pk":null,"quiz":"asia","code":null,"archived":false,"percentageOfSessions":null}, {"name":"Скворцово","state":"Khabarovsk","territory":"","country":"Russia","latitude":48.486511,"longitude":135.235291,"population":158,"stateCapital":false,"nationalCapital":false,"pk":null,"quiz":"asia","code":null,"archived":false,"percentageOfSessions":null}, {"name":"Славянка","state":"Khabarovsk","territory":"","country":"Russia","latitude":49.468884,"longitude":136.776413,"population":98,"stateCapital":false,"nationalCapital":false,"pk":null,"quiz":"asia","code":null,"archived":false,"percentageOfSessions":null}, {"name":"Смирновка","state":"Khabarovsk","territory":"","country":"Russia","latitude":48.560375,"longitude":135.314606,"population":142,"stateCapital":false,"nationalCapital":false,"pk":null,"quiz":"asia","code":null,"archived":false,"percentageOfSessions":null}, {"name":"Снарский","state":"Khabarovsk","territory":"","country":"Russia","latitude":47.2399836,"longitude":134.3556477,"population":15,"stateCapital":false,"nationalCapital":false,"pk":null,"quiz":"asia","code":null,"archived":false,"percentageOfSessions":null}, {"name":"Снежный","state":"Khabarovsk","territory":"","country":"Russia","latitude":50.265007,"longitude":137.951569,"population":1902,"stateCapital":false,"nationalCapital":false,"pk":null,"quiz":"asia","code":null,"archived":false,"percentageOfSessions":null}, {"name":"Советская Гавань","state":"Khabarovsk","territory":"","country":"Russia","latitude":48.9663026,"longitude":140.284958,"population":27712,"stateCapital":false,"nationalCapital":false,"pk":null,"quiz":"asia","code":null,"archived":false,"percentageOfSessions":null}, {"name":"Согда","state":"Khabarovsk","territory":"","country":"Russia","latitude":50.340916,"longitude":132.283859,"population":135,"stateCapital":false,"nationalCapital":false,"pk":null,"quiz":"asia","code":null,"archived":false,"percentageOfSessions":null}, {"name":"Соколовка","state":"Khabarovsk","territory":"","country":"Russia","latitude":48.0028536,"longitude":135.3949994,"population":375,"stateCapital":false,"nationalCapital":false,"pk":null,"quiz":"asia","code":null,"archived":false,"percentageOfSessions":null}, {"name":"Солнечный","state":"Khabarovsk","territory":"","country":"Russia","latitude":50.723808,"longitude":136.64006,"population":13306,"stateCapital":false,"nationalCapital":false,"pk":null,"quiz":"asia","code":null,"archived":false,"percentageOfSessions":null}, {"name":"Солони","state":"Khabarovsk","territory":"","country":"Russia","latitude":50.817944,"longitude":133.228012,"population":227,"stateCapital":false,"nationalCapital":false,"pk":null,"quiz":"asia","code":null,"archived":false,"percentageOfSessions":null}, {"name":"Солонцовый","state":"Khabarovsk","territory":"","country":"Russia","latitude":47.1535435,"longitude":136.0955909,"population":337,"stateCapital":false,"nationalCapital":false,"pk":null,"quiz":"asia","code":null,"archived":false,"percentageOfSessions":null}, {"name":"Солонцы","state":"Khabarovsk","territory":"","country":"Russia","latitude":52.25568,"longitude":140.247681,"population":463,"stateCapital":false,"nationalCapital":false,"pk":null,"quiz":"asia","code":null,"archived":false,"percentageOfSessions":null}, {"name":"Сосновка","state":"Khabarovsk","territory":"","country":"Russia","latitude":48.338268,"longitude":135.075119,"population":1795,"stateCapital":false,"nationalCapital":false,"pk":null,"quiz":"asia","code":null,"archived":false,"percentageOfSessions":null}, {"name":"Софийск","state":"Khabarovsk","territory":"","country":"Russia","latitude":52.255325,"longitude":133.994125,"population":435,"stateCapital":false,"nationalCapital":false,"pk":null,"quiz":"asia","code":null,"archived":false,"percentageOfSessions":null}, {"name":"Софийск","state":"Khabarovsk","territory":"","country":"Russia","latitude":51.573494,"longitude":139.842682,"population":895,"stateCapital":false,"nationalCapital":false,"pk":null,"quiz":"asia","code":null,"archived":false,"percentageOfSessions":null}, {"name":"Среднетамбовское","state":"Khabarovsk","territory":"","country":"Russia","latitude":50.78968,"longitude":137.891968,"population":29,"stateCapital":false,"nationalCapital":false,"pk":null,"quiz":"asia","code":null,"archived":false,"percentageOfSessions":null}, {"name":"Среднехорский","state":"Khabarovsk","territory":"","country":"Russia","latitude":47.679615,"longitude":136.229156,"population":234,"stateCapital":false,"nationalCapital":false,"pk":null,"quiz":"asia","code":null,"archived":false,"percentageOfSessions":null}, {"name":"Средний Ургал","state":"Khabarovsk","territory":"","country":"Russia","latitude":51.155556,"longitude":132.93576,"population":467,"stateCapital":false,"nationalCapital":false,"pk":null,"quiz":"asia","code":null,"archived":false,"percentageOfSessions":null}, {"name":"Стройучасток","state":"Khabarovsk","territory":"","country":"Russia","latitude":50.0125362,"longitude":132.1672012,"population":1,"stateCapital":false,"nationalCapital":false,"pk":null,"quiz":"asia","code":null,"archived":false,"percentageOfSessions":null}, {"name":"Сукпай","state":"Khabarovsk","territory":"","country":"Russia","latitude":47.998307,"longitude":136.7906566,"population":1191,"stateCapital":false,"nationalCapital":false,"pk":null,"quiz":"asia","code":null,"archived":false,"percentageOfSessions":null}, {"name":"Сулук","state":"Khabarovsk","territory":"","country":"Russia","latitude":50.651718,"longitude":133.590469,"population":699,"stateCapital":false,"nationalCapital":false,"pk":null,"quiz":"asia","code":null,"archived":false,"percentageOfSessions":null}, {"name":"Сусанино","state":"Khabarovsk","territory":"","country":"Russia","latitude":52.782558,"longitude":140.083664,"population":845,"stateCapital":false,"nationalCapital":false,"pk":null,"quiz":"asia","code":null,"archived":false,"percentageOfSessions":null}, {"name":"Тавлинка","state":"Khabarovsk","territory":"","country":"Russia","latitude":51.665024,"longitude":135.757889,"population":216,"stateCapital":false,"nationalCapital":false,"pk":null,"quiz":"asia","code":null,"archived":false,"percentageOfSessions":null}, {"name":"Таежное","state":"Khabarovsk","territory":"","country":"Russia","latitude":48.602409,"longitude":135.597504,"population":3362,"stateCapital":false,"nationalCapital":false,"pk":null,"quiz":"asia","code":null,"archived":false,"percentageOfSessions":null}, {"name":"Таланджа","state":"Khabarovsk","territory":"","country":"Russia","latitude":49.4587048,"longitude":131.5530558,"population":84,"stateCapital":false,"nationalCapital":false,"pk":null,"quiz":"asia","code":null,"archived":false,"percentageOfSessions":null}, {"name":"Таракелок","state":"Khabarovsk","territory":"","country":"Russia","latitude":49.7911868,"longitude":131.9194555,"population":4,"stateCapital":false,"nationalCapital":false,"pk":null,"quiz":"asia","code":null,"archived":false,"percentageOfSessions":null}, {"name":"Тахта","state":"Khabarovsk","territory":"","country":"Russia","latitude":53.12952,"longitude":139.842499,"population":660,"stateCapital":false,"nationalCapital":false,"pk":null,"quiz":"asia","code":null,"archived":false,"percentageOfSessions":null}, {"name":"Тейсин","state":"Khabarovsk","territory":"","country":"Russia","latitude":50.022507,"longitude":136.436722,"population":42,"stateCapital":false,"nationalCapital":false,"pk":null,"quiz":"asia","code":null,"archived":false,"percentageOfSessions":null}, {"name":"Тимченко","state":"Khabarovsk","territory":"","country":"Russia","latitude":52.557545,"longitude":136.506851,"population":2,"stateCapital":false,"nationalCapital":false,"pk":null,"quiz":"asia","code":null,"archived":false,"percentageOfSessions":null}, {"name":"Тнейвах","state":"Khabarovsk","territory":"","country":"Russia","latitude":52.9956066,"longitude":141.1559122,"population":24,"stateCapital":false,"nationalCapital":false,"pk":null,"quiz":"asia","code":null,"archived":false,"percentageOfSessions":null}, {"name":"Токи","state":"Khabarovsk","territory":"","country":"Russia","latitude":49.116009,"longitude":140.320877,"population":2505,"stateCapital":false,"nationalCapital":false,"pk":null,"quiz":"asia","code":null,"archived":false,"percentageOfSessions":null}, {"name":"Томское","state":"Khabarovsk","territory":"","country":"Russia","latitude":48.875683,"longitude":133.39769,"population":4,"stateCapital":false,"nationalCapital":false,"pk":null,"quiz":"asia","code":null,"archived":false,"percentageOfSessions":null}, {"name":"Тополево","state":"Khabarovsk","territory":"","country":"Russia","latitude":48.508358,"longitude":135.172668,"population":4384,"stateCapital":false,"nationalCapital":false,"pk":null,"quiz":"asia","code":null,"archived":false,"percentageOfSessions":null}, {"name":"Тором","state":"Khabarovsk","territory":"","country":"Russia","latitude":54.5339364,"longitude":135.8119169,"population":127,"stateCapital":false,"nationalCapital":false,"pk":null,"quiz":"asia","code":null,"archived":false,"percentageOfSessions":null},