{"cities":[{"name":"Аркагала","state":"Magadan","territory":"","country":"Russia","latitude":63.1533953,"longitude":146.9443126,"population":0,"stateCapital":false,"nationalCapital":false,"pk":null,"quiz":"asia","code":null,"archived":false,"percentageOfSessions":null}, {"name":"Армань","state":"Magadan","territory":"","country":"Russia","latitude":59.670994,"longitude":150.132385,"population":1071,"stateCapital":false,"nationalCapital":false,"pk":null,"quiz":"asia","code":null,"archived":false,"percentageOfSessions":null}, {"name":"Атка","state":"Magadan","territory":"","country":"Russia","latitude":60.836136,"longitude":151.791199,"population":485,"stateCapital":false,"nationalCapital":false,"pk":null,"quiz":"asia","code":null,"archived":false,"percentageOfSessions":null}, {"name":"Балаганное","state":"Magadan","territory":"","country":"Russia","latitude":59.652485,"longitude":149.090164,"population":341,"stateCapital":false,"nationalCapital":false,"pk":null,"quiz":"asia","code":null,"archived":false,"percentageOfSessions":null}, {"name":"Балыгычан","state":"Magadan","territory":"","country":"Russia","latitude":63.9149496,"longitude":154.096266,"population":11,"stateCapital":false,"nationalCapital":false,"pk":null,"quiz":"asia","code":null,"archived":false,"percentageOfSessions":null}, {"name":"Беличан","state":"Magadan","territory":"","country":"Russia","latitude":62.8908293,"longitude":148.1412689,"population":0,"stateCapital":false,"nationalCapital":false,"pk":null,"quiz":"asia","code":null,"archived":false,"percentageOfSessions":null}, {"name":"Большевик","state":"Magadan","territory":"","country":"Russia","latitude":62.6908928,"longitude":147.576224,"population":96,"stateCapital":false,"nationalCapital":false,"pk":null,"quiz":"asia","code":null,"archived":false,"percentageOfSessions":null}, {"name":"Буркандья","state":"Magadan","territory":"","country":"Russia","latitude":63.3796552,"longitude":147.5493092,"population":2,"stateCapital":false,"nationalCapital":false,"pk":null,"quiz":"asia","code":null,"archived":false,"percentageOfSessions":null}, {"name":"Буркот","state":"Magadan","territory":"","country":"Russia","latitude":61.8859015,"longitude":152.9865448,"population":0,"stateCapital":false,"nationalCapital":false,"pk":null,"quiz":"asia","code":null,"archived":false,"percentageOfSessions":null}, {"name":"Бурхала","state":"Magadan","territory":"","country":"Russia","latitude":62.648888,"longitude":149.114685,"population":272,"stateCapital":false,"nationalCapital":false,"pk":null,"quiz":"asia","code":null,"archived":false,"percentageOfSessions":null}, {"name":"Верхний Ат-Урях","state":"Magadan","territory":"","country":"Russia","latitude":62.6515427,"longitude":150.1039956,"population":0,"stateCapital":false,"nationalCapital":false,"pk":null,"quiz":"asia","code":null,"archived":false,"percentageOfSessions":null}, {"name":"Верхний Балыгычан","state":"Magadan","territory":"","country":"Russia","latitude":62.1160378,"longitude":154.6764064,"population":4,"stateCapital":false,"nationalCapital":false,"pk":null,"quiz":"asia","code":null,"archived":false,"percentageOfSessions":null}, {"name":"Верхний Парень","state":"Magadan","territory":"","country":"Russia","latitude":62.653133,"longitude":162.381714,"population":159,"stateCapital":false,"nationalCapital":false,"pk":null,"quiz":"asia","code":null,"archived":false,"percentageOfSessions":null}, {"name":"Верхний Сеймчан","state":"Magadan","territory":"","country":"Russia","latitude":62.7289276,"longitude":152.4592227,"population":345,"stateCapital":false,"nationalCapital":false,"pk":null,"quiz":"asia","code":null,"archived":false,"percentageOfSessions":null}, {"name":"Гадля","state":"Magadan","territory":"","country":"Russia","latitude":59.6629495,"longitude":151.3198613,"population":446,"stateCapital":false,"nationalCapital":false,"pk":null,"quiz":"asia","code":null,"archived":false,"percentageOfSessions":null}, {"name":"Галимый","state":"Magadan","territory":"","country":"Russia","latitude":62.354939,"longitude":155.967773,"population":5,"stateCapital":false,"nationalCapital":false,"pk":null,"quiz":"asia","code":null,"archived":false,"percentageOfSessions":null}, {"name":"Гарманда","state":"Magadan","territory":"","country":"Russia","latitude":62.1789044,"longitude":159.0881896,"population":172,"stateCapital":false,"nationalCapital":false,"pk":null,"quiz":"asia","code":null,"archived":false,"percentageOfSessions":null}, {"name":"Гижига","state":"Magadan","territory":"","country":"Russia","latitude":61.94783,"longitude":160.377472,"population":325,"stateCapital":false,"nationalCapital":false,"pk":null,"quiz":"asia","code":null,"archived":false,"percentageOfSessions":null}, {"name":"Дебин","state":"Magadan","territory":"","country":"Russia","latitude":62.341038,"longitude":150.7556,"population":721,"stateCapital":false,"nationalCapital":false,"pk":null,"quiz":"asia","code":null,"archived":false,"percentageOfSessions":null}, {"name":"Дукат","state":"Magadan","territory":"","country":"Russia","latitude":62.5748134,"longitude":155.377224,"population":1351,"stateCapital":false,"nationalCapital":false,"pk":null,"quiz":"asia","code":null,"archived":false,"percentageOfSessions":null}, {"name":"им Гастелло","state":"Magadan","territory":"","country":"Russia","latitude":61.5571721,"longitude":148.0009503,"population":91,"stateCapital":false,"nationalCapital":false,"pk":null,"quiz":"asia","code":null,"archived":false,"percentageOfSessions":null}, {"name":"им Горького","state":"Magadan","territory":"","country":"Russia","latitude":62.6245181,"longitude":150.2176193,"population":0,"stateCapital":false,"nationalCapital":false,"pk":null,"quiz":"asia","code":null,"archived":false,"percentageOfSessions":null}, {"name":"им Матросова","state":"Magadan","territory":"","country":"Russia","latitude":61.646206,"longitude":147.817017,"population":28,"stateCapital":false,"nationalCapital":false,"pk":null,"quiz":"asia","code":null,"archived":false,"percentageOfSessions":null}, {"name":"Кадыкчан","state":"Magadan","territory":"","country":"Russia","latitude":63.086559,"longitude":147.053024,"population":0,"stateCapital":false,"nationalCapital":false,"pk":null,"quiz":"asia","code":null,"archived":false,"percentageOfSessions":null}, {"name":"Карамкен","state":"Magadan","territory":"","country":"Russia","latitude":60.20866,"longitude":151.09494,"population":336,"stateCapital":false,"nationalCapital":false,"pk":null,"quiz":"asia","code":null,"archived":false,"percentageOfSessions":null}, {"name":"Кедровый","state":"Magadan","territory":"","country":"Russia","latitude":63.0115822,"longitude":147.0674989,"population":121,"stateCapital":false,"nationalCapital":false,"pk":null,"quiz":"asia","code":null,"archived":false,"percentageOfSessions":null}, {"name":"Клепка","state":"Magadan","territory":"","country":"Russia","latitude":59.753227,"longitude":151.491409,"population":622,"stateCapital":false,"nationalCapital":false,"pk":null,"quiz":"asia","code":null,"archived":false,"percentageOfSessions":null}, {"name":"Колымское","state":"Magadan","territory":"","country":"Russia","latitude":62.886723,"longitude":152.4124646,"population":27,"stateCapital":false,"nationalCapital":false,"pk":null,"quiz":"asia","code":null,"archived":false,"percentageOfSessions":null}, {"name":"Кулу","state":"Magadan","territory":"","country":"Russia","latitude":61.8822605,"longitude":147.43222,"population":13,"stateCapital":false,"nationalCapital":false,"pk":null,"quiz":"asia","code":null,"archived":false,"percentageOfSessions":null}, {"name":"Ларюковая","state":"Magadan","territory":"","country":"Russia","latitude":62.2379104,"longitude":151.7846789,"population":2,"stateCapital":false,"nationalCapital":false,"pk":null,"quiz":"asia","code":null,"archived":false,"percentageOfSessions":null}, {"name":"Магадан","state":"Magadan","territory":"","country":"Russia","latitude":59.5604768,"longitude":150.7988617,"population":95982,"stateCapital":true,"nationalCapital":false,"pk":null,"quiz":"asia","code":null,"archived":false,"percentageOfSessions":null}, {"name":"Мадаун","state":"Magadan","territory":"","country":"Russia","latitude":60.6064257,"longitude":150.6969554,"population":216,"stateCapital":false,"nationalCapital":false,"pk":null,"quiz":"asia","code":null,"archived":false,"percentageOfSessions":null}, {"name":"Малая Чайбуха","state":"Magadan","territory":"","country":"Russia","latitude":61.826138,"longitude":160.510635,"population":0,"stateCapital":false,"nationalCapital":false,"pk":null,"quiz":"asia","code":null,"archived":false,"percentageOfSessions":null}, {"name":"Мальдяк","state":"Magadan","territory":"","country":"Russia","latitude":62.9991164,"longitude":148.239806,"population":108,"stateCapital":false,"nationalCapital":false,"pk":null,"quiz":"asia","code":null,"archived":false,"percentageOfSessions":null}, {"name":"Меренга","state":"Magadan","territory":"","country":"Russia","latitude":61.8907289,"longitude":156.1369034,"population":14,"stateCapital":false,"nationalCapital":false,"pk":null,"quiz":"asia","code":null,"archived":false,"percentageOfSessions":null}, {"name":"Мой Уруста","state":"Magadan","territory":"","country":"Russia","latitude":61.847359,"longitude":149.5223286,"population":2,"stateCapital":false,"nationalCapital":false,"pk":null,"quiz":"asia","code":null,"archived":false,"percentageOfSessions":null}, {"name":"Молочная","state":"Magadan","territory":"","country":"Russia","latitude":59.8850422,"longitude":150.663449,"population":0,"stateCapital":false,"nationalCapital":false,"pk":null,"quiz":"asia","code":null,"archived":false,"percentageOfSessions":null}, {"name":"Мяунджа","state":"Magadan","territory":"","country":"Russia","latitude":63.04744,"longitude":147.181534,"population":1663,"stateCapital":false,"nationalCapital":false,"pk":null,"quiz":"asia","code":null,"archived":false,"percentageOfSessions":null}, {"name":"Новая Армань","state":"Magadan","territory":"","country":"Russia","latitude":59.948742,"longitude":150.2869581,"population":0,"stateCapital":false,"nationalCapital":false,"pk":null,"quiz":"asia","code":null,"archived":false,"percentageOfSessions":null}, {"name":"Обо","state":"Magadan","territory":"","country":"Russia","latitude":61.7950093,"longitude":149.7778222,"population":0,"stateCapital":false,"nationalCapital":false,"pk":null,"quiz":"asia","code":null,"archived":false,"percentageOfSessions":null}, {"name":"Ола","state":"Magadan","territory":"","country":"Russia","latitude":59.5780981,"longitude":151.2990699,"population":6215,"stateCapital":false,"nationalCapital":false,"pk":null,"quiz":"asia","code":null,"archived":false,"percentageOfSessions":null}, {"name":"Омсукчан","state":"Magadan","territory":"","country":"Russia","latitude":62.5127643,"longitude":155.7823514,"population":4157,"stateCapital":false,"nationalCapital":false,"pk":null,"quiz":"asia","code":null,"archived":false,"percentageOfSessions":null}, {"name":"Омчак","state":"Magadan","territory":"","country":"Russia","latitude":61.6537085,"longitude":147.8611645,"population":956,"stateCapital":false,"nationalCapital":false,"pk":null,"quiz":"asia","code":null,"archived":false,"percentageOfSessions":null}, {"name":"Оротук","state":"Magadan","territory":"","country":"Russia","latitude":62.1116142,"longitude":148.4879661,"population":46,"stateCapital":false,"nationalCapital":false,"pk":null,"quiz":"asia","code":null,"archived":false,"percentageOfSessions":null}, {"name":"Оротукан","state":"Magadan","territory":"","country":"Russia","latitude":62.262313,"longitude":151.6748628,"population":1531,"stateCapital":false,"nationalCapital":false,"pk":null,"quiz":"asia","code":null,"archived":false,"percentageOfSessions":null}, {"name":"Палатка","state":"Magadan","territory":"","country":"Russia","latitude":60.1022208,"longitude":150.9370006,"population":4244,"stateCapital":false,"nationalCapital":false,"pk":null,"quiz":"asia","code":null,"archived":false,"percentageOfSessions":null}, {"name":"Поворотный","state":"Magadan","territory":"","country":"Russia","latitude":61.1926961,"longitude":151.9331606,"population":0,"stateCapital":false,"nationalCapital":false,"pk":null,"quiz":"asia","code":null,"archived":false,"percentageOfSessions":null}, {"name":"Полевой","state":"Magadan","territory":"","country":"Russia","latitude":62.7910637,"longitude":148.7922053,"population":1,"stateCapital":false,"nationalCapital":false,"pk":null,"quiz":"asia","code":null,"archived":false,"percentageOfSessions":null}, {"name":"Пролетарский","state":"Magadan","territory":"","country":"Russia","latitude":62.6140477,"longitude":150.2872892,"population":2,"stateCapital":false,"nationalCapital":false,"pk":null,"quiz":"asia","code":null,"archived":false,"percentageOfSessions":null}, {"name":"Радужный","state":"Magadan","territory":"","country":"Russia","latitude":59.7017685,"longitude":150.1563024,"population":171,"stateCapital":false,"nationalCapital":false,"pk":null,"quiz":"asia","code":null,"archived":false,"percentageOfSessions":null}, {"name":"Речная","state":"Magadan","territory":"","country":"Russia","latitude":62.9090545,"longitude":149.7775914,"population":1,"stateCapital":false,"nationalCapital":false,"pk":null,"quiz":"asia","code":null,"archived":false,"percentageOfSessions":null}, {"name":"Сеймчан","state":"Magadan","territory":"","country":"Russia","latitude":62.9317742,"longitude":152.3932993,"population":2818,"stateCapital":false,"nationalCapital":false,"pk":null,"quiz":"asia","code":null,"archived":false,"percentageOfSessions":null}, {"name":"Сенокосный","state":"Magadan","territory":"","country":"Russia","latitude":62.5543101,"longitude":149.6786494,"population":187,"stateCapital":false,"nationalCapital":false,"pk":null,"quiz":"asia","code":null,"archived":false,"percentageOfSessions":null}, {"name":"Синегорье","state":"Magadan","territory":"","country":"Russia","latitude":62.0860431,"longitude":150.5269445,"population":2821,"stateCapital":false,"nationalCapital":false,"pk":null,"quiz":"asia","code":null,"archived":false,"percentageOfSessions":null}, {"name":"Сокол","state":"Magadan","territory":"","country":"Russia","latitude":59.9186056,"longitude":150.7451794,"population":4685,"stateCapital":false,"nationalCapital":false,"pk":null,"quiz":"asia","code":null,"archived":false,"percentageOfSessions":null}, {"name":"Сплавная","state":"Magadan","territory":"","country":"Russia","latitude":59.8654166,"longitude":150.5807265,"population":111,"stateCapital":false,"nationalCapital":false,"pk":null,"quiz":"asia","code":null,"archived":false,"percentageOfSessions":null}, {"name":"Спорное","state":"Magadan","territory":"","country":"Russia","latitude":62.34276,"longitude":151.1044002,"population":8,"stateCapital":false,"nationalCapital":false,"pk":null,"quiz":"asia","code":null,"archived":false,"percentageOfSessions":null}, {"name":"Стан Утиный","state":"Magadan","territory":"","country":"Russia","latitude":62.4922962,"longitude":151.162862,"population":0,"stateCapital":false,"nationalCapital":false,"pk":null,"quiz":"asia","code":null,"archived":false,"percentageOfSessions":null}, {"name":"Стекольный","state":"Magadan","territory":"","country":"Russia","latitude":60.042904,"longitude":150.74321,"population":2023,"stateCapital":false,"nationalCapital":false,"pk":null,"quiz":"asia","code":null,"archived":false,"percentageOfSessions":null}, {"name":"Сусуман","state":"Magadan","territory":"","country":"Russia","latitude":62.779732,"longitude":148.15361,"population":5855,"stateCapital":false,"nationalCapital":false,"pk":null,"quiz":"asia","code":null,"archived":false,"percentageOfSessions":null}, {"name":"Талая","state":"Magadan","territory":"","country":"Russia","latitude":61.1340796,"longitude":152.3913479,"population":422,"stateCapital":false,"nationalCapital":false,"pk":null,"quiz":"asia","code":null,"archived":false,"percentageOfSessions":null}, {"name":"Талон","state":"Magadan","territory":"","country":"Russia","latitude":59.761391,"longitude":148.657791,"population":464,"stateCapital":false,"nationalCapital":false,"pk":null,"quiz":"asia","code":null,"archived":false,"percentageOfSessions":null}, {"name":"Таскан","state":"Magadan","territory":"","country":"Russia","latitude":62.988426,"longitude":150.330231,"population":30,"stateCapital":false,"nationalCapital":false,"pk":null,"quiz":"asia","code":null,"archived":false,"percentageOfSessions":null}, {"name":"Тауйск","state":"Magadan","territory":"","country":"Russia","latitude":59.7263218,"longitude":149.3309994,"population":582,"stateCapital":false,"nationalCapital":false,"pk":null,"quiz":"asia","code":null,"archived":false,"percentageOfSessions":null}, {"name":"Тахтоямск","state":"Magadan","territory":"","country":"Russia","latitude":60.197292,"longitude":154.680389,"population":322,"stateCapital":false,"nationalCapital":false,"pk":null,"quiz":"asia","code":null,"archived":false,"percentageOfSessions":null}, {"name":"Тополовка","state":"Magadan","territory":"","country":"Russia","latitude":61.365753,"longitude":160.125946,"population":125,"stateCapital":false,"nationalCapital":false,"pk":null,"quiz":"asia","code":null,"archived":false,"percentageOfSessions":null}, {"name":"Транспортный","state":"Magadan","territory":"","country":"Russia","latitude":61.4981615,"longitude":148.1857272,"population":156,"stateCapital":false,"nationalCapital":false,"pk":null,"quiz":"asia","code":null,"archived":false,"percentageOfSessions":null}, {"name":"Ударник","state":"Magadan","territory":"","country":"Russia","latitude":63.1420985,"longitude":147.8954477,"population":16,"stateCapital":false,"nationalCapital":false,"pk":null,"quiz":"asia","code":null,"archived":false,"percentageOfSessions":null}, {"name":"Уптар","state":"Magadan","territory":"","country":"Russia","latitude":59.898254,"longitude":150.870193,"population":1991,"stateCapital":false,"nationalCapital":false,"pk":null,"quiz":"asia","code":null,"archived":false,"percentageOfSessions":null}, {"name":"Усть-Омчуг","state":"Magadan","territory":"","country":"Russia","latitude":61.133163,"longitude":149.632477,"population":3914,"stateCapital":false,"nationalCapital":false,"pk":null,"quiz":"asia","code":null,"archived":false,"percentageOfSessions":null}, {"name":"Усть-Среднекан","state":"Magadan","territory":"","country":"Russia","latitude":62.4398895,"longitude":152.32153,"population":27,"stateCapital":false,"nationalCapital":false,"pk":null,"quiz":"asia","code":null,"archived":false,"percentageOfSessions":null}, {"name":"Усть-Хакчан","state":"Magadan","territory":"","country":"Russia","latitude":63.4035848,"longitude":146.5693612,"population":12,"stateCapital":false,"nationalCapital":false,"pk":null,"quiz":"asia","code":null,"archived":false,"percentageOfSessions":null}, {"name":"Хасын","state":"Magadan","territory":"","country":"Russia","latitude":60.087212,"longitude":150.889679,"population":520,"stateCapital":false,"nationalCapital":false,"pk":null,"quiz":"asia","code":null,"archived":false,"percentageOfSessions":null}, {"name":"Холодный","state":"Magadan","territory":"","country":"Russia","latitude":62.7132516,"longitude":147.9123111,"population":1062,"stateCapital":false,"nationalCapital":false,"pk":null,"quiz":"asia","code":null,"archived":false,"percentageOfSessions":null}, {"name":"Чайбуха","state":"Magadan","territory":"","country":"Russia","latitude":61.8033233,"longitude":160.4191452,"population":92,"stateCapital":false,"nationalCapital":false,"pk":null,"quiz":"asia","code":null,"archived":false,"percentageOfSessions":null}, {"name":"Широкий","state":"Magadan","territory":"","country":"Russia","latitude":63.075362,"longitude":148.0450156,"population":80,"stateCapital":false,"nationalCapital":false,"pk":null,"quiz":"asia","code":null,"archived":false,"percentageOfSessions":null}, {"name":"Штурмовой","state":"Magadan","territory":"","country":"Russia","latitude":62.821083,"longitude":149.7775914,"population":29,"stateCapital":false,"nationalCapital":false,"pk":null,"quiz":"asia","code":null,"archived":false,"percentageOfSessions":null}, {"name":"Эвенск","state":"Magadan","territory":"","country":"Russia","latitude":61.919209,"longitude":159.235931,"population":1793,"stateCapital":false,"nationalCapital":false,"pk":null,"quiz":"asia","code":null,"archived":false,"percentageOfSessions":null}, {"name":"Эльген","state":"Magadan","territory":"","country":"Russia","latitude":62.7940397,"longitude":150.6751292,"population":24,"stateCapital":false,"nationalCapital":false,"pk":null,"quiz":"asia","code":null,"archived":false,"percentageOfSessions":null}, {"name":"Яблоневый","state":"Magadan","territory":"","country":"Russia","latitude":60.4406982,"longitude":151.4721288,"population":0,"stateCapital":false,"nationalCapital":false,"pk":null,"quiz":"asia","code":null,"archived":false,"percentageOfSessions":null}, {"name":"Ягодное","state":"Magadan","territory":"","country":"Russia","latitude":62.5216788,"longitude":149.6253322,"population":4210,"stateCapital":false,"nationalCapital":false,"pk":null,"quiz":"asia","code":null,"archived":false,"percentageOfSessions":null}, {"name":"Ямск","state":"Magadan","territory":"","country":"Russia","latitude":59.585045,"longitude":154.141403,"population":106,"stateCapital":false,"nationalCapital":false,"pk":null,"quiz":"asia","code":null,"archived":false,"percentageOfSessions":null}, {"name":"Яна","state":"Magadan","territory":"","country":"Russia","latitude":59.7371509,"longitude":149.3774573,"population":115,"stateCapital":false,"nationalCapital":false,"pk":null,"quiz":"asia","code":null,"archived":false,"percentageOfSessions":null}, {"name":"Яна","state":"Magadan","territory":"","country":"Russia","latitude":61.0979338,"longitude":149.6249541,"population":0,"stateCapital":false,"nationalCapital":false,"pk":null,"quiz":"asia","code":null,"archived":false,"percentageOfSessions":null}, {"name":"Янский","state":"Magadan","territory":"","country":"Russia","latitude":59.7603176,"longitude":149.5574108,"population":41,"stateCapital":false,"nationalCapital":false,"pk":null,"quiz":"asia","code":null,"archived":false,"percentageOfSessions":null}],"startTimeMs":0}