{"cities":[{"name":"8-й км","state":"Sakha (Yakutia)","territory":"","country":"Russia","latitude":60.7264406,"longitude":135.0772343,"population":0,"stateCapital":false,"nationalCapital":false,"pk":null,"quiz":"asia","code":null,"archived":false,"percentageOfSessions":null}, {"name":"Абага","state":"Sakha (Yakutia)","territory":"","country":"Russia","latitude":61.046867,"longitude":132.276642,"population":1192,"stateCapital":false,"nationalCapital":false,"pk":null,"quiz":"asia","code":null,"archived":false,"percentageOfSessions":null}, {"name":"Абага","state":"Sakha (Yakutia)","territory":"","country":"Russia","latitude":60.3234739,"longitude":120.0225216,"population":761,"stateCapital":false,"nationalCapital":false,"pk":null,"quiz":"asia","code":null,"archived":false,"percentageOfSessions":null}, {"name":"Абага центральная","state":"Sakha (Yakutia)","territory":"","country":"Russia","latitude":60.3108559,"longitude":119.9901957,"population":429,"stateCapital":false,"nationalCapital":false,"pk":null,"quiz":"asia","code":null,"archived":false,"percentageOfSessions":null}, {"name":"Абый","state":"Sakha (Yakutia)","territory":"","country":"Russia","latitude":68.3937861,"longitude":145.0778338,"population":491,"stateCapital":false,"nationalCapital":false,"pk":null,"quiz":"asia","code":null,"archived":false,"percentageOfSessions":null}, {"name":"Авиапорт","state":"Sakha (Yakutia)","territory":"","country":"Russia","latitude":63.9581944,"longitude":127.4398887,"population":280,"stateCapital":false,"nationalCapital":false,"pk":null,"quiz":"asia","code":null,"archived":false,"percentageOfSessions":null}, {"name":"Авиапорт","state":"Sakha (Yakutia)","territory":"","country":"Russia","latitude":60.3961914,"longitude":120.4659131,"population":419,"stateCapital":false,"nationalCapital":false,"pk":null,"quiz":"asia","code":null,"archived":false,"percentageOfSessions":null}, {"name":"Агаякан","state":"Sakha (Yakutia)","territory":"","country":"Russia","latitude":63.3349611,"longitude":141.731907,"population":0,"stateCapital":false,"nationalCapital":false,"pk":null,"quiz":"asia","code":null,"archived":false,"percentageOfSessions":null}, {"name":"Агдары","state":"Sakha (Yakutia)","territory":"","country":"Russia","latitude":61.9992123,"longitude":117.4787378,"population":429,"stateCapital":false,"nationalCapital":false,"pk":null,"quiz":"asia","code":null,"archived":false,"percentageOfSessions":null}, {"name":"Айхал","state":"Sakha (Yakutia)","territory":"","country":"Russia","latitude":65.9516363,"longitude":111.4917562,"population":13727,"stateCapital":false,"nationalCapital":false,"pk":null,"quiz":"asia","code":null,"archived":false,"percentageOfSessions":null}, {"name":"Акана","state":"Sakha (Yakutia)","territory":"","country":"Russia","latitude":63.5985923,"longitude":119.0958633,"population":461,"stateCapital":false,"nationalCapital":false,"pk":null,"quiz":"asia","code":null,"archived":false,"percentageOfSessions":null}, {"name":"Алдан","state":"Sakha (Yakutia)","territory":"","country":"Russia","latitude":58.608414,"longitude":125.388222,"population":21275,"stateCapital":false,"nationalCapital":false,"pk":null,"quiz":"asia","code":null,"archived":false,"percentageOfSessions":null}, {"name":"Алеко-Кюель","state":"Sakha (Yakutia)","territory":"","country":"Russia","latitude":68.6787569,"longitude":151.8786752,"population":557,"stateCapital":false,"nationalCapital":false,"pk":null,"quiz":"asia","code":null,"archived":false,"percentageOfSessions":null}, {"name":"Алексеевка","state":"Sakha (Yakutia)","territory":"","country":"Russia","latitude":60.4312547,"longitude":124.2696683,"population":4,"stateCapital":false,"nationalCapital":false,"pk":null,"quiz":"asia","code":null,"archived":false,"percentageOfSessions":null}, {"name":"Аллага","state":"Sakha (Yakutia)","territory":"","country":"Russia","latitude":62.2278266,"longitude":117.0538,"population":447,"stateCapital":false,"nationalCapital":false,"pk":null,"quiz":"asia","code":null,"archived":false,"percentageOfSessions":null}, {"name":"Аллах-Юнь","state":"Sakha (Yakutia)","territory":"","country":"Russia","latitude":61.1338633,"longitude":138.0410143,"population":96,"stateCapital":false,"nationalCapital":false,"pk":null,"quiz":"asia","code":null,"archived":false,"percentageOfSessions":null}, {"name":"Алмазный","state":"Sakha (Yakutia)","territory":"","country":"Russia","latitude":62.449333,"longitude":114.32811,"population":1527,"stateCapital":false,"nationalCapital":false,"pk":null,"quiz":"asia","code":null,"archived":false,"percentageOfSessions":null}, {"name":"Алтанцы","state":"Sakha (Yakutia)","territory":"","country":"Russia","latitude":61.4759136,"longitude":131.4927409,"population":814,"stateCapital":false,"nationalCapital":false,"pk":null,"quiz":"asia","code":null,"archived":false,"percentageOfSessions":null}, {"name":"Алы","state":"Sakha (Yakutia)","territory":"","country":"Russia","latitude":68.4187194,"longitude":132.3929942,"population":0,"stateCapital":false,"nationalCapital":false,"pk":null,"quiz":"asia","code":null,"archived":false,"percentageOfSessions":null}, {"name":"Алысардах","state":"Sakha (Yakutia)","territory":"","country":"Russia","latitude":67.4526981,"longitude":135.5073518,"population":94,"stateCapital":false,"nationalCapital":false,"pk":null,"quiz":"asia","code":null,"archived":false,"percentageOfSessions":null}, {"name":"Алысардах","state":"Sakha (Yakutia)","territory":"","country":"Russia","latitude":59.5108016,"longitude":111.9774463,"population":29,"stateCapital":false,"nationalCapital":false,"pk":null,"quiz":"asia","code":null,"archived":false,"percentageOfSessions":null}, {"name":"Амбарчик","state":"Sakha (Yakutia)","territory":"","country":"Russia","latitude":69.6252019,"longitude":162.3024493,"population":4,"stateCapital":false,"nationalCapital":false,"pk":null,"quiz":"asia","code":null,"archived":false,"percentageOfSessions":null}, {"name":"Амга","state":"Sakha (Yakutia)","territory":"","country":"Russia","latitude":60.894218,"longitude":131.97998,"population":6533,"stateCapital":false,"nationalCapital":false,"pk":null,"quiz":"asia","code":null,"archived":false,"percentageOfSessions":null}, {"name":"Андреевский","state":"Sakha (Yakutia)","territory":"","country":"Russia","latitude":63.4370759,"longitude":120.3001959,"population":2229,"stateCapital":false,"nationalCapital":false,"pk":null,"quiz":"asia","code":null,"archived":false,"percentageOfSessions":null}, {"name":"Андрюшкино","state":"Sakha (Yakutia)","territory":"","country":"Russia","latitude":69.171997,"longitude":154.448853,"population":741,"stateCapital":false,"nationalCapital":false,"pk":null,"quiz":"asia","code":null,"archived":false,"percentageOfSessions":null}, {"name":"Антоновка","state":"Sakha (Yakutia)","territory":"","country":"Russia","latitude":63.2886241,"longitude":118.4080626,"population":2642,"stateCapital":false,"nationalCapital":false,"pk":null,"quiz":"asia","code":null,"archived":false,"percentageOfSessions":null}, {"name":"Аппаны","state":"Sakha (Yakutia)","territory":"","country":"Russia","latitude":62.7605649,"longitude":129.6503818,"population":1492,"stateCapital":false,"nationalCapital":false,"pk":null,"quiz":"asia","code":null,"archived":false,"percentageOfSessions":null}, {"name":"Арангастах","state":"Sakha (Yakutia)","territory":"","country":"Russia","latitude":63.1895522,"longitude":117.8862742,"population":29,"stateCapital":false,"nationalCapital":false,"pk":null,"quiz":"asia","code":null,"archived":false,"percentageOfSessions":null}, {"name":"Аргас","state":"Sakha (Yakutia)","territory":"","country":"Russia","latitude":63.9663981,"longitude":126.6166667,"population":639,"stateCapital":false,"nationalCapital":false,"pk":null,"quiz":"asia","code":null,"archived":false,"percentageOfSessions":null}, {"name":"Аргахтах","state":"Sakha (Yakutia)","territory":"","country":"Russia","latitude":68.4433415,"longitude":153.3769591,"population":518,"stateCapital":false,"nationalCapital":false,"pk":null,"quiz":"asia","code":null,"archived":false,"percentageOfSessions":null}, {"name":"Артык","state":"Sakha (Yakutia)","territory":"","country":"Russia","latitude":64.178787,"longitude":145.131073,"population":509,"stateCapital":false,"nationalCapital":false,"pk":null,"quiz":"asia","code":null,"archived":false,"percentageOfSessions":null}, {"name":"Арыктах","state":"Sakha (Yakutia)","territory":"","country":"Russia","latitude":63.5678943,"longitude":125.2343979,"population":286,"stateCapital":false,"nationalCapital":false,"pk":null,"quiz":"asia","code":null,"archived":false,"percentageOfSessions":null}, {"name":"Арылах","state":"Sakha (Yakutia)","territory":"","country":"Russia","latitude":62.6785321,"longitude":124.5349689,"population":0,"stateCapital":false,"nationalCapital":false,"pk":null,"quiz":"asia","code":null,"archived":false,"percentageOfSessions":null}, {"name":"Арылах","state":"Sakha (Yakutia)","territory":"","country":"Russia","latitude":63.7630387,"longitude":123.9627839,"population":100,"stateCapital":false,"nationalCapital":false,"pk":null,"quiz":"asia","code":null,"archived":false,"percentageOfSessions":null}, {"name":"Арылах","state":"Sakha (Yakutia)","territory":"","country":"Russia","latitude":62.3819877,"longitude":114.3551113,"population":1570,"stateCapital":false,"nationalCapital":false,"pk":null,"quiz":"asia","code":null,"archived":false,"percentageOfSessions":null}, {"name":"Арылах","state":"Sakha (Yakutia)","territory":"","country":"Russia","latitude":62.9985454,"longitude":117.5113966,"population":626,"stateCapital":false,"nationalCapital":false,"pk":null,"quiz":"asia","code":null,"archived":false,"percentageOfSessions":null}, {"name":"Арылах","state":"Sakha (Yakutia)","territory":"","country":"Russia","latitude":62.4515826,"longitude":130.9454603,"population":354,"stateCapital":false,"nationalCapital":false,"pk":null,"quiz":"asia","code":null,"archived":false,"percentageOfSessions":null}, {"name":"Арылах","state":"Sakha (Yakutia)","territory":"","country":"Russia","latitude":62.364498,"longitude":132.608154,"population":348,"stateCapital":false,"nationalCapital":false,"pk":null,"quiz":"asia","code":null,"archived":false,"percentageOfSessions":null}, {"name":"Арылах (Жархан)","state":"Sakha (Yakutia)","territory":"","country":"Russia","latitude":62.3695978,"longitude":116.6453148,"population":513,"stateCapital":false,"nationalCapital":false,"pk":null,"quiz":"asia","code":null,"archived":false,"percentageOfSessions":null}, {"name":"Ары-Тит","state":"Sakha (Yakutia)","territory":"","country":"Russia","latitude":62.5091851,"longitude":130.0530994,"population":154,"stateCapital":false,"nationalCapital":false,"pk":null,"quiz":"asia","code":null,"archived":false,"percentageOfSessions":null}, {"name":"Ары-Толон","state":"Sakha (Yakutia)","territory":"","country":"Russia","latitude":62.8525544,"longitude":134.2904838,"population":166,"stateCapital":false,"nationalCapital":false,"pk":null,"quiz":"asia","code":null,"archived":false,"percentageOfSessions":null}, {"name":"Асыма","state":"Sakha (Yakutia)","territory":"","country":"Russia","latitude":62.3628914,"longitude":126.6435016,"population":633,"stateCapital":false,"nationalCapital":false,"pk":null,"quiz":"asia","code":null,"archived":false,"percentageOfSessions":null}, {"name":"Аэропорт","state":"Sakha (Yakutia)","territory":"","country":"Russia","latitude":63.2473445,"longitude":143.184742,"population":55,"stateCapital":false,"nationalCapital":false,"pk":null,"quiz":"asia","code":null,"archived":false,"percentageOfSessions":null}, {"name":"Аэропорт","state":"Sakha (Yakutia)","territory":"","country":"Russia","latitude":62.785217,"longitude":136.846603,"population":199,"stateCapital":false,"nationalCapital":false,"pk":null,"quiz":"asia","code":null,"archived":false,"percentageOfSessions":null}, {"name":"Багадя","state":"Sakha (Yakutia)","territory":"","country":"Russia","latitude":64.3287647,"longitude":119.7189203,"population":460,"stateCapital":false,"nationalCapital":false,"pk":null,"quiz":"asia","code":null,"archived":false,"percentageOfSessions":null}, {"name":"Багадя","state":"Sakha (Yakutia)","territory":"","country":"Russia","latitude":63.7143862,"longitude":123.7765817,"population":156,"stateCapital":false,"nationalCapital":false,"pk":null,"quiz":"asia","code":null,"archived":false,"percentageOfSessions":null}, {"name":"Бала","state":"Sakha (Yakutia)","territory":"","country":"Russia","latitude":67.179054,"longitude":132.8330851,"population":543,"stateCapital":false,"nationalCapital":false,"pk":null,"quiz":"asia","code":null,"archived":false,"percentageOfSessions":null}, {"name":"Балаганнах","state":"Sakha (Yakutia)","territory":"","country":"Russia","latitude":63.530109,"longitude":120.5751865,"population":335,"stateCapital":false,"nationalCapital":false,"pk":null,"quiz":"asia","code":null,"archived":false,"percentageOfSessions":null}, {"name":"Балаганнах","state":"Sakha (Yakutia)","territory":"","country":"Russia","latitude":60.6504551,"longitude":121.1810438,"population":71,"stateCapital":false,"nationalCapital":false,"pk":null,"quiz":"asia","code":null,"archived":false,"percentageOfSessions":null}, {"name":"Балаганнах","state":"Sakha (Yakutia)","territory":"","country":"Russia","latitude":62.3925033,"longitude":131.8377056,"population":60,"stateCapital":false,"nationalCapital":false,"pk":null,"quiz":"asia","code":null,"archived":false,"percentageOfSessions":null}, {"name":"Балагаччы","state":"Sakha (Yakutia)","territory":"","country":"Russia","latitude":64.3877332,"longitude":122.2328238,"population":601,"stateCapital":false,"nationalCapital":false,"pk":null,"quiz":"asia","code":null,"archived":false,"percentageOfSessions":null}, {"name":"Балыктах","state":"Sakha (Yakutia)","territory":"","country":"Russia","latitude":62.256329,"longitude":130.723236,"population":883,"stateCapital":false,"nationalCapital":false,"pk":null,"quiz":"asia","code":null,"archived":false,"percentageOfSessions":null}, {"name":"Балыктах","state":"Sakha (Yakutia)","territory":"","country":"Russia","latitude":63.0838225,"longitude":130.4193172,"population":1020,"stateCapital":false,"nationalCapital":false,"pk":null,"quiz":"asia","code":null,"archived":false,"percentageOfSessions":null}, {"name":"Барылас","state":"Sakha (Yakutia)","territory":"","country":"Russia","latitude":65.8938691,"longitude":132.7071584,"population":103,"stateCapital":false,"nationalCapital":false,"pk":null,"quiz":"asia","code":null,"archived":false,"percentageOfSessions":null}, {"name":"Батагай","state":"Sakha (Yakutia)","territory":"","country":"Russia","latitude":67.654907,"longitude":134.635071,"population":4369,"stateCapital":false,"nationalCapital":false,"pk":null,"quiz":"asia","code":null,"archived":false,"percentageOfSessions":null}, {"name":"Батагай-Алыта","state":"Sakha (Yakutia)","territory":"","country":"Russia","latitude":67.799362,"longitude":130.403229,"population":1832,"stateCapital":false,"nationalCapital":false,"pk":null,"quiz":"asia","code":null,"archived":false,"percentageOfSessions":null}, {"name":"Батамай","state":"Sakha (Yakutia)","territory":"","country":"Russia","latitude":63.5263219,"longitude":129.4186643,"population":233,"stateCapital":false,"nationalCapital":false,"pk":null,"quiz":"asia","code":null,"archived":false,"percentageOfSessions":null}, {"name":"Батамай","state":"Sakha (Yakutia)","territory":"","country":"Russia","latitude":60.7594802,"longitude":115.6086171,"population":190,"stateCapital":false,"nationalCapital":false,"pk":null,"quiz":"asia","code":null,"archived":false,"percentageOfSessions":null}, {"name":"Баханай","state":"Sakha (Yakutia)","territory":"","country":"Russia","latitude":66.016045,"longitude":123.652962,"population":260,"stateCapital":false,"nationalCapital":false,"pk":null,"quiz":"asia","code":null,"archived":false,"percentageOfSessions":null}, {"name":"Бедеме","state":"Sakha (Yakutia)","territory":"","country":"Russia","latitude":62.0016997,"longitude":130.5478583,"population":541,"stateCapital":false,"nationalCapital":false,"pk":null,"quiz":"asia","code":null,"archived":false,"percentageOfSessions":null}, {"name":"Беджелек","state":"Sakha (Yakutia)","territory":"","country":"Russia","latitude":61.9636703,"longitude":130.1713293,"population":1,"stateCapital":false,"nationalCapital":false,"pk":null,"quiz":"asia","code":null,"archived":false,"percentageOfSessions":null}, {"name":"Безымянный","state":"Sakha (Yakutia)","territory":"","country":"Russia","latitude":58.743893,"longitude":126.388947,"population":0,"stateCapital":false,"nationalCapital":false,"pk":null,"quiz":"asia","code":null,"archived":false,"percentageOfSessions":null}, {"name":"Бейдинга","state":"Sakha (Yakutia)","territory":"","country":"Russia","latitude":62.3941559,"longitude":130.8597715,"population":686,"stateCapital":false,"nationalCapital":false,"pk":null,"quiz":"asia","code":null,"archived":false,"percentageOfSessions":null}, {"name":"Беке","state":"Sakha (Yakutia)","territory":"","country":"Russia","latitude":61.7856234,"longitude":130.3728106,"population":361,"stateCapital":false,"nationalCapital":false,"pk":null,"quiz":"asia","code":null,"archived":false,"percentageOfSessions":null}, {"name":"Белая Гора","state":"Sakha (Yakutia)","territory":"","country":"Russia","latitude":68.53701,"longitude":146.187286,"population":2245,"stateCapital":false,"nationalCapital":false,"pk":null,"quiz":"asia","code":null,"archived":false,"percentageOfSessions":null}, {"name":"Белькачи","state":"Sakha (Yakutia)","territory":"","country":"Russia","latitude":59.1854126,"longitude":131.8904821,"population":179,"stateCapital":false,"nationalCapital":false,"pk":null,"quiz":"asia","code":null,"archived":false,"percentageOfSessions":null}, {"name":"Бердигестях","state":"Sakha (Yakutia)","territory":"","country":"Russia","latitude":62.098289,"longitude":126.699837,"population":6462,"stateCapital":false,"nationalCapital":false,"pk":null,"quiz":"asia","code":null,"archived":false,"percentageOfSessions":null}, {"name":"Бердинка","state":"Sakha (Yakutia)","territory":"","country":"Russia","latitude":60.2809199,"longitude":119.9538366,"population":37,"stateCapital":false,"nationalCapital":false,"pk":null,"quiz":"asia","code":null,"archived":false,"percentageOfSessions":null}, {"name":"Берег-Юрдя","state":"Sakha (Yakutia)","territory":"","country":"Russia","latitude":63.4539647,"longitude":142.89235,"population":178,"stateCapital":false,"nationalCapital":false,"pk":null,"quiz":"asia","code":null,"archived":false,"percentageOfSessions":null}, {"name":"Березовка","state":"Sakha (Yakutia)","territory":"","country":"Russia","latitude":62.4540818,"longitude":114.1341235,"population":11,"stateCapital":false,"nationalCapital":false,"pk":null,"quiz":"asia","code":null,"archived":false,"percentageOfSessions":null}, {"name":"Березовка","state":"Sakha (Yakutia)","territory":"","country":"Russia","latitude":67.1296082,"longitude":156.5852164,"population":330,"stateCapital":false,"nationalCapital":false,"pk":null,"quiz":"asia","code":null,"archived":false,"percentageOfSessions":null}, {"name":"Беркакит","state":"Sakha (Yakutia)","territory":"","country":"Russia","latitude":56.576416,"longitude":124.773148,"population":4291,"stateCapital":false,"nationalCapital":false,"pk":null,"quiz":"asia","code":null,"archived":false,"percentageOfSessions":null}, {"name":"Беря","state":"Sakha (Yakutia)","territory":"","country":"Russia","latitude":62.176006,"longitude":132.020615,"population":60,"stateCapital":false,"nationalCapital":false,"pk":null,"quiz":"asia","code":null,"archived":false,"percentageOfSessions":null}, {"name":"Бестях","state":"Sakha (Yakutia)","territory":"","country":"Russia","latitude":65.2812655,"longitude":124.1209487,"population":218,"stateCapital":false,"nationalCapital":false,"pk":null,"quiz":"asia","code":null,"archived":false,"percentageOfSessions":null}, {"name":"Бестях","state":"Sakha (Yakutia)","territory":"","country":"Russia","latitude":61.3672443,"longitude":128.8736942,"population":2377,"stateCapital":false,"nationalCapital":false,"pk":null,"quiz":"asia","code":null,"archived":false,"percentageOfSessions":null}, {"name":"Бетенкес","state":"Sakha (Yakutia)","territory":"","country":"Russia","latitude":67.647888,"longitude":135.576141,"population":826,"stateCapital":false,"nationalCapital":false,"pk":null,"quiz":"asia","code":null,"archived":false,"percentageOfSessions":null}, {"name":"Бетюнг","state":"Sakha (Yakutia)","territory":"","country":"Russia","latitude":63.7084103,"longitude":122.3418915,"population":477,"stateCapital":false,"nationalCapital":false,"pk":null,"quiz":"asia","code":null,"archived":false,"percentageOfSessions":null}, {"name":"Бетюнцы","state":"Sakha (Yakutia)","territory":"","country":"Russia","latitude":60.928228,"longitude":132.1517136,"population":1216,"stateCapital":false,"nationalCapital":false,"pk":null,"quiz":"asia","code":null,"archived":false,"percentageOfSessions":null}, {"name":"Беченча","state":"Sakha (Yakutia)","territory":"","country":"Russia","latitude":60.9607336,"longitude":115.4702159,"population":786,"stateCapital":false,"nationalCapital":false,"pk":null,"quiz":"asia","code":null,"archived":false,"percentageOfSessions":null}, {"name":"Бирюк","state":"Sakha (Yakutia)","territory":"","country":"Russia","latitude":60.26199,"longitude":119.6431265,"population":231,"stateCapital":false,"nationalCapital":false,"pk":null,"quiz":"asia","code":null,"archived":false,"percentageOfSessions":null}, {"name":"Болугур","state":"Sakha (Yakutia)","territory":"","country":"Russia","latitude":60.6015549,"longitude":131.4712595,"population":1507,"stateCapital":false,"nationalCapital":false,"pk":null,"quiz":"asia","code":null,"archived":false,"percentageOfSessions":null}, {"name":"Большой Нимныр","state":"Sakha (Yakutia)","territory":"","country":"Russia","latitude":58.042355,"longitude":125.484009,"population":236,"stateCapital":false,"nationalCapital":false,"pk":null,"quiz":"asia","code":null,"archived":false,"percentageOfSessions":null}, {"name":"Большой Хатыми","state":"Sakha (Yakutia)","territory":"","country":"Russia","latitude":57.379581,"longitude":124.897987,"population":311,"stateCapital":false,"nationalCapital":false,"pk":null,"quiz":"asia","code":null,"archived":false,"percentageOfSessions":null}, {"name":"Бордон 3-й","state":"Sakha (Yakutia)","territory":"","country":"Russia","latitude":62.6408998,"longitude":117.3714185,"population":5,"stateCapital":false,"nationalCapital":false,"pk":null,"quiz":"asia","code":null,"archived":false,"percentageOfSessions":null}, {"name":"Боробул","state":"Sakha (Yakutia)","territory":"","country":"Russia","latitude":62.2791374,"longitude":133.4970536,"population":1014,"stateCapital":false,"nationalCapital":false,"pk":null,"quiz":"asia","code":null,"archived":false,"percentageOfSessions":null}, {"name":"Борогонцы","state":"Sakha (Yakutia)","territory":"","country":"Russia","latitude":62.670792,"longitude":131.166061,"population":5222,"stateCapital":false,"nationalCapital":false,"pk":null,"quiz":"asia","code":null,"archived":false,"percentageOfSessions":null}, {"name":"Боронук","state":"Sakha (Yakutia)","territory":"","country":"Russia","latitude":67.5823402,"longitude":133.4488795,"population":307,"stateCapital":false,"nationalCapital":false,"pk":null,"quiz":"asia","code":null,"archived":false,"percentageOfSessions":null}, {"name":"Ботулу","state":"Sakha (Yakutia)","territory":"","country":"Russia","latitude":64.1386247,"longitude":119.7773001,"population":815,"stateCapital":false,"nationalCapital":false,"pk":null,"quiz":"asia","code":null,"archived":false,"percentageOfSessions":null}, {"name":"Булгунняхтах","state":"Sakha (Yakutia)","territory":"","country":"Russia","latitude":61.3005037,"longitude":128.6609323,"population":1529,"stateCapital":false,"nationalCapital":false,"pk":null,"quiz":"asia","code":null,"archived":false,"percentageOfSessions":null}, {"name":"Булун","state":"Sakha (Yakutia)","territory":"","country":"Russia","latitude":60.6862918,"longitude":131.6013014,"population":1,"stateCapital":false,"nationalCapital":false,"pk":null,"quiz":"asia","code":null,"archived":false,"percentageOfSessions":null}, {"name":"Булун","state":"Sakha (Yakutia)","territory":"","country":"Russia","latitude":63.0193513,"longitude":133.4777646,"population":1293,"stateCapital":false,"nationalCapital":false,"pk":null,"quiz":"asia","code":null,"archived":false,"percentageOfSessions":null}, {"name":"Булус","state":"Sakha (Yakutia)","territory":"","country":"Russia","latitude":63.306814,"longitude":129.4580962,"population":408,"stateCapital":false,"nationalCapital":false,"pk":null,"quiz":"asia","code":null,"archived":false,"percentageOfSessions":null}, {"name":"Буор-Сысы","state":"Sakha (Yakutia)","territory":"","country":"Russia","latitude":66.4865306,"longitude":143.0480725,"population":387,"stateCapital":false,"nationalCapital":false,"pk":null,"quiz":"asia","code":null,"archived":false,"percentageOfSessions":null}, {"name":"Быковский","state":"Sakha (Yakutia)","territory":"","country":"Russia","latitude":72.003162,"longitude":129.1118542,"population":517,"stateCapital":false,"nationalCapital":false,"pk":null,"quiz":"asia","code":null,"archived":false,"percentageOfSessions":null}, {"name":"Быракан","state":"Sakha (Yakutia)","territory":"","country":"Russia","latitude":63.0166958,"longitude":121.2333333,"population":254,"stateCapital":false,"nationalCapital":false,"pk":null,"quiz":"asia","code":null,"archived":false,"percentageOfSessions":null}, {"name":"Бырама","state":"Sakha (Yakutia)","territory":"","country":"Russia","latitude":61.4797363,"longitude":130.9409472,"population":294,"stateCapital":false,"nationalCapital":false,"pk":null,"quiz":"asia","code":null,"archived":false,"percentageOfSessions":null}, {"name":"Быранатталах","state":"Sakha (Yakutia)","territory":"","country":"Russia","latitude":63.681246,"longitude":124.4013713,"population":0,"stateCapital":false,"nationalCapital":false,"pk":null,"quiz":"asia","code":null,"archived":false,"percentageOfSessions":null}, {"name":"Бысыттах","state":"Sakha (Yakutia)","territory":"","country":"Russia","latitude":63.5793526,"longitude":117.4516522,"population":550,"stateCapital":false,"nationalCapital":false,"pk":null,"quiz":"asia","code":null,"archived":false,"percentageOfSessions":null}, {"name":"Быччагдан","state":"Sakha (Yakutia)","territory":"","country":"Russia","latitude":63.9129384,"longitude":120.0656269,"population":95,"stateCapital":false,"nationalCapital":false,"pk":null,"quiz":"asia","code":null,"archived":false,"percentageOfSessions":null}, {"name":"Бютейдях","state":"Sakha (Yakutia)","territory":"","country":"Russia","latitude":63.7980981,"longitude":120.4949774,"population":8,"stateCapital":false,"nationalCapital":false,"pk":null,"quiz":"asia","code":null,"archived":false,"percentageOfSessions":null}, {"name":"Бютейдях","state":"Sakha (Yakutia)","territory":"","country":"Russia","latitude":61.6267292,"longitude":131.3684637,"population":703,"stateCapital":false,"nationalCapital":false,"pk":null,"quiz":"asia","code":null,"archived":false,"percentageOfSessions":null}, {"name":"Бютяй-Юрдя","state":"Sakha (Yakutia)","territory":"","country":"Russia","latitude":62.8210757,"longitude":129.6047358,"population":608,"stateCapital":false,"nationalCapital":false,"pk":null,"quiz":"asia","code":null,"archived":false,"percentageOfSessions":null}, {"name":"Бяди","state":"Sakha (Yakutia)","territory":"","country":"Russia","latitude":63.126675,"longitude":130.719223,"population":316,"stateCapital":false,"nationalCapital":false,"pk":null,"quiz":"asia","code":null,"archived":false,"percentageOfSessions":null}, {"name":"Бярийе","state":"Sakha (Yakutia)","territory":"","country":"Russia","latitude":62.8881465,"longitude":131.9149952,"population":297,"stateCapital":false,"nationalCapital":false,"pk":null,"quiz":"asia","code":null,"archived":false,"percentageOfSessions":null}, {"name":"Бясь-Кюель","state":"Sakha (Yakutia)","territory":"","country":"Russia","latitude":62.7671778,"longitude":127.0874784,"population":673,"stateCapital":false,"nationalCapital":false,"pk":null,"quiz":"asia","code":null,"archived":false,"percentageOfSessions":null}, {"name":"Бясь-Кюель","state":"Sakha (Yakutia)","territory":"","country":"Russia","latitude":59.4754788,"longitude":119.3018265,"population":215,"stateCapital":false,"nationalCapital":false,"pk":null,"quiz":"asia","code":null,"archived":false,"percentageOfSessions":null}, {"name":"Бясь-Шея","state":"Sakha (Yakutia)","territory":"","country":"Russia","latitude":62.8332035,"longitude":117.5370205,"population":0,"stateCapital":false,"nationalCapital":false,"pk":null,"quiz":"asia","code":null,"archived":false,"percentageOfSessions":null}, {"name":"Василий Аласа","state":"Sakha (Yakutia)","territory":"","country":"Russia","latitude":61.792118,"longitude":132.573914,"population":0,"stateCapital":false,"nationalCapital":false,"pk":null,"quiz":"asia","code":null,"archived":false,"percentageOfSessions":null}, {"name":"Верхневилюйск","state":"Sakha (Yakutia)","territory":"","country":"Russia","latitude":63.4497609,"longitude":120.3146678,"population":6457,"stateCapital":false,"nationalCapital":false,"pk":null,"quiz":"asia","code":null,"archived":false,"percentageOfSessions":null}, {"name":"Верхнеколымск","state":"Sakha (Yakutia)","territory":"","country":"Russia","latitude":65.719368,"longitude":150.829407,"population":365,"stateCapital":false,"nationalCapital":false,"pk":null,"quiz":"asia","code":null,"archived":false,"percentageOfSessions":null}, {"name":"Верхний Куранах","state":"Sakha (Yakutia)","territory":"","country":"Russia","latitude":58.754994,"longitude":125.4796977,"population":577,"stateCapital":false,"nationalCapital":false,"pk":null,"quiz":"asia","code":null,"archived":false,"percentageOfSessions":null}, {"name":"Верхняя Амга","state":"Sakha (Yakutia)","territory":"","country":"Russia","latitude":59.649742,"longitude":127.11412,"population":27,"stateCapital":false,"nationalCapital":false,"pk":null,"quiz":"asia","code":null,"archived":false,"percentageOfSessions":null}, {"name":"Верхоянск","state":"Sakha (Yakutia)","territory":"","country":"Russia","latitude":67.5495068,"longitude":133.3874618,"population":1311,"stateCapital":false,"nationalCapital":false,"pk":null,"quiz":"asia","code":null,"archived":false,"percentageOfSessions":null}, {"name":"Вилюйск","state":"Sakha (Yakutia)","territory":"","country":"Russia","latitude":63.754082,"longitude":121.626549,"population":10234,"stateCapital":false,"nationalCapital":false,"pk":null,"quiz":"asia","code":null,"archived":false,"percentageOfSessions":null}, {"name":"Витим","state":"Sakha (Yakutia)","territory":"","country":"Russia","latitude":59.439697,"longitude":112.572884,"population":4376,"stateCapital":false,"nationalCapital":false,"pk":null,"quiz":"asia","code":null,"archived":false,"percentageOfSessions":null}, {"name":"Владимировка","state":"Sakha (Yakutia)","territory":"","country":"Russia","latitude":61.8949475,"longitude":129.5137451,"population":127,"stateCapital":false,"nationalCapital":false,"pk":null,"quiz":"asia","code":null,"archived":false,"percentageOfSessions":null}, {"name":"Воин","state":"Sakha (Yakutia)","territory":"","country":"Russia","latitude":62.6233487,"longitude":129.961197,"population":46,"stateCapital":false,"nationalCapital":false,"pk":null,"quiz":"asia","code":null,"archived":false,"percentageOfSessions":null}, {"name":"Воронцово","state":"Sakha (Yakutia)","territory":"","country":"Russia","latitude":69.5763736,"longitude":147.5330402,"population":0,"stateCapital":false,"nationalCapital":false,"pk":null,"quiz":"asia","code":null,"archived":false,"percentageOfSessions":null}, {"name":"Графский Берег","state":"Sakha (Yakutia)","territory":"","country":"Russia","latitude":62.7735786,"longitude":129.6873095,"population":904,"stateCapital":false,"nationalCapital":false,"pk":null,"quiz":"asia","code":null,"archived":false,"percentageOfSessions":null}, {"name":"Дабан","state":"Sakha (Yakutia)","territory":"","country":"Russia","latitude":60.123353,"longitude":119.2037995,"population":525,"stateCapital":false,"nationalCapital":false,"pk":null,"quiz":"asia","code":null,"archived":false,"percentageOfSessions":null}, {"name":"Дайа-Амгата","state":"Sakha (Yakutia)","territory":"","country":"Russia","latitude":61.910107,"longitude":133.613861,"population":227,"stateCapital":false,"nationalCapital":false,"pk":null,"quiz":"asia","code":null,"archived":false,"percentageOfSessions":null}, {"name":"Даккы","state":"Sakha (Yakutia)","territory":"","country":"Russia","latitude":62.4764634,"longitude":133.6330295,"population":9,"stateCapital":false,"nationalCapital":false,"pk":null,"quiz":"asia","code":null,"archived":false,"percentageOfSessions":null}, {"name":"Далы","state":"Sakha (Yakutia)","territory":"","country":"Russia","latitude":62.736495,"longitude":130.4852903,"population":56,"stateCapital":false,"nationalCapital":false,"pk":null,"quiz":"asia","code":null,"archived":false,"percentageOfSessions":null}, {"name":"Далыр","state":"Sakha (Yakutia)","territory":"","country":"Russia","latitude":63.869041,"longitude":120.244743,"population":888,"stateCapital":false,"nationalCapital":false,"pk":null,"quiz":"asia","code":null,"archived":false,"percentageOfSessions":null}, {"name":"Даппарай","state":"Sakha (Yakutia)","territory":"","country":"Russia","latitude":60.1865113,"longitude":119.9493769,"population":192,"stateCapital":false,"nationalCapital":false,"pk":null,"quiz":"asia","code":null,"archived":false,"percentageOfSessions":null}, {"name":"Даркылах","state":"Sakha (Yakutia)","territory":"","country":"Russia","latitude":60.9755477,"longitude":130.3758511,"population":434,"stateCapital":false,"nationalCapital":false,"pk":null,"quiz":"asia","code":null,"archived":false,"percentageOfSessions":null}, {"name":"Две виски","state":"Sakha (Yakutia)","territory":"","country":"Russia","latitude":68.3616161,"longitude":160.7574109,"population":0,"stateCapital":false,"nationalCapital":false,"pk":null,"quiz":"asia","code":null,"archived":false,"percentageOfSessions":null}, {"name":"Дебдирге","state":"Sakha (Yakutia)","territory":"","country":"Russia","latitude":62.4141105,"longitude":132.881085,"population":863,"stateCapital":false,"nationalCapital":false,"pk":null,"quiz":"asia","code":null,"archived":false,"percentageOfSessions":null}, {"name":"Дельгей","state":"Sakha (Yakutia)","territory":"","country":"Russia","latitude":59.9071965,"longitude":118.6079801,"population":466,"stateCapital":false,"nationalCapital":false,"pk":null,"quiz":"asia","code":null,"archived":false,"percentageOfSessions":null}, {"name":"Делянкир","state":"Sakha (Yakutia)","territory":"","country":"Russia","latitude":63.838047,"longitude":145.600586,"population":3,"stateCapital":false,"nationalCapital":false,"pk":null,"quiz":"asia","code":null,"archived":false,"percentageOfSessions":null}, {"name":"Депутатский","state":"Sakha (Yakutia)","territory":"","country":"Russia","latitude":69.3396494,"longitude":139.9468635,"population":2983,"stateCapital":false,"nationalCapital":false,"pk":null,"quiz":"asia","code":null,"archived":false,"percentageOfSessions":null}, {"name":"Деску","state":"Sakha (Yakutia)","territory":"","country":"Russia","latitude":68.3687664,"longitude":144.5252171,"population":53,"stateCapital":false,"nationalCapital":false,"pk":null,"quiz":"asia","code":null,"archived":false,"percentageOfSessions":null}, {"name":"Джаргалах","state":"Sakha (Yakutia)","territory":"","country":"Russia","latitude":67.2729343,"longitude":130.5432882,"population":269,"stateCapital":false,"nationalCapital":false,"pk":null,"quiz":"asia","code":null,"archived":false,"percentageOfSessions":null}, {"name":"Джарджан","state":"Sakha (Yakutia)","territory":"","country":"Russia","latitude":68.7365973,"longitude":124.029153,"population":1,"stateCapital":false,"nationalCapital":false,"pk":null,"quiz":"asia","code":null,"archived":false,"percentageOfSessions":null}, {"name":"Джебарики-Хая","state":"Sakha (Yakutia)","territory":"","country":"Russia","latitude":62.218327,"longitude":135.859451,"population":1694,"stateCapital":false,"nationalCapital":false,"pk":null,"quiz":"asia","code":null,"archived":false,"percentageOfSessions":null}, {"name":"Дикимдя","state":"Sakha (Yakutia)","territory":"","country":"Russia","latitude":61.8858316,"longitude":126.5311074,"population":611,"stateCapital":false,"nationalCapital":false,"pk":null,"quiz":"asia","code":null,"archived":false,"percentageOfSessions":null}, {"name":"Дикимдя","state":"Sakha (Yakutia)","territory":"","country":"Russia","latitude":63.3842595,"longitude":118.3396115,"population":328,"stateCapital":false,"nationalCapital":false,"pk":null,"quiz":"asia","code":null,"archived":false,"percentageOfSessions":null}, {"name":"Дикимдя","state":"Sakha (Yakutia)","territory":"","country":"Russia","latitude":59.0356543,"longitude":121.7660425,"population":5,"stateCapital":false,"nationalCapital":false,"pk":null,"quiz":"asia","code":null,"archived":false,"percentageOfSessions":null}, {"name":"Диринг","state":"Sakha (Yakutia)","territory":"","country":"Russia","latitude":61.8414634,"longitude":132.1241513,"population":1218,"stateCapital":false,"nationalCapital":false,"pk":null,"quiz":"asia","code":null,"archived":false,"percentageOfSessions":null}, {"name":"Дорожный","state":"Sakha (Yakutia)","territory":"","country":"Russia","latitude":61.4465583,"longitude":114.3612659,"population":160,"stateCapital":false,"nationalCapital":false,"pk":null,"quiz":"asia","code":null,"archived":false,"percentageOfSessions":null}, {"name":"Дыгдал","state":"Sakha (Yakutia)","territory":"","country":"Russia","latitude":63.302751,"longitude":130.3807197,"population":319,"stateCapital":false,"nationalCapital":false,"pk":null,"quiz":"asia","code":null,"archived":false,"percentageOfSessions":null}, {"name":"Дюллюкю","state":"Sakha (Yakutia)","territory":"","country":"Russia","latitude":63.688522,"longitude":120.469772,"population":1251,"stateCapital":false,"nationalCapital":false,"pk":null,"quiz":"asia","code":null,"archived":false,"percentageOfSessions":null}, {"name":"Дюпся","state":"Sakha (Yakutia)","territory":"","country":"Russia","latitude":63.023992,"longitude":130.7188453,"population":1177,"stateCapital":false,"nationalCapital":false,"pk":null,"quiz":"asia","code":null,"archived":false,"percentageOfSessions":null}, {"name":"Дябыла","state":"Sakha (Yakutia)","territory":"","country":"Russia","latitude":61.909496,"longitude":132.355301,"population":1112,"stateCapital":false,"nationalCapital":false,"pk":null,"quiz":"asia","code":null,"archived":false,"percentageOfSessions":null}, {"name":"Дярла","state":"Sakha (Yakutia)","territory":"","country":"Russia","latitude":62.050671,"longitude":132.415558,"population":8,"stateCapital":false,"nationalCapital":false,"pk":null,"quiz":"asia","code":null,"archived":false,"percentageOfSessions":null}, {"name":"Едей","state":"Sakha (Yakutia)","territory":"","country":"Russia","latitude":63.6016987,"longitude":119.4417495,"population":190,"stateCapital":false,"nationalCapital":false,"pk":null,"quiz":"asia","code":null,"archived":false,"percentageOfSessions":null}, {"name":"Едей","state":"Sakha (Yakutia)","territory":"","country":"Russia","latitude":61.1056857,"longitude":126.3723527,"population":386,"stateCapital":false,"nationalCapital":false,"pk":null,"quiz":"asia","code":null,"archived":false,"percentageOfSessions":null}, {"name":"Екюндю","state":"Sakha (Yakutia)","territory":"","country":"Russia","latitude":63.7810871,"longitude":122.1536403,"population":321,"stateCapital":false,"nationalCapital":false,"pk":null,"quiz":"asia","code":null,"archived":false,"percentageOfSessions":null}, {"name":"Еланка","state":"Sakha (Yakutia)","territory":"","country":"Russia","latitude":61.2704177,"longitude":128.1115591,"population":11,"stateCapital":false,"nationalCapital":false,"pk":null,"quiz":"asia","code":null,"archived":false,"percentageOfSessions":null}, {"name":"Елечей","state":"Sakha (Yakutia)","territory":"","country":"Russia","latitude":61.7018185,"longitude":131.2773076,"population":502,"stateCapital":false,"nationalCapital":false,"pk":null,"quiz":"asia","code":null,"archived":false,"percentageOfSessions":null}, {"name":"Ергелех","state":"Sakha (Yakutia)","territory":"","country":"Russia","latitude":62.5867076,"longitude":128.8624305,"population":273,"stateCapital":false,"nationalCapital":false,"pk":null,"quiz":"asia","code":null,"archived":false,"percentageOfSessions":null}, {"name":"Ермолово","state":"Sakha (Yakutia)","territory":"","country":"Russia","latitude":68.4828148,"longitude":160.4867526,"population":0,"stateCapital":false,"nationalCapital":false,"pk":null,"quiz":"asia","code":null,"archived":false,"percentageOfSessions":null}, {"name":"Ерт","state":"Sakha (Yakutia)","territory":"","country":"Russia","latitude":62.0181906,"longitude":125.7942389,"population":544,"stateCapital":false,"nationalCapital":false,"pk":null,"quiz":"asia","code":null,"archived":false,"percentageOfSessions":null}, {"name":"Ефремово","state":"Sakha (Yakutia)","territory":"","country":"Russia","latitude":60.4793272,"longitude":131.1926482,"population":29,"stateCapital":false,"nationalCapital":false,"pk":null,"quiz":"asia","code":null,"archived":false,"percentageOfSessions":null}, {"name":"Жархан","state":"Sakha (Yakutia)","territory":"","country":"Russia","latitude":63.521171,"longitude":118.822632,"population":408,"stateCapital":false,"nationalCapital":false,"pk":null,"quiz":"asia","code":null,"archived":false,"percentageOfSessions":null}, {"name":"Жархан","state":"Sakha (Yakutia)","territory":"","country":"Russia","latitude":59.9877303,"longitude":119.792115,"population":2,"stateCapital":false,"nationalCapital":false,"pk":null,"quiz":"asia","code":null,"archived":false,"percentageOfSessions":null}, {"name":"Жатай","state":"Sakha (Yakutia)","territory":"","country":"Russia","latitude":62.164104,"longitude":129.843109,"population":9504,"stateCapital":false,"nationalCapital":false,"pk":null,"quiz":"asia","code":null,"archived":false,"percentageOfSessions":null}, {"name":"Жиганск","state":"Sakha (Yakutia)","territory":"","country":"Russia","latitude":66.76564,"longitude":123.3741,"population":3420,"stateCapital":false,"nationalCapital":false,"pk":null,"quiz":"asia","code":null,"archived":false,"percentageOfSessions":null}, {"name":"Жилинда","state":"Sakha (Yakutia)","territory":"","country":"Russia","latitude":70.139648,"longitude":113.989403,"population":664,"stateCapital":false,"nationalCapital":false,"pk":null,"quiz":"asia","code":null,"archived":false,"percentageOfSessions":null}, {"name":"Заречный","state":"Sakha (Yakutia)","territory":"","country":"Russia","latitude":60.346626,"longitude":120.444176,"population":620,"stateCapital":false,"nationalCapital":false,"pk":null,"quiz":"asia","code":null,"archived":false,"percentageOfSessions":null}, {"name":"Заря","state":"Sakha (Yakutia)","territory":"","country":"Russia","latitude":62.105022,"longitude":114.189285,"population":242,"stateCapital":false,"nationalCapital":false,"pk":null,"quiz":"asia","code":null,"archived":false,"percentageOfSessions":null}, {"name":"Затон ЛОРПа","state":"Sakha (Yakutia)","territory":"","country":"Russia","latitude":60.386856,"longitude":120.341461,"population":4,"stateCapital":false,"nationalCapital":false,"pk":null,"quiz":"asia","code":null,"archived":false,"percentageOfSessions":null}, {"name":"Звездочка","state":"Sakha (Yakutia)","territory":"","country":"Russia","latitude":60.489662,"longitude":137.649307,"population":408,"stateCapital":false,"nationalCapital":false,"pk":null,"quiz":"asia","code":null,"archived":false,"percentageOfSessions":null}, {"name":"Золотинка","state":"Sakha (Yakutia)","territory":"","country":"Russia","latitude":56.1838565,"longitude":124.8658695,"population":552,"stateCapital":false,"nationalCapital":false,"pk":null,"quiz":"asia","code":null,"archived":false,"percentageOfSessions":null}, {"name":"Зырянка","state":"Sakha (Yakutia)","territory":"","country":"Russia","latitude":65.733597,"longitude":150.893326,"population":3170,"stateCapital":false,"nationalCapital":false,"pk":null,"quiz":"asia","code":null,"archived":false,"percentageOfSessions":null}, {"name":"Иенгра","state":"Sakha (Yakutia)","territory":"","country":"Russia","latitude":56.2229347,"longitude":124.8545239,"population":1104,"stateCapital":false,"nationalCapital":false,"pk":null,"quiz":"asia","code":null,"archived":false,"percentageOfSessions":null}, {"name":"Илбенге","state":"Sakha (Yakutia)","territory":"","country":"Russia","latitude":62.8316891,"longitude":124.3808567,"population":651,"stateCapital":false,"nationalCapital":false,"pk":null,"quiz":"asia","code":null,"archived":false,"percentageOfSessions":null}, {"name":"Илимнир","state":"Sakha (Yakutia)","territory":"","country":"Russia","latitude":62.0249438,"longitude":117.4213789,"population":250,"stateCapital":false,"nationalCapital":false,"pk":null,"quiz":"asia","code":null,"archived":false,"percentageOfSessions":null}, {"name":"Иннялы","state":"Sakha (Yakutia)","territory":"","country":"Russia","latitude":59.5171839,"longitude":111.2115709,"population":140,"stateCapital":false,"nationalCapital":false,"pk":null,"quiz":"asia","code":null,"archived":false,"percentageOfSessions":null}, {"name":"Иннях","state":"Sakha (Yakutia)","territory":"","country":"Russia","latitude":59.7917318,"longitude":118.4622995,"population":103,"stateCapital":false,"nationalCapital":false,"pk":null,"quiz":"asia","code":null,"archived":false,"percentageOfSessions":null}, {"name":"Исит","state":"Sakha (Yakutia)","territory":"","country":"Russia","latitude":60.8133786,"longitude":125.3228453,"population":312,"stateCapital":false,"nationalCapital":false,"pk":null,"quiz":"asia","code":null,"archived":false,"percentageOfSessions":null}, {"name":"Казачье","state":"Sakha (Yakutia)","territory":"","country":"Russia","latitude":70.740356,"longitude":136.20462,"population":1367,"stateCapital":false,"nationalCapital":false,"pk":null,"quiz":"asia","code":null,"archived":false,"percentageOfSessions":null}, {"name":"Кальвица","state":"Sakha (Yakutia)","territory":"","country":"Russia","latitude":63.9387512,"longitude":127.0245417,"population":189,"stateCapital":false,"nationalCapital":false,"pk":null,"quiz":"asia","code":null,"archived":false,"percentageOfSessions":null}, {"name":"Капитоновка","state":"Sakha (Yakutia)","territory":"","country":"Russia","latitude":62.3264944,"longitude":129.9317449,"population":995,"stateCapital":false,"nationalCapital":false,"pk":null,"quiz":"asia","code":null,"archived":false,"percentageOfSessions":null}, {"name":"Карапатское","state":"Sakha (Yakutia)","territory":"","country":"Russia","latitude":61.6897271,"longitude":129.4634447,"population":0,"stateCapital":false,"nationalCapital":false,"pk":null,"quiz":"asia","code":null,"archived":false,"percentageOfSessions":null}, {"name":"Качикатцы","state":"Sakha (Yakutia)","territory":"","country":"Russia","latitude":61.3207667,"longitude":128.9504613,"population":1156,"stateCapital":false,"nationalCapital":false,"pk":null,"quiz":"asia","code":null,"archived":false,"percentageOfSessions":null}, {"name":"Кемпендяй","state":"Sakha (Yakutia)","territory":"","country":"Russia","latitude":62.027641,"longitude":118.638786,"population":444,"stateCapital":false,"nationalCapital":false,"pk":null,"quiz":"asia","code":null,"archived":false,"percentageOfSessions":null}, {"name":"Кенг-Кюель","state":"Sakha (Yakutia)","territory":"","country":"Russia","latitude":68.075661,"longitude":145.996796,"population":255,"stateCapital":false,"nationalCapital":false,"pk":null,"quiz":"asia","code":null,"archived":false,"percentageOfSessions":null}, {"name":"Кенг-Кюель","state":"Sakha (Yakutia)","territory":"","country":"Russia","latitude":64.4246529,"longitude":119.7543899,"population":0,"stateCapital":false,"nationalCapital":false,"pk":null,"quiz":"asia","code":null,"archived":false,"percentageOfSessions":null}, {"name":"Кептени","state":"Sakha (Yakutia)","territory":"","country":"Russia","latitude":62.7948939,"longitude":130.7530077,"population":1081,"stateCapital":false,"nationalCapital":false,"pk":null,"quiz":"asia","code":null,"archived":false,"percentageOfSessions":null}, {"name":"Кептин","state":"Sakha (Yakutia)","territory":"","country":"Russia","latitude":62.3418435,"longitude":124.4470261,"population":659,"stateCapital":false,"nationalCapital":false,"pk":null,"quiz":"asia","code":null,"archived":false,"percentageOfSessions":null}, {"name":"Кердем","state":"Sakha (Yakutia)","territory":"","country":"Russia","latitude":61.4302957,"longitude":129.199896,"population":1015,"stateCapital":false,"nationalCapital":false,"pk":null,"quiz":"asia","code":null,"archived":false,"percentageOfSessions":null}, {"name":"Кердюген","state":"Sakha (Yakutia)","territory":"","country":"Russia","latitude":62.338597,"longitude":130.1301324,"population":8,"stateCapital":false,"nationalCapital":false,"pk":null,"quiz":"asia","code":null,"archived":false,"percentageOfSessions":null}, {"name":"Кескил","state":"Sakha (Yakutia)","territory":"","country":"Russia","latitude":62.6517013,"longitude":135.0116779,"population":555,"stateCapital":false,"nationalCapital":false,"pk":null,"quiz":"asia","code":null,"archived":false,"percentageOfSessions":null}, {"name":"Кетердех","state":"Sakha (Yakutia)","territory":"","country":"Russia","latitude":64.2512637,"longitude":119.7490916,"population":102,"stateCapital":false,"nationalCapital":false,"pk":null,"quiz":"asia","code":null,"archived":false,"percentageOfSessions":null}, {"name":"Килиер","state":"Sakha (Yakutia)","territory":"","country":"Russia","latitude":61.0237576,"longitude":119.2857429,"population":4,"stateCapital":false,"nationalCapital":false,"pk":null,"quiz":"asia","code":null,"archived":false,"percentageOfSessions":null}, {"name":"Кильдемцы","state":"Sakha (Yakutia)","territory":"","country":"Russia","latitude":62.2805441,"longitude":129.8207906,"population":673,"stateCapital":false,"nationalCapital":false,"pk":null,"quiz":"asia","code":null,"archived":false,"percentageOfSessions":null}, {"name":"Килянки","state":"Sakha (Yakutia)","territory":"","country":"Russia","latitude":62.259556,"longitude":132.360062,"population":518,"stateCapital":false,"nationalCapital":false,"pk":null,"quiz":"asia","code":null,"archived":false,"percentageOfSessions":null}, {"name":"Киров","state":"Sakha (Yakutia)","territory":"","country":"Russia","latitude":63.5839274,"longitude":118.7011565,"population":258,"stateCapital":false,"nationalCapital":false,"pk":null,"quiz":"asia","code":null,"archived":false,"percentageOfSessions":null}, {"name":"Кирово","state":"Sakha (Yakutia)","territory":"","country":"Russia","latitude":64.545822,"longitude":122.243286,"population":424,"stateCapital":false,"nationalCapital":false,"pk":null,"quiz":"asia","code":null,"archived":false,"percentageOfSessions":null}, {"name":"Кобяй","state":"Sakha (Yakutia)","territory":"","country":"Russia","latitude":63.5797017,"longitude":126.5044719,"population":2605,"stateCapital":false,"nationalCapital":false,"pk":null,"quiz":"asia","code":null,"archived":false,"percentageOfSessions":null}, {"name":"Колымское","state":"Sakha (Yakutia)","territory":"","country":"Russia","latitude":68.728645,"longitude":158.705948,"population":811,"stateCapital":false,"nationalCapital":false,"pk":null,"quiz":"asia","code":null,"archived":false,"percentageOfSessions":null}, {"name":"Комсомол","state":"Sakha (Yakutia)","territory":"","country":"Russia","latitude":62.9035735,"longitude":117.6221724,"population":14,"stateCapital":false,"nationalCapital":false,"pk":null,"quiz":"asia","code":null,"archived":false,"percentageOfSessions":null}, {"name":"Кочегарово","state":"Sakha (Yakutia)","territory":"","country":"Russia","latitude":59.9372411,"longitude":118.8940868,"population":3,"stateCapital":false,"nationalCapital":false,"pk":null,"quiz":"asia","code":null,"archived":false,"percentageOfSessions":null}, {"name":"Крест-Кытыл","state":"Sakha (Yakutia)","territory":"","country":"Russia","latitude":62.665005,"longitude":129.701477,"population":1727,"stateCapital":false,"nationalCapital":false,"pk":null,"quiz":"asia","code":null,"archived":false,"percentageOfSessions":null}, {"name":"Крестовая","state":"Sakha (Yakutia)","territory":"","country":"Russia","latitude":70.7295694,"longitude":159.450274,"population":0,"stateCapital":false,"nationalCapital":false,"pk":null,"quiz":"asia","code":null,"archived":false,"percentageOfSessions":null}, {"name":"Крестовский лесоучасток","state":"Sakha (Yakutia)","territory":"","country":"Russia","latitude":59.7737856,"longitude":113.2711198,"population":19,"stateCapital":false,"nationalCapital":false,"pk":null,"quiz":"asia","code":null,"archived":false,"percentageOfSessions":null}, {"name":"Крест-Хальджай","state":"Sakha (Yakutia)","territory":"","country":"Russia","latitude":62.8155722,"longitude":134.516132,"population":1521,"stateCapital":false,"nationalCapital":false,"pk":null,"quiz":"asia","code":null,"archived":false,"percentageOfSessions":null}, {"name":"Крестях","state":"Sakha (Yakutia)","territory":"","country":"Russia","latitude":62.251766,"longitude":116.1689,"population":882,"stateCapital":false,"nationalCapital":false,"pk":null,"quiz":"asia","code":null,"archived":false,"percentageOfSessions":null}, {"name":"Куберганя","state":"Sakha (Yakutia)","territory":"","country":"Russia","latitude":67.771088,"longitude":144.487183,"population":530,"stateCapital":false,"nationalCapital":false,"pk":null,"quiz":"asia","code":null,"archived":false,"percentageOfSessions":null}, {"name":"Куду","state":"Sakha (Yakutia)","territory":"","country":"Russia","latitude":63.2698781,"longitude":120.4494383,"population":80,"stateCapital":false,"nationalCapital":false,"pk":null,"quiz":"asia","code":null,"archived":false,"percentageOfSessions":null}, {"name":"Куду-Бясь","state":"Sakha (Yakutia)","territory":"","country":"Russia","latitude":60.2303469,"longitude":119.6470258,"population":2,"stateCapital":false,"nationalCapital":false,"pk":null,"quiz":"asia","code":null,"archived":false,"percentageOfSessions":null}, {"name":"Куду-Кюель","state":"Sakha (Yakutia)","territory":"","country":"Russia","latitude":59.4395664,"longitude":121.3121948,"population":349,"stateCapital":false,"nationalCapital":false,"pk":null,"quiz":"asia","code":null,"archived":false,"percentageOfSessions":null}, {"name":"Куйдусун","state":"Sakha (Yakutia)","territory":"","country":"Russia","latitude":63.2572677,"longitude":143.2462481,"population":121,"stateCapital":false,"nationalCapital":false,"pk":null,"quiz":"asia","code":null,"archived":false,"percentageOfSessions":null}, {"name":"Кулун-Елбют","state":"Sakha (Yakutia)","territory":"","country":"Russia","latitude":66.7922611,"longitude":142.7326416,"population":243,"stateCapital":false,"nationalCapital":false,"pk":null,"quiz":"asia","code":null,"archived":false,"percentageOfSessions":null}, {"name":"Кулусуннах","state":"Sakha (Yakutia)","territory":"","country":"Russia","latitude":63.8094542,"longitude":120.1458059,"population":19,"stateCapital":false,"nationalCapital":false,"pk":null,"quiz":"asia","code":null,"archived":false,"percentageOfSessions":null}, {"name":"Куокуну","state":"Sakha (Yakutia)","territory":"","country":"Russia","latitude":62.0975142,"longitude":116.2124996,"population":591,"stateCapital":false,"nationalCapital":false,"pk":null,"quiz":"asia","code":null,"archived":false,"percentageOfSessions":null}, {"name":"Куранах-Сала","state":"Sakha (Yakutia)","territory":"","country":"Russia","latitude":63.1406338,"longitude":144.4431283,"population":0,"stateCapital":false,"nationalCapital":false,"pk":null,"quiz":"asia","code":null,"archived":false,"percentageOfSessions":null}, {"name":"Куранда","state":"Sakha (Yakutia)","territory":"","country":"Russia","latitude":60.4049815,"longitude":120.2328758,"population":9,"stateCapital":false,"nationalCapital":false,"pk":null,"quiz":"asia","code":null,"archived":false,"percentageOfSessions":null}, {"name":"Кустур","state":"Sakha (Yakutia)","territory":"","country":"Russia","latitude":68.1726576,"longitude":131.6752342,"population":766,"stateCapital":false,"nationalCapital":false,"pk":null,"quiz":"asia","code":null,"archived":false,"percentageOfSessions":null}, {"name":"Кутана","state":"Sakha (Yakutia)","territory":"","country":"Russia","latitude":59.0176037,"longitude":131.7485925,"population":573,"stateCapital":false,"nationalCapital":false,"pk":null,"quiz":"asia","code":null,"archived":false,"percentageOfSessions":null}, {"name":"Кутана","state":"Sakha (Yakutia)","territory":"","country":"Russia","latitude":62.7124798,"longitude":117.5724594,"population":1002,"stateCapital":false,"nationalCapital":false,"pk":null,"quiz":"asia","code":null,"archived":false,"percentageOfSessions":null}, {"name":"Кыйы","state":"Sakha (Yakutia)","territory":"","country":"Russia","latitude":62.119064,"longitude":133.033401,"population":818,"stateCapital":false,"nationalCapital":false,"pk":null,"quiz":"asia","code":null,"archived":false,"percentageOfSessions":null}, {"name":"Кылайы","state":"Sakha (Yakutia)","territory":"","country":"Russia","latitude":63.2271265,"longitude":132.1275717,"population":538,"stateCapital":false,"nationalCapital":false,"pk":null,"quiz":"asia","code":null,"archived":false,"percentageOfSessions":null}, {"name":"Кыллах","state":"Sakha (Yakutia)","territory":"","country":"Russia","latitude":60.2095205,"longitude":119.932954,"population":954,"stateCapital":false,"nationalCapital":false,"pk":null,"quiz":"asia","code":null,"archived":false,"percentageOfSessions":null}, {"name":"Кындал","state":"Sakha (Yakutia)","territory":"","country":"Russia","latitude":62.133167,"longitude":132.740997,"population":50,"stateCapital":false,"nationalCapital":false,"pk":null,"quiz":"asia","code":null,"archived":false,"percentageOfSessions":null}, {"name":"Кырыкый","state":"Sakha (Yakutia)","territory":"","country":"Russia","latitude":63.9617871,"longitude":120.7205911,"population":442,"stateCapital":false,"nationalCapital":false,"pk":null,"quiz":"asia","code":null,"archived":false,"percentageOfSessions":null}, {"name":"Кыстатыам","state":"Sakha (Yakutia)","territory":"","country":"Russia","latitude":67.3197609,"longitude":123.3439437,"population":397,"stateCapital":false,"nationalCapital":false,"pk":null,"quiz":"asia","code":null,"archived":false,"percentageOfSessions":null}, {"name":"Кыстык-Кугда","state":"Sakha (Yakutia)","territory":"","country":"Russia","latitude":61.613678,"longitude":133.183121,"population":1,"stateCapital":false,"nationalCapital":false,"pk":null,"quiz":"asia","code":null,"archived":false,"percentageOfSessions":null}, {"name":"Кысыл-Деревня","state":"Sakha (Yakutia)","territory":"","country":"Russia","latitude":62.7833,"longitude":129.6432401,"population":258,"stateCapital":false,"nationalCapital":false,"pk":null,"quiz":"asia","code":null,"archived":false,"percentageOfSessions":null}, {"name":"Кысыл-Сыр","state":"Sakha (Yakutia)","territory":"","country":"Russia","latitude":63.898602,"longitude":122.771309,"population":3106,"stateCapital":false,"nationalCapital":false,"pk":null,"quiz":"asia","code":null,"archived":false,"percentageOfSessions":null}, {"name":"Кысыл-Сыр","state":"Sakha (Yakutia)","territory":"","country":"Russia","latitude":62.5303815,"longitude":129.7663228,"population":1502,"stateCapital":false,"nationalCapital":false,"pk":null,"quiz":"asia","code":null,"archived":false,"percentageOfSessions":null}, {"name":"Кысыл-Юрюйя","state":"Sakha (Yakutia)","territory":"","country":"Russia","latitude":61.361544,"longitude":129.030048,"population":270,"stateCapital":false,"nationalCapital":false,"pk":null,"quiz":"asia","code":null,"archived":false,"percentageOfSessions":null}, {"name":"Кытыл-Дюра","state":"Sakha (Yakutia)","territory":"","country":"Russia","latitude":60.9726183,"longitude":125.9317226,"population":453,"stateCapital":false,"nationalCapital":false,"pk":null,"quiz":"asia","code":null,"archived":false,"percentageOfSessions":null}, {"name":"Кюбеме","state":"Sakha (Yakutia)","territory":"","country":"Russia","latitude":63.4274032,"longitude":140.6046235,"population":0,"stateCapital":false,"nationalCapital":false,"pk":null,"quiz":"asia","code":null,"archived":false,"percentageOfSessions":null}, {"name":"Кюбяинде","state":"Sakha (Yakutia)","territory":"","country":"Russia","latitude":64.623634,"longitude":120.173592,"population":619,"stateCapital":false,"nationalCapital":false,"pk":null,"quiz":"asia","code":null,"archived":false,"percentageOfSessions":null}, {"name":"Кюерелях","state":"Sakha (Yakutia)","territory":"","country":"Russia","latitude":62.5717924,"longitude":126.8404154,"population":541,"stateCapital":false,"nationalCapital":false,"pk":null,"quiz":"asia","code":null,"archived":false,"percentageOfSessions":null}, {"name":"Кюкей","state":"Sakha (Yakutia)","territory":"","country":"Russia","latitude":62.7690817,"longitude":117.7272471,"population":394,"stateCapital":false,"nationalCapital":false,"pk":null,"quiz":"asia","code":null,"archived":false,"percentageOfSessions":null}, {"name":"Кюлекянь","state":"Sakha (Yakutia)","territory":"","country":"Russia","latitude":64.8319907,"longitude":120.9153112,"population":412,"stateCapital":false,"nationalCapital":false,"pk":null,"quiz":"asia","code":null,"archived":false,"percentageOfSessions":null}, {"name":"Кюль","state":"Sakha (Yakutia)","territory":"","country":"Russia","latitude":63.5452037,"longitude":121.0050468,"population":548,"stateCapital":false,"nationalCapital":false,"pk":null,"quiz":"asia","code":null,"archived":false,"percentageOfSessions":null}, {"name":"Кюнде","state":"Sakha (Yakutia)","territory":"","country":"Russia","latitude":63.6009953,"longitude":121.3701247,"population":196,"stateCapital":false,"nationalCapital":false,"pk":null,"quiz":"asia","code":null,"archived":false,"percentageOfSessions":null}, {"name":"Кюндяде","state":"Sakha (Yakutia)","territory":"","country":"Russia","latitude":63.218559,"longitude":118.144775,"population":982,"stateCapital":false,"nationalCapital":false,"pk":null,"quiz":"asia","code":null,"archived":false,"percentageOfSessions":null}, {"name":"Кюндяе","state":"Sakha (Yakutia)","territory":"","country":"Russia","latitude":62.3467444,"longitude":117.7003965,"population":817,"stateCapital":false,"nationalCapital":false,"pk":null,"quiz":"asia","code":null,"archived":false,"percentageOfSessions":null}, {"name":"Кюпцы","state":"Sakha (Yakutia)","territory":"","country":"Russia","latitude":60.8666446,"longitude":135.3286858,"population":464,"stateCapital":false,"nationalCapital":false,"pk":null,"quiz":"asia","code":null,"archived":false,"percentageOfSessions":null}, {"name":"Кюренг-Ат","state":"Sakha (Yakutia)","territory":"","country":"Russia","latitude":62.7322067,"longitude":129.2276224,"population":202,"stateCapital":false,"nationalCapital":false,"pk":null,"quiz":"asia","code":null,"archived":false,"percentageOfSessions":null}, {"name":"Кюсюр","state":"Sakha (Yakutia)","territory":"","country":"Russia","latitude":70.684967,"longitude":127.361092,"population":1345,"stateCapital":false,"nationalCapital":false,"pk":null,"quiz":"asia","code":null,"archived":false,"percentageOfSessions":null}, {"name":"Кяччи","state":"Sakha (Yakutia)","territory":"","country":"Russia","latitude":60.3490604,"longitude":120.0840892,"population":360,"stateCapital":false,"nationalCapital":false,"pk":null,"quiz":"asia","code":null,"archived":false,"percentageOfSessions":null}, {"name":"Лебединый","state":"Sakha (Yakutia)","territory":"","country":"Russia","latitude":58.492325,"longitude":125.498222,"population":1058,"stateCapital":false,"nationalCapital":false,"pk":null,"quiz":"asia","code":null,"archived":false,"percentageOfSessions":null}, {"name":"Лебия","state":"Sakha (Yakutia)","territory":"","country":"Russia","latitude":62.309586,"longitude":131.43573,"population":0,"stateCapital":false,"nationalCapital":false,"pk":null,"quiz":"asia","code":null,"archived":false,"percentageOfSessions":null}, {"name":"Лекечен","state":"Sakha (Yakutia)","territory":"","country":"Russia","latitude":63.0607914,"longitude":123.9806237,"population":428,"stateCapital":false,"nationalCapital":false,"pk":null,"quiz":"asia","code":null,"archived":false,"percentageOfSessions":null}, {"name":"Ленинский","state":"Sakha (Yakutia)","territory":"","country":"Russia","latitude":58.573635,"longitude":125.438339,"population":1866,"stateCapital":false,"nationalCapital":false,"pk":null,"quiz":"asia","code":null,"archived":false,"percentageOfSessions":null}, {"name":"Ленск","state":"Sakha (Yakutia)","territory":"","country":"Russia","latitude":60.7145488,"longitude":114.9172123,"population":24966,"stateCapital":false,"nationalCapital":false,"pk":null,"quiz":"asia","code":null,"archived":false,"percentageOfSessions":null}, {"name":"Липпе-Атах","state":"Sakha (Yakutia)","territory":"","country":"Russia","latitude":63.7166154,"longitude":119.8745174,"population":620,"stateCapital":false,"nationalCapital":false,"pk":null,"quiz":"asia","code":null,"archived":false,"percentageOfSessions":null}, {"name":"Лобуя","state":"Sakha (Yakutia)","territory":"","country":"Russia","latitude":67.4895986,"longitude":154.028458,"population":3,"stateCapital":false,"nationalCapital":false,"pk":null,"quiz":"asia","code":null,"archived":false,"percentageOfSessions":null}, {"name":"Ломтука","state":"Sakha (Yakutia)","territory":"","country":"Russia","latitude":61.6376845,"longitude":130.092202,"population":701,"stateCapital":false,"nationalCapital":false,"pk":null,"quiz":"asia","code":null,"archived":false,"percentageOfSessions":null}, {"name":"Люксюгюн","state":"Sakha (Yakutia)","territory":"","country":"Russia","latitude":63.7218511,"longitude":124.9685498,"population":222,"stateCapital":false,"nationalCapital":false,"pk":null,"quiz":"asia","code":null,"archived":false,"percentageOfSessions":null}, {"name":"Маган","state":"Sakha (Yakutia)","territory":"","country":"Russia","latitude":62.102467,"longitude":129.532593,"population":1863,"stateCapital":false,"nationalCapital":false,"pk":null,"quiz":"asia","code":null,"archived":false,"percentageOfSessions":null}, {"name":"Магарас","state":"Sakha (Yakutia)","territory":"","country":"Russia","latitude":62.1489822,"longitude":128.0614528,"population":994,"stateCapital":false,"nationalCapital":false,"pk":null,"quiz":"asia","code":null,"archived":false,"percentageOfSessions":null}, {"name":"Май","state":"Sakha (Yakutia)","territory":"","country":"Russia","latitude":63.7931685,"longitude":119.8588084,"population":64,"stateCapital":false,"nationalCapital":false,"pk":null,"quiz":"asia","code":null,"archived":false,"percentageOfSessions":null}, {"name":"Май","state":"Sakha (Yakutia)","territory":"","country":"Russia","latitude":62.0285563,"longitude":126.6729537,"population":10,"stateCapital":false,"nationalCapital":false,"pk":null,"quiz":"asia","code":null,"archived":false,"percentageOfSessions":null}, {"name":"Маймага","state":"Sakha (Yakutia)","territory":"","country":"Russia","latitude":63.0432379,"longitude":129.5189797,"population":157,"stateCapital":false,"nationalCapital":false,"pk":null,"quiz":"asia","code":null,"archived":false,"percentageOfSessions":null}, {"name":"Майя","state":"Sakha (Yakutia)","territory":"","country":"Russia","latitude":61.742214,"longitude":130.281189,"population":7288,"stateCapital":false,"nationalCapital":false,"pk":null,"quiz":"asia","code":null,"archived":false,"percentageOfSessions":null}, {"name":"Малыкай","state":"Sakha (Yakutia)","territory":"","country":"Russia","latitude":63.5055476,"longitude":117.0312304,"population":1918,"stateCapital":false,"nationalCapital":false,"pk":null,"quiz":"asia","code":null,"archived":false,"percentageOfSessions":null}, {"name":"Малыкан","state":"Sakha (Yakutia)","territory":"","country":"Russia","latitude":60.6843664,"longitude":124.7338138,"population":135,"stateCapital":false,"nationalCapital":false,"pk":null,"quiz":"asia","code":null,"archived":false,"percentageOfSessions":null}, {"name":"Мар","state":"Sakha (Yakutia)","territory":"","country":"Russia","latitude":63.5243928,"longitude":118.9944487,"population":1034,"stateCapital":false,"nationalCapital":false,"pk":null,"quiz":"asia","code":null,"archived":false,"percentageOfSessions":null}, {"name":"Маралайы","state":"Sakha (Yakutia)","territory":"","country":"Russia","latitude":61.984074,"longitude":131.920883,"population":837,"stateCapital":false,"nationalCapital":false,"pk":null,"quiz":"asia","code":null,"archived":false,"percentageOfSessions":null}, {"name":"Мар-Кюель","state":"Sakha (Yakutia)","territory":"","country":"Russia","latitude":62.4002071,"longitude":117.0214249,"population":506,"stateCapital":false,"nationalCapital":false,"pk":null,"quiz":"asia","code":null,"archived":false,"percentageOfSessions":null}, {"name":"Марха","state":"Sakha (Yakutia)","territory":"","country":"Russia","latitude":60.5992494,"longitude":123.2906482,"population":165,"stateCapital":false,"nationalCapital":false,"pk":null,"quiz":"asia","code":null,"archived":false,"percentageOfSessions":null}, {"name":"Мастах","state":"Sakha (Yakutia)","territory":"","country":"Russia","latitude":63.7222761,"longitude":124.1946749,"population":617,"stateCapital":false,"nationalCapital":false,"pk":null,"quiz":"asia","code":null,"archived":false,"percentageOfSessions":null}, {"name":"Мастах 2-й","state":"Sakha (Yakutia)","territory":"","country":"Russia","latitude":63.7437845,"longitude":124.2220697,"population":41,"stateCapital":false,"nationalCapital":false,"pk":null,"quiz":"asia","code":null,"archived":false,"percentageOfSessions":null}, {"name":"Матта","state":"Sakha (Yakutia)","territory":"","country":"Russia","latitude":62.358593,"longitude":130.646576,"population":489,"stateCapital":false,"nationalCapital":false,"pk":null,"quiz":"asia","code":null,"archived":false,"percentageOfSessions":null}, {"name":"Мача","state":"Sakha (Yakutia)","territory":"","country":"Russia","latitude":59.9061377,"longitude":117.5822144,"population":407,"stateCapital":false,"nationalCapital":false,"pk":null,"quiz":"asia","code":null,"archived":false,"percentageOfSessions":null}, {"name":"Мачах","state":"Sakha (Yakutia)","territory":"","country":"Russia","latitude":67.5565494,"longitude":132.8869013,"population":66,"stateCapital":false,"nationalCapital":false,"pk":null,"quiz":"asia","code":null,"archived":false,"percentageOfSessions":null}, {"name":"Маягас","state":"Sakha (Yakutia)","territory":"","country":"Russia","latitude":62.6267094,"longitude":131.1493453,"population":593,"stateCapital":false,"nationalCapital":false,"pk":null,"quiz":"asia","code":null,"archived":false,"percentageOfSessions":null}, {"name":"Мегино-Алдан","state":"Sakha (Yakutia)","territory":"","country":"Russia","latitude":62.6972216,"longitude":134.6208181,"population":1020,"stateCapital":false,"nationalCapital":false,"pk":null,"quiz":"asia","code":null,"archived":false,"percentageOfSessions":null}, {"name":"Мекимдя","state":"Sakha (Yakutia)","territory":"","country":"Russia","latitude":60.7988693,"longitude":120.9700758,"population":0,"stateCapital":false,"nationalCapital":false,"pk":null,"quiz":"asia","code":null,"archived":false,"percentageOfSessions":null}, {"name":"Метяки","state":"Sakha (Yakutia)","territory":"","country":"Russia","latitude":66.9257874,"longitude":132.2704088,"population":16,"stateCapital":false,"nationalCapital":false,"pk":null,"quiz":"asia","code":null,"archived":false,"percentageOfSessions":null}, {"name":"Миляке","state":"Sakha (Yakutia)","territory":"","country":"Russia","latitude":63.0628836,"longitude":116.4122258,"population":4,"stateCapital":false,"nationalCapital":false,"pk":null,"quiz":"asia","code":null,"archived":false,"percentageOfSessions":null}, {"name":"Мирный","state":"Sakha (Yakutia)","territory":"","country":"Russia","latitude":62.541077,"longitude":113.978584,"population":37188,"stateCapital":false,"nationalCapital":false,"pk":null,"quiz":"asia","code":null,"archived":false,"percentageOfSessions":null}, {"name":"Михайловка","state":"Sakha (Yakutia)","territory":"","country":"Russia","latitude":61.2133431,"longitude":132.6808285,"population":859,"stateCapital":false,"nationalCapital":false,"pk":null,"quiz":"asia","code":null,"archived":false,"percentageOfSessions":null}, {"name":"Михалкино","state":"Sakha (Yakutia)","territory":"","country":"Russia","latitude":69.416023,"longitude":161.5159,"population":0,"stateCapital":false,"nationalCapital":false,"pk":null,"quiz":"asia","code":null,"archived":false,"percentageOfSessions":null}, {"name":"Моркока","state":"Sakha (Yakutia)","territory":"","country":"Russia","latitude":64.6084453,"longitude":112.5225743,"population":76,"stateCapital":false,"nationalCapital":false,"pk":null,"quiz":"asia","code":null,"archived":false,"percentageOfSessions":null}, {"name":"Мохсоголлох","state":"Sakha (Yakutia)","territory":"","country":"Russia","latitude":61.397861,"longitude":128.947861,"population":6698,"stateCapital":false,"nationalCapital":false,"pk":null,"quiz":"asia","code":null,"archived":false,"percentageOfSessions":null}, {"name":"Мурья","state":"Sakha (Yakutia)","territory":"","country":"Russia","latitude":60.7322557,"longitude":115.2905531,"population":234,"stateCapital":false,"nationalCapital":false,"pk":null,"quiz":"asia","code":null,"archived":false,"percentageOfSessions":null}, {"name":"Мындаба","state":"Sakha (Yakutia)","territory":"","country":"Russia","latitude":62.6555279,"longitude":131.1813554,"population":792,"stateCapital":false,"nationalCapital":false,"pk":null,"quiz":"asia","code":null,"archived":false,"percentageOfSessions":null}, {"name":"Мындагай","state":"Sakha (Yakutia)","territory":"","country":"Russia","latitude":61.642902,"longitude":133.1921643,"population":1046,"stateCapital":false,"nationalCapital":false,"pk":null,"quiz":"asia","code":null,"archived":false,"percentageOfSessions":null}, {"name":"Мырыла","state":"Sakha (Yakutia)","territory":"","country":"Russia","latitude":61.834782,"longitude":133.643509,"population":507,"stateCapital":false,"nationalCapital":false,"pk":null,"quiz":"asia","code":null,"archived":false,"percentageOfSessions":null}, {"name":"Мяндиги","state":"Sakha (Yakutia)","territory":"","country":"Russia","latitude":61.1815969,"longitude":132.5519206,"population":435,"stateCapital":false,"nationalCapital":false,"pk":null,"quiz":"asia","code":null,"archived":false,"percentageOfSessions":null}, {"name":"Мяндийе","state":"Sakha (Yakutia)","territory":"","country":"Russia","latitude":61.938709,"longitude":132.123184,"population":0,"stateCapital":false,"nationalCapital":false,"pk":null,"quiz":"asia","code":null,"archived":false,"percentageOfSessions":null}, {"name":"Нагорный","state":"Sakha (Yakutia)","territory":"","country":"Russia","latitude":55.948612,"longitude":124.919266,"population":68,"stateCapital":false,"nationalCapital":false,"pk":null,"quiz":"asia","code":null,"archived":false,"percentageOfSessions":null}, {"name":"Найба","state":"Sakha (Yakutia)","territory":"","country":"Russia","latitude":70.8518985,"longitude":130.7576086,"population":522,"stateCapital":false,"nationalCapital":false,"pk":null,"quiz":"asia","code":null,"archived":false,"percentageOfSessions":null}, {"name":"Налимск","state":"Sakha (Yakutia)","territory":"","country":"Russia","latitude":67.5867961,"longitude":153.6493228,"population":502,"stateCapital":false,"nationalCapital":false,"pk":null,"quiz":"asia","code":null,"archived":false,"percentageOfSessions":null}, {"name":"Намцы","state":"Sakha (Yakutia)","territory":"","country":"Russia","latitude":62.718227,"longitude":129.664246,"population":8890,"stateCapital":false,"nationalCapital":false,"pk":null,"quiz":"asia","code":null,"archived":false,"percentageOfSessions":null}, {"name":"Намцыр","state":"Sakha (Yakutia)","territory":"","country":"Russia","latitude":62.2056984,"longitude":129.4759078,"population":3,"stateCapital":false,"nationalCapital":false,"pk":null,"quiz":"asia","code":null,"archived":false,"percentageOfSessions":null}, {"name":"Намы","state":"Sakha (Yakutia)","territory":"","country":"Russia","latitude":69.5208209,"longitude":132.2330268,"population":526,"stateCapital":false,"nationalCapital":false,"pk":null,"quiz":"asia","code":null,"archived":false,"percentageOfSessions":null}, {"name":"Натора","state":"Sakha (Yakutia)","territory":"","country":"Russia","latitude":60.536156,"longitude":116.1084994,"population":441,"stateCapital":false,"nationalCapital":false,"pk":null,"quiz":"asia","code":null,"archived":false,"percentageOfSessions":null}, {"name":"Нахара","state":"Sakha (Yakutia)","territory":"","country":"Russia","latitude":62.4615089,"longitude":115.722426,"population":113,"stateCapital":false,"nationalCapital":false,"pk":null,"quiz":"asia","code":null,"archived":false,"percentageOfSessions":null}, {"name":"Нелемное","state":"Sakha (Yakutia)","territory":"","country":"Russia","latitude":65.497864,"longitude":151.080215,"population":262,"stateCapital":false,"nationalCapital":false,"pk":null,"quiz":"asia","code":null,"archived":false,"percentageOfSessions":null}, {"name":"Нерюктяй","state":"Sakha (Yakutia)","territory":"","country":"Russia","latitude":62.8030862,"longitude":117.425966,"population":11,"stateCapital":false,"nationalCapital":false,"pk":null,"quiz":"asia","code":null,"archived":false,"percentageOfSessions":null}, {"name":"Нерюктяйинск 1-й","state":"Sakha (Yakutia)","territory":"","country":"Russia","latitude":60.2565679,"longitude":119.6782856,"population":1015,"stateCapital":false,"nationalCapital":false,"pk":null,"quiz":"asia","code":null,"archived":false,"percentageOfSessions":null}, {"name":"Нерюктяйинск 2-й","state":"Sakha (Yakutia)","territory":"","country":"Russia","latitude":60.2619222,"longitude":119.8849687,"population":832,"stateCapital":false,"nationalCapital":false,"pk":null,"quiz":"asia","code":null,"archived":false,"percentageOfSessions":null}, {"name":"Нерюнгри","state":"Sakha (Yakutia)","territory":"","country":"Russia","latitude":56.6579435,"longitude":124.7123042,"population":61747,"stateCapital":false,"nationalCapital":false,"pk":null,"quiz":"asia","code":null,"archived":false,"percentageOfSessions":null}, {"name":"Нефтебаза","state":"Sakha (Yakutia)","territory":"","country":"Russia","latitude":63.2731078,"longitude":118.4676714,"population":128,"stateCapital":false,"nationalCapital":false,"pk":null,"quiz":"asia","code":null,"archived":false,"percentageOfSessions":null}, {"name":"Нефтебаза","state":"Sakha (Yakutia)","territory":"","country":"Russia","latitude":60.3777244,"longitude":120.5954066,"population":227,"stateCapital":false,"nationalCapital":false,"pk":null,"quiz":"asia","code":null,"archived":false,"percentageOfSessions":null}, {"name":"Нижнеколымск","state":"Sakha (Yakutia)","territory":"","country":"Russia","latitude":68.531128,"longitude":160.926483,"population":6,"stateCapital":false,"nationalCapital":false,"pk":null,"quiz":"asia","code":null,"archived":false,"percentageOfSessions":null}, {"name":"Нижнеянск","state":"Sakha (Yakutia)","territory":"","country":"Russia","latitude":71.440445,"longitude":136.130646,"population":391,"stateCapital":false,"nationalCapital":false,"pk":null,"quiz":"asia","code":null,"archived":false,"percentageOfSessions":null}, {"name":"Нижний Бестях","state":"Sakha (Yakutia)","territory":"","country":"Russia","latitude":61.957066,"longitude":129.911346,"population":3518,"stateCapital":false,"nationalCapital":false,"pk":null,"quiz":"asia","code":null,"archived":false,"percentageOfSessions":null}, {"name":"Нижний Куранах","state":"Sakha (Yakutia)","territory":"","country":"Russia","latitude":58.819115,"longitude":125.529327,"population":5901,"stateCapital":false,"nationalCapital":false,"pk":null,"quiz":"asia","code":null,"archived":false,"percentageOfSessions":null}, {"name":"Никольский","state":"Sakha (Yakutia)","territory":"","country":"Russia","latitude":62.6290879,"longitude":129.7119039,"population":427,"stateCapital":false,"nationalCapital":false,"pk":null,"quiz":"asia","code":null,"archived":false,"percentageOfSessions":null}, {"name":"Новый","state":"Sakha (Yakutia)","territory":"","country":"Russia","latitude":62.4216269,"longitude":114.3561006,"population":76,"stateCapital":false,"nationalCapital":false,"pk":null,"quiz":"asia","code":null,"archived":false,"percentageOfSessions":null}, {"name":"Новый","state":"Sakha (Yakutia)","territory":"","country":"Russia","latitude":62.585938,"longitude":135.529785,"population":292,"stateCapital":false,"nationalCapital":false,"pk":null,"quiz":"asia","code":null,"archived":false,"percentageOfSessions":null}, {"name":"Нохорой","state":"Sakha (Yakutia)","territory":"","country":"Russia","latitude":60.8176339,"longitude":125.3791909,"population":31,"stateCapital":false,"nationalCapital":false,"pk":null,"quiz":"asia","code":null,"archived":false,"percentageOfSessions":null}, {"name":"Нуорагана","state":"Sakha (Yakutia)","territory":"","country":"Russia","latitude":62.153782,"longitude":131.075256,"population":718,"stateCapital":false,"nationalCapital":false,"pk":null,"quiz":"asia","code":null,"archived":false,"percentageOfSessions":null}, {"name":"Нуочаха","state":"Sakha (Yakutia)","territory":"","country":"Russia","latitude":61.3031086,"longitude":129.5689347,"population":4,"stateCapital":false,"nationalCapital":false,"pk":null,"quiz":"asia","code":null,"archived":false,"percentageOfSessions":null}, {"name":"Нычалах","state":"Sakha (Yakutia)","territory":"","country":"Russia","latitude":69.934692,"longitude":146.210831,"population":117,"stateCapital":false,"nationalCapital":false,"pk":null,"quiz":"asia","code":null,"archived":false,"percentageOfSessions":null}, {"name":"Нюрба","state":"Sakha (Yakutia)","territory":"","country":"Russia","latitude":63.286648,"longitude":118.354149,"population":10157,"stateCapital":false,"nationalCapital":false,"pk":null,"quiz":"asia","code":null,"archived":false,"percentageOfSessions":null}, {"name":"Нюрбачан","state":"Sakha (Yakutia)","territory":"","country":"Russia","latitude":63.3358288,"longitude":118.1072899,"population":630,"stateCapital":false,"nationalCapital":false,"pk":null,"quiz":"asia","code":null,"archived":false,"percentageOfSessions":null}, {"name":"Нюя","state":"Sakha (Yakutia)","territory":"","country":"Russia","latitude":60.5355754,"longitude":116.2211935,"population":1342,"stateCapital":false,"nationalCapital":false,"pk":null,"quiz":"asia","code":null,"archived":false,"percentageOfSessions":null}, {"name":"Нюя Северная","state":"Sakha (Yakutia)","territory":"","country":"Russia","latitude":60.8975932,"longitude":114.8167868,"population":190,"stateCapital":false,"nationalCapital":false,"pk":null,"quiz":"asia","code":null,"archived":false,"percentageOfSessions":null}, {"name":"Огородтах","state":"Sakha (Yakutia)","territory":"","country":"Russia","latitude":62.453697,"longitude":130.139954,"population":1125,"stateCapital":false,"nationalCapital":false,"pk":null,"quiz":"asia","code":null,"archived":false,"percentageOfSessions":null}, {"name":"Огусур","state":"Sakha (Yakutia)","territory":"","country":"Russia","latitude":62.139954,"longitude":132.43364,"population":107,"stateCapital":false,"nationalCapital":false,"pk":null,"quiz":"asia","code":null,"archived":false,"percentageOfSessions":null}, {"name":"Ой","state":"Sakha (Yakutia)","territory":"","country":"Russia","latitude":61.5448653,"longitude":129.1762095,"population":2266,"stateCapital":false,"nationalCapital":false,"pk":null,"quiz":"asia","code":null,"archived":false,"percentageOfSessions":null}, {"name":"Оймякон","state":"Sakha (Yakutia)","territory":"","country":"Russia","latitude":63.4629473,"longitude":142.7869693,"population":462,"stateCapital":false,"nationalCapital":false,"pk":null,"quiz":"asia","code":null,"archived":false,"percentageOfSessions":null}, {"name":"Ойотунг","state":"Sakha (Yakutia)","territory":"","country":"Russia","latitude":70.6527992,"longitude":148.6838594,"population":0,"stateCapital":false,"nationalCapital":false,"pk":null,"quiz":"asia","code":null,"archived":false,"percentageOfSessions":null}, {"name":"Ойун-Унгуохтах","state":"Sakha (Yakutia)","territory":"","country":"Russia","latitude":63.8374992,"longitude":126.5527717,"population":0,"stateCapital":false,"nationalCapital":false,"pk":null,"quiz":"asia","code":null,"archived":false,"percentageOfSessions":null}, {"name":"Ойусардах","state":"Sakha (Yakutia)","territory":"","country":"Russia","latitude":68.2744171,"longitude":154.70749,"population":523,"stateCapital":false,"nationalCapital":false,"pk":null,"quiz":"asia","code":null,"archived":false,"percentageOfSessions":null}, {"name":"Окоемовка","state":"Sakha (Yakutia)","territory":"","country":"Russia","latitude":62.467941,"longitude":131.341049,"population":226,"stateCapital":false,"nationalCapital":false,"pk":null,"quiz":"asia","code":null,"archived":false,"percentageOfSessions":null}, {"name":"Октемцы","state":"Sakha (Yakutia)","territory":"","country":"Russia","latitude":61.6655929,"longitude":129.4113436,"population":1726,"stateCapital":false,"nationalCapital":false,"pk":null,"quiz":"asia","code":null,"archived":false,"percentageOfSessions":null}, {"name":"Олекминск","state":"Sakha (Yakutia)","territory":"","country":"Russia","latitude":60.373016,"longitude":120.438751,"population":9494,"stateCapital":false,"nationalCapital":false,"pk":null,"quiz":"asia","code":null,"archived":false,"percentageOfSessions":null}, {"name":"Олекминский","state":"Sakha (Yakutia)","territory":"","country":"Russia","latitude":60.3867596,"longitude":120.1891302,"population":1027,"stateCapital":false,"nationalCapital":false,"pk":null,"quiz":"asia","code":null,"archived":false,"percentageOfSessions":null}, {"name":"Оленегорск","state":"Sakha (Yakutia)","territory":"","country":"Russia","latitude":69.8129411,"longitude":147.4936278,"population":254,"stateCapital":false,"nationalCapital":false,"pk":null,"quiz":"asia","code":null,"archived":false,"percentageOfSessions":null}, {"name":"Оленек","state":"Sakha (Yakutia)","territory":"","country":"Russia","latitude":68.505272,"longitude":112.450287,"population":2273,"stateCapital":false,"nationalCapital":false,"pk":null,"quiz":"asia","code":null,"archived":false,"percentageOfSessions":null}, {"name":"Олом","state":"Sakha (Yakutia)","territory":"","country":"Russia","latitude":60.7389666,"longitude":119.4767008,"population":39,"stateCapital":false,"nationalCapital":false,"pk":null,"quiz":"asia","code":null,"archived":false,"percentageOfSessions":null}, {"name":"Олом-Кюеле","state":"Sakha (Yakutia)","territory":"","country":"Russia","latitude":61.2815473,"longitude":130.8802257,"population":13,"stateCapital":false,"nationalCapital":false,"pk":null,"quiz":"asia","code":null,"archived":false,"percentageOfSessions":null}, {"name":"Оннес","state":"Sakha (Yakutia)","territory":"","country":"Russia","latitude":60.4615389,"longitude":131.0990861,"population":586,"stateCapital":false,"nationalCapital":false,"pk":null,"quiz":"asia","code":null,"archived":false,"percentageOfSessions":null}, {"name":"Оргет","state":"Sakha (Yakutia)","territory":"","country":"Russia","latitude":63.148756,"longitude":120.9150574,"population":579,"stateCapital":false,"nationalCapital":false,"pk":null,"quiz":"asia","code":null,"archived":false,"percentageOfSessions":null}, {"name":"Оросу","state":"Sakha (Yakutia)","territory":"","country":"Russia","latitude":63.500252,"longitude":120.749794,"population":730,"stateCapital":false,"nationalCapital":false,"pk":null,"quiz":"asia","code":null,"archived":false,"percentageOfSessions":null}, {"name":"Орочен 1-й","state":"Sakha (Yakutia)","territory":"","country":"Russia","latitude":58.4844903,"longitude":125.4247875,"population":16,"stateCapital":false,"nationalCapital":false,"pk":null,"quiz":"asia","code":null,"archived":false,"percentageOfSessions":null}, {"name":"Орочен 2-й","state":"Sakha (Yakutia)","territory":"","country":"Russia","latitude":58.5466532,"longitude":125.3768267,"population":18,"stateCapital":false,"nationalCapital":false,"pk":null,"quiz":"asia","code":null,"archived":false,"percentageOfSessions":null}, {"name":"Орто-Балаган","state":"Sakha (Yakutia)","territory":"","country":"Russia","latitude":63.1651385,"longitude":144.0180265,"population":330,"stateCapital":false,"nationalCapital":false,"pk":null,"quiz":"asia","code":null,"archived":false,"percentageOfSessions":null}, {"name":"Орто-Нахара","state":"Sakha (Yakutia)","territory":"","country":"Russia","latitude":60.8224733,"longitude":114.3236048,"population":384,"stateCapital":false,"nationalCapital":false,"pk":null,"quiz":"asia","code":null,"archived":false,"percentageOfSessions":null}, {"name":"Орто-Сурт","state":"Sakha (Yakutia)","territory":"","country":"Russia","latitude":62.565308,"longitude":125.117126,"population":536,"stateCapital":false,"nationalCapital":false,"pk":null,"quiz":"asia","code":null,"archived":false,"percentageOfSessions":null}, {"name":"Осохтох","state":"Sakha (Yakutia)","territory":"","country":"Russia","latitude":69.1310092,"longitude":134.3073708,"population":140,"stateCapital":false,"nationalCapital":false,"pk":null,"quiz":"asia","code":null,"archived":false,"percentageOfSessions":null}, {"name":"Охотский-Перевоз","state":"Sakha (Yakutia)","territory":"","country":"Russia","latitude":61.8769438,"longitude":135.5262672,"population":142,"stateCapital":false,"nationalCapital":false,"pk":null,"quiz":"asia","code":null,"archived":false,"percentageOfSessions":null}, {"name":"Оюсут","state":"Sakha (Yakutia)","territory":"","country":"Russia","latitude":62.822491,"longitude":115.209015,"population":2,"stateCapital":false,"nationalCapital":false,"pk":null,"quiz":"asia","code":null,"archived":false,"percentageOfSessions":null}, {"name":"Павловск","state":"Sakha (Yakutia)","territory":"","country":"Russia","latitude":61.870251,"longitude":129.848236,"population":2004,"stateCapital":false,"nationalCapital":false,"pk":null,"quiz":"asia","code":null,"archived":false,"percentageOfSessions":null}, {"name":"Партизан","state":"Sakha (Yakutia)","territory":"","country":"Russia","latitude":62.5846108,"longitude":129.7728955,"population":937,"stateCapital":false,"nationalCapital":false,"pk":null,"quiz":"asia","code":null,"archived":false,"percentageOfSessions":null}, {"name":"Пеледуй","state":"Sakha (Yakutia)","territory":"","country":"Russia","latitude":59.625267,"longitude":112.750214,"population":5243,"stateCapital":false,"nationalCapital":false,"pk":null,"quiz":"asia","code":null,"archived":false,"percentageOfSessions":null}, {"name":"Петровка","state":"Sakha (Yakutia)","territory":"","country":"Russia","latitude":61.7270309,"longitude":130.2606795,"population":1139,"stateCapital":false,"nationalCapital":false,"pk":null,"quiz":"asia","code":null,"archived":false,"percentageOfSessions":null}, {"name":"Петропавловск","state":"Sakha (Yakutia)","territory":"","country":"Russia","latitude":60.372566,"longitude":134.459961,"population":871,"stateCapital":false,"nationalCapital":false,"pk":null,"quiz":"asia","code":null,"archived":false,"percentageOfSessions":null}, {"name":"Петушки","state":"Sakha (Yakutia)","territory":"","country":"Russia","latitude":68.995071,"longitude":161.54631,"population":0,"stateCapital":false,"nationalCapital":false,"pk":null,"quiz":"asia","code":null,"archived":false,"percentageOfSessions":null}, {"name":"Покровка","state":"Sakha (Yakutia)","territory":"","country":"Russia","latitude":60.757862,"longitude":131.780253,"population":681,"stateCapital":false,"nationalCapital":false,"pk":null,"quiz":"asia","code":null,"archived":false,"percentageOfSessions":null}, {"name":"Покровск","state":"Sakha (Yakutia)","territory":"","country":"Russia","latitude":61.48327,"longitude":129.1540617,"population":9495,"stateCapital":false,"nationalCapital":false,"pk":null,"quiz":"asia","code":null,"archived":false,"percentageOfSessions":null}, {"name":"Полярный","state":"Sakha (Yakutia)","territory":"","country":"Russia","latitude":66.412762,"longitude":112.1198929,"population":0,"stateCapital":false,"nationalCapital":false,"pk":null,"quiz":"asia","code":null,"archived":false,"percentageOfSessions":null}, {"name":"Походск","state":"Sakha (Yakutia)","territory":"","country":"Russia","latitude":69.07988,"longitude":160.962967,"population":245,"stateCapital":false,"nationalCapital":false,"pk":null,"quiz":"asia","code":null,"archived":false,"percentageOfSessions":null}, {"name":"Пригородный","state":"Sakha (Yakutia)","territory":"","country":"Russia","latitude":61.9858877,"longitude":129.7030847,"population":1504,"stateCapital":false,"nationalCapital":false,"pk":null,"quiz":"asia","code":null,"archived":false,"percentageOfSessions":null}, {"name":"Промкомбинат","state":"Sakha (Yakutia)","territory":"","country":"Russia","latitude":60.8999771,"longitude":132.0149274,"population":172,"stateCapital":false,"nationalCapital":false,"pk":null,"quiz":"asia","code":null,"archived":false,"percentageOfSessions":null}, {"name":"Развилка","state":"Sakha (Yakutia)","territory":"","country":"Russia","latitude":63.046638,"longitude":138.156693,"population":76,"stateCapital":false,"nationalCapital":false,"pk":null,"quiz":"asia","code":null,"archived":false,"percentageOfSessions":null}, {"name":"Рассолода","state":"Sakha (Yakutia)","territory":"","country":"Russia","latitude":61.6759,"longitude":129.653854,"population":472,"stateCapital":false,"nationalCapital":false,"pk":null,"quiz":"asia","code":null,"archived":false,"percentageOfSessions":null}, {"name":"Роман","state":"Sakha (Yakutia)","territory":"","country":"Russia","latitude":68.4861559,"longitude":155.124805,"population":0,"stateCapital":false,"nationalCapital":false,"pk":null,"quiz":"asia","code":null,"archived":false,"percentageOfSessions":null}, {"name":"Русское Устье","state":"Sakha (Yakutia)","territory":"","country":"Russia","latitude":71.1329949,"longitude":149.2790588,"population":157,"stateCapital":false,"nationalCapital":false,"pk":null,"quiz":"asia","code":null,"archived":false,"percentageOfSessions":null}, {"name":"Сага","state":"Sakha (Yakutia)","territory":"","country":"Russia","latitude":63.7338228,"longitude":126.4423759,"population":0,"stateCapital":false,"nationalCapital":false,"pk":null,"quiz":"asia","code":null,"archived":false,"percentageOfSessions":null}, {"name":"Сайды","state":"Sakha (Yakutia)","territory":"","country":"Russia","latitude":68.696487,"longitude":134.459015,"population":560,"stateCapital":false,"nationalCapital":false,"pk":null,"quiz":"asia","code":null,"archived":false,"percentageOfSessions":null}, {"name":"Сайды","state":"Sakha (Yakutia)","territory":"","country":"Russia","latitude":62.6020449,"longitude":135.468552,"population":133,"stateCapital":false,"nationalCapital":false,"pk":null,"quiz":"asia","code":null,"archived":false,"percentageOfSessions":null}, {"name":"Сайылык","state":"Sakha (Yakutia)","territory":"","country":"Russia","latitude":63.844415,"longitude":120.0661527,"population":621,"stateCapital":false,"nationalCapital":false,"pk":null,"quiz":"asia","code":null,"archived":false,"percentageOfSessions":null}, {"name":"Сайылык","state":"Sakha (Yakutia)","territory":"","country":"Russia","latitude":63.8559635,"longitude":123.8447405,"population":1221,"stateCapital":false,"nationalCapital":false,"pk":null,"quiz":"asia","code":null,"archived":false,"percentageOfSessions":null}, {"name":"Сайылык","state":"Sakha (Yakutia)","territory":"","country":"Russia","latitude":63.9897839,"longitude":118.6428374,"population":786,"stateCapital":false,"nationalCapital":false,"pk":null,"quiz":"asia","code":null,"archived":false,"percentageOfSessions":null}, {"name":"Сайылык","state":"Sakha (Yakutia)","territory":"","country":"Russia","latitude":68.9660562,"longitude":138.4100918,"population":771,"stateCapital":false,"nationalCapital":false,"pk":null,"quiz":"asia","code":null,"archived":false,"percentageOfSessions":null}, {"name":"Салтаны","state":"Sakha (Yakutia)","territory":"","country":"Russia","latitude":63.3645538,"longitude":118.7227797,"population":7,"stateCapital":false,"nationalCapital":false,"pk":null,"quiz":"asia","code":null,"archived":false,"percentageOfSessions":null}, {"name":"Сангар","state":"Sakha (Yakutia)","territory":"","country":"Russia","latitude":63.923618,"longitude":127.466759,"population":4377,"stateCapital":false,"nationalCapital":false,"pk":null,"quiz":"asia","code":null,"archived":false,"percentageOfSessions":null}, {"name":"Саныяхтах","state":"Sakha (Yakutia)","territory":"","country":"Russia","latitude":60.584927,"longitude":124.062126,"population":683,"stateCapital":false,"nationalCapital":false,"pk":null,"quiz":"asia","code":null,"archived":false,"percentageOfSessions":null}, {"name":"Сарданга","state":"Sakha (Yakutia)","territory":"","country":"Russia","latitude":61.9288356,"longitude":117.1708388,"population":904,"stateCapital":false,"nationalCapital":false,"pk":null,"quiz":"asia","code":null,"archived":false,"percentageOfSessions":null}, {"name":"Саскылах","state":"Sakha (Yakutia)","territory":"","country":"Russia","latitude":71.9649533,"longitude":114.0939433,"population":2317,"stateCapital":false,"nationalCapital":false,"pk":null,"quiz":"asia","code":null,"archived":false,"percentageOfSessions":null}, {"name":"Сасылыкан","state":"Sakha (Yakutia)","territory":"","country":"Russia","latitude":62.4758025,"longitude":130.6483075,"population":124,"stateCapital":false,"nationalCapital":false,"pk":null,"quiz":"asia","code":null,"archived":false,"percentageOfSessions":null}, {"name":"Сасыр","state":"Sakha (Yakutia)","territory":"","country":"Russia","latitude":65.161095,"longitude":147.083908,"population":713,"stateCapital":false,"nationalCapital":false,"pk":null,"quiz":"asia","code":null,"archived":false,"percentageOfSessions":null}, {"name":"Сатагай","state":"Sakha (Yakutia)","territory":"","country":"Russia","latitude":61.5675056,"longitude":131.5290363,"population":570,"stateCapital":false,"nationalCapital":false,"pk":null,"quiz":"asia","code":null,"archived":false,"percentageOfSessions":null}, {"name":"Сатагай","state":"Sakha (Yakutia)","territory":"","country":"Russia","latitude":64.482392,"longitude":122.70926,"population":554,"stateCapital":false,"nationalCapital":false,"pk":null,"quiz":"asia","code":null,"archived":false,"percentageOfSessions":null}, {"name":"Сватай","state":"Sakha (Yakutia)","territory":"","country":"Russia","latitude":68.0593493,"longitude":151.7978375,"population":578,"stateCapital":false,"nationalCapital":false,"pk":null,"quiz":"asia","code":null,"archived":false,"percentageOfSessions":null}, {"name":"Светлый","state":"Sakha (Yakutia)","territory":"","country":"Russia","latitude":63.046867,"longitude":113.462898,"population":3137,"stateCapital":false,"nationalCapital":false,"pk":null,"quiz":"asia","code":null,"archived":false,"percentageOfSessions":null}, {"name":"Себян-Кюель","state":"Sakha (Yakutia)","territory":"","country":"Russia","latitude":65.287447,"longitude":130.0091536,"population":796,"stateCapital":false,"nationalCapital":false,"pk":null,"quiz":"asia","code":null,"archived":false,"percentageOfSessions":null}, {"name":"Сегян-Кюель","state":"Sakha (Yakutia)","territory":"","country":"Russia","latitude":64.0028089,"longitude":130.3105064,"population":395,"stateCapital":false,"nationalCapital":false,"pk":null,"quiz":"asia","code":null,"archived":false,"percentageOfSessions":null},