{"cities":[{"name":"Абай","state":"Altai (Republic)","territory":"","country":"Russia","latitude":50.430833,"longitude":85.0603688,"population":403,"stateCapital":false,"nationalCapital":false,"pk":null,"quiz":"asia","code":null,"archived":false,"percentageOfSessions":null}, {"name":"Акбом","state":"Altai (Republic)","territory":"","country":"Russia","latitude":50.3705012,"longitude":87.0319948,"population":23,"stateCapital":false,"nationalCapital":false,"pk":null,"quiz":"asia","code":null,"archived":false,"percentageOfSessions":null}, {"name":"Ак-Коба","state":"Altai (Republic)","territory":"","country":"Russia","latitude":50.1618664,"longitude":86.022215,"population":63,"stateCapital":false,"nationalCapital":false,"pk":null,"quiz":"asia","code":null,"archived":false,"percentageOfSessions":null}, {"name":"Актал","state":"Altai (Republic)","territory":"","country":"Russia","latitude":49.9198763,"longitude":88.8920151,"population":12,"stateCapital":false,"nationalCapital":false,"pk":null,"quiz":"asia","code":null,"archived":false,"percentageOfSessions":null}, {"name":"Акташ","state":"Altai (Republic)","territory":"","country":"Russia","latitude":50.3127248,"longitude":87.6028375,"population":2755,"stateCapital":false,"nationalCapital":false,"pk":null,"quiz":"asia","code":null,"archived":false,"percentageOfSessions":null}, {"name":"Актел","state":"Altai (Republic)","territory":"","country":"Russia","latitude":51.5188971,"longitude":85.6663249,"population":332,"stateCapital":false,"nationalCapital":false,"pk":null,"quiz":"asia","code":null,"archived":false,"percentageOfSessions":null}, {"name":"Александровка","state":"Altai (Republic)","territory":"","country":"Russia","latitude":51.7400112,"longitude":86.1124715,"population":317,"stateCapital":false,"nationalCapital":false,"pk":null,"quiz":"asia","code":null,"archived":false,"percentageOfSessions":null}, {"name":"Алферово","state":"Altai (Republic)","territory":"","country":"Russia","latitude":51.9723343,"longitude":86.0028308,"population":1074,"stateCapital":false,"nationalCapital":false,"pk":null,"quiz":"asia","code":null,"archived":false,"percentageOfSessions":null}, {"name":"Амур","state":"Altai (Republic)","territory":"","country":"Russia","latitude":50.4002565,"longitude":85.1193237,"population":830,"stateCapital":false,"nationalCapital":false,"pk":null,"quiz":"asia","code":null,"archived":false,"percentageOfSessions":null}, {"name":"Анос","state":"Altai (Republic)","territory":"","country":"Russia","latitude":51.500214,"longitude":85.944695,"population":382,"stateCapital":false,"nationalCapital":false,"pk":null,"quiz":"asia","code":null,"archived":false,"percentageOfSessions":null}, {"name":"Арбайта","state":"Altai (Republic)","territory":"","country":"Russia","latitude":51.3286523,"longitude":85.6119795,"population":66,"stateCapital":false,"nationalCapital":false,"pk":null,"quiz":"asia","code":null,"archived":false,"percentageOfSessions":null}, {"name":"Аркыт","state":"Altai (Republic)","territory":"","country":"Russia","latitude":49.8620325,"longitude":87.0558572,"population":64,"stateCapital":false,"nationalCapital":false,"pk":null,"quiz":"asia","code":null,"archived":false,"percentageOfSessions":null}, {"name":"Артыбаш","state":"Altai (Republic)","territory":"","country":"Russia","latitude":51.7901235,"longitude":87.2516574,"population":560,"stateCapital":false,"nationalCapital":false,"pk":null,"quiz":"asia","code":null,"archived":false,"percentageOfSessions":null}, {"name":"Аскат","state":"Altai (Republic)","territory":"","country":"Russia","latitude":51.537136,"longitude":85.897095,"population":161,"stateCapital":false,"nationalCapital":false,"pk":null,"quiz":"asia","code":null,"archived":false,"percentageOfSessions":null}, {"name":"Аюла","state":"Altai (Republic)","territory":"","country":"Russia","latitude":51.4370615,"longitude":85.9761739,"population":307,"stateCapital":false,"nationalCapital":false,"pk":null,"quiz":"asia","code":null,"archived":false,"percentageOfSessions":null}, {"name":"Балыктуюль","state":"Altai (Republic)","territory":"","country":"Russia","latitude":50.7623981,"longitude":88.0416334,"population":1346,"stateCapital":false,"nationalCapital":false,"pk":null,"quiz":"asia","code":null,"archived":false,"percentageOfSessions":null}, {"name":"Балыкча","state":"Altai (Republic)","territory":"","country":"Russia","latitude":51.2850034,"longitude":87.720109,"population":795,"stateCapital":false,"nationalCapital":false,"pk":null,"quiz":"asia","code":null,"archived":false,"percentageOfSessions":null}, {"name":"Банное","state":"Altai (Republic)","territory":"","country":"Russia","latitude":50.3779517,"longitude":84.869417,"population":324,"stateCapital":false,"nationalCapital":false,"pk":null,"quiz":"asia","code":null,"archived":false,"percentageOfSessions":null}, {"name":"Барагаш","state":"Altai (Republic)","territory":"","country":"Russia","latitude":51.2778898,"longitude":85.2010339,"population":761,"stateCapital":false,"nationalCapital":false,"pk":null,"quiz":"asia","code":null,"archived":false,"percentageOfSessions":null}, {"name":"Барангол","state":"Altai (Republic)","territory":"","country":"Russia","latitude":51.678883,"longitude":85.781784,"population":120,"stateCapital":false,"nationalCapital":false,"pk":null,"quiz":"asia","code":null,"archived":false,"percentageOfSessions":null}, {"name":"Барлак","state":"Altai (Republic)","territory":"","country":"Russia","latitude":51.4941734,"longitude":85.5561183,"population":42,"stateCapital":false,"nationalCapital":false,"pk":null,"quiz":"asia","code":null,"archived":false,"percentageOfSessions":null}, {"name":"Бархатово","state":"Altai (Republic)","territory":"","country":"Russia","latitude":50.9184572,"longitude":85.8303114,"population":12,"stateCapital":false,"nationalCapital":false,"pk":null,"quiz":"asia","code":null,"archived":false,"percentageOfSessions":null}, {"name":"Баштала","state":"Altai (Republic)","territory":"","country":"Russia","latitude":50.2839772,"longitude":85.6559007,"population":413,"stateCapital":false,"nationalCapital":false,"pk":null,"quiz":"asia","code":null,"archived":false,"percentageOfSessions":null}, {"name":"Беле","state":"Altai (Republic)","territory":"","country":"Russia","latitude":51.4213358,"longitude":87.7965211,"population":30,"stateCapital":false,"nationalCapital":false,"pk":null,"quiz":"asia","code":null,"archived":false,"percentageOfSessions":null}, {"name":"Белый Ануй","state":"Altai (Republic)","territory":"","country":"Russia","latitude":51.234327,"longitude":84.8918872,"population":803,"stateCapital":false,"nationalCapital":false,"pk":null,"quiz":"asia","code":null,"archived":false,"percentageOfSessions":null}, {"name":"Бельтир","state":"Altai (Republic)","territory":"","country":"Russia","latitude":49.9767714,"longitude":88.1665188,"population":363,"stateCapital":false,"nationalCapital":false,"pk":null,"quiz":"asia","code":null,"archived":false,"percentageOfSessions":null}, {"name":"Беляши","state":"Altai (Republic)","territory":"","country":"Russia","latitude":49.7068803,"longitude":87.4223965,"population":1379,"stateCapital":false,"nationalCapital":false,"pk":null,"quiz":"asia","code":null,"archived":false,"percentageOfSessions":null}, {"name":"Березовка","state":"Altai (Republic)","territory":"","country":"Russia","latitude":50.2423965,"longitude":85.5331254,"population":265,"stateCapital":false,"nationalCapital":false,"pk":null,"quiz":"asia","code":null,"archived":false,"percentageOfSessions":null}, {"name":"Беш-Озек","state":"Altai (Republic)","territory":"","country":"Russia","latitude":51.1232971,"longitude":85.2451524,"population":611,"stateCapital":false,"nationalCapital":false,"pk":null,"quiz":"asia","code":null,"archived":false,"percentageOfSessions":null}, {"name":"Бешпельтир","state":"Altai (Republic)","territory":"","country":"Russia","latitude":51.6313743,"longitude":86.0003208,"population":457,"stateCapital":false,"nationalCapital":false,"pk":null,"quiz":"asia","code":null,"archived":false,"percentageOfSessions":null}, {"name":"Бийка","state":"Altai (Republic)","territory":"","country":"Russia","latitude":51.9307078,"longitude":87.6560054,"population":571,"stateCapital":false,"nationalCapital":false,"pk":null,"quiz":"asia","code":null,"archived":false,"percentageOfSessions":null}, {"name":"Бирюля","state":"Altai (Republic)","territory":"","country":"Russia","latitude":51.7795599,"longitude":86.0574061,"population":679,"stateCapital":false,"nationalCapital":false,"pk":null,"quiz":"asia","code":null,"archived":false,"percentageOfSessions":null}, {"name":"Бичикту-Боом","state":"Altai (Republic)","territory":"","country":"Russia","latitude":50.792724,"longitude":85.9118454,"population":263,"stateCapital":false,"nationalCapital":false,"pk":null,"quiz":"asia","code":null,"archived":false,"percentageOfSessions":null}, {"name":"Большая Кузя","state":"Altai (Republic)","territory":"","country":"Russia","latitude":51.6977171,"longitude":86.7210522,"population":0,"stateCapital":false,"nationalCapital":false,"pk":null,"quiz":"asia","code":null,"archived":false,"percentageOfSessions":null}, {"name":"Большой Яломан","state":"Altai (Republic)","territory":"","country":"Russia","latitude":50.488374,"longitude":86.4124563,"population":254,"stateCapital":false,"nationalCapital":false,"pk":null,"quiz":"asia","code":null,"archived":false,"percentageOfSessions":null}, {"name":"Боочи","state":"Altai (Republic)","territory":"","country":"Russia","latitude":50.7424131,"longitude":85.8204483,"population":280,"stateCapital":false,"nationalCapital":false,"pk":null,"quiz":"asia","code":null,"archived":false,"percentageOfSessions":null}, {"name":"Верх-Анос","state":"Altai (Republic)","territory":"","country":"Russia","latitude":51.4475827,"longitude":85.8199308,"population":20,"stateCapital":false,"nationalCapital":false,"pk":null,"quiz":"asia","code":null,"archived":false,"percentageOfSessions":null}, {"name":"Верх-Ануй","state":"Altai (Republic)","territory":"","country":"Russia","latitude":51.1452376,"longitude":84.9837086,"population":383,"stateCapital":false,"nationalCapital":false,"pk":null,"quiz":"asia","code":null,"archived":false,"percentageOfSessions":null}, {"name":"Верх-Апшуяхта","state":"Altai (Republic)","territory":"","country":"Russia","latitude":51.2332838,"longitude":85.9031252,"population":276,"stateCapital":false,"nationalCapital":false,"pk":null,"quiz":"asia","code":null,"archived":false,"percentageOfSessions":null}, {"name":"Верх-Бийск","state":"Altai (Republic)","territory":"","country":"Russia","latitude":52.0369631,"longitude":87.0908357,"population":507,"stateCapital":false,"nationalCapital":false,"pk":null,"quiz":"asia","code":null,"archived":false,"percentageOfSessions":null}, {"name":"Верх-Карагуж","state":"Altai (Republic)","territory":"","country":"Russia","latitude":52.054863,"longitude":86.057404,"population":452,"stateCapital":false,"nationalCapital":false,"pk":null,"quiz":"asia","code":null,"archived":false,"percentageOfSessions":null}, {"name":"Верх-Мута","state":"Altai (Republic)","territory":"","country":"Russia","latitude":51.1954511,"longitude":84.6719369,"population":112,"stateCapital":false,"nationalCapital":false,"pk":null,"quiz":"asia","code":null,"archived":false,"percentageOfSessions":null}, {"name":"Верхний Сайдыс","state":"Altai (Republic)","territory":"","country":"Russia","latitude":51.7636832,"longitude":86.2029697,"population":2,"stateCapital":false,"nationalCapital":false,"pk":null,"quiz":"asia","code":null,"archived":false,"percentageOfSessions":null}, {"name":"Верх-Уймон","state":"Altai (Republic)","territory":"","country":"Russia","latitude":50.2131345,"longitude":85.7395927,"population":579,"stateCapital":false,"nationalCapital":false,"pk":null,"quiz":"asia","code":null,"archived":false,"percentageOfSessions":null}, {"name":"Верх-Черга","state":"Altai (Republic)","territory":"","country":"Russia","latitude":51.3731497,"longitude":85.458634,"population":218,"stateCapital":false,"nationalCapital":false,"pk":null,"quiz":"asia","code":null,"archived":false,"percentageOfSessions":null}, {"name":"Верх-Ябоган","state":"Altai (Republic)","territory":"","country":"Russia","latitude":50.9277565,"longitude":85.2332569,"population":128,"stateCapital":false,"nationalCapital":false,"pk":null,"quiz":"asia","code":null,"archived":false,"percentageOfSessions":null}, {"name":"Владимировка","state":"Altai (Republic)","territory":"","country":"Russia","latitude":51.0481225,"longitude":84.207543,"population":228,"stateCapital":false,"nationalCapital":false,"pk":null,"quiz":"asia","code":null,"archived":false,"percentageOfSessions":null}, {"name":"Власьево","state":"Altai (Republic)","territory":"","country":"Russia","latitude":50.284615,"longitude":85.5146568,"population":13,"stateCapital":false,"nationalCapital":false,"pk":null,"quiz":"asia","code":null,"archived":false,"percentageOfSessions":null}, {"name":"Гагарка","state":"Altai (Republic)","territory":"","country":"Russia","latitude":50.2288086,"longitude":85.6830486,"population":222,"stateCapital":false,"nationalCapital":false,"pk":null,"quiz":"asia","code":null,"archived":false,"percentageOfSessions":null}, {"name":"Горбуново","state":"Altai (Republic)","territory":"","country":"Russia","latitude":50.2222858,"longitude":85.8355352,"population":321,"stateCapital":false,"nationalCapital":false,"pk":null,"quiz":"asia","code":null,"archived":false,"percentageOfSessions":null}, {"name":"Горно-Алтайск","state":"Altai (Republic)","territory":"","country":"Russia","latitude":51.957775,"longitude":85.963653,"population":56933,"stateCapital":true,"nationalCapital":false,"pk":null,"quiz":"asia","code":null,"archived":false,"percentageOfSessions":null}, {"name":"Гусевка","state":"Altai (Republic)","territory":"","country":"Russia","latitude":52.0207129,"longitude":86.5388405,"population":327,"stateCapital":false,"nationalCapital":false,"pk":null,"quiz":"asia","code":null,"archived":false,"percentageOfSessions":null}, {"name":"Дайбово","state":"Altai (Republic)","territory":"","country":"Russia","latitude":52.376138,"longitude":86.9017018,"population":10,"stateCapital":false,"nationalCapital":false,"pk":null,"quiz":"asia","code":null,"archived":false,"percentageOfSessions":null}, {"name":"Дмитриевка","state":"Altai (Republic)","territory":"","country":"Russia","latitude":52.440794,"longitude":86.9125107,"population":634,"stateCapital":false,"nationalCapital":false,"pk":null,"quiz":"asia","code":null,"archived":false,"percentageOfSessions":null}, {"name":"Дубровка","state":"Altai (Republic)","territory":"","country":"Russia","latitude":51.9272034,"longitude":85.8393716,"population":400,"stateCapital":false,"nationalCapital":false,"pk":null,"quiz":"asia","code":null,"archived":false,"percentageOfSessions":null}, {"name":"Дъектиек","state":"Altai (Republic)","territory":"","country":"Russia","latitude":51.270323,"longitude":85.6056199,"population":607,"stateCapital":false,"nationalCapital":false,"pk":null,"quiz":"asia","code":null,"archived":false,"percentageOfSessions":null}, {"name":"Еланда","state":"Altai (Republic)","territory":"","country":"Russia","latitude":51.222984,"longitude":86.092484,"population":151,"stateCapital":false,"nationalCapital":false,"pk":null,"quiz":"asia","code":null,"archived":false,"percentageOfSessions":null}, {"name":"Ело","state":"Altai (Republic)","territory":"","country":"Russia","latitude":50.7702113,"longitude":85.5580057,"population":858,"stateCapital":false,"nationalCapital":false,"pk":null,"quiz":"asia","code":null,"archived":false,"percentageOfSessions":null}, {"name":"Жана-Аул","state":"Altai (Republic)","territory":"","country":"Russia","latitude":49.8440507,"longitude":88.9198356,"population":992,"stateCapital":false,"nationalCapital":false,"pk":null,"quiz":"asia","code":null,"archived":false,"percentageOfSessions":null}, {"name":"Замульта","state":"Altai (Republic)","territory":"","country":"Russia","latitude":50.1808951,"longitude":85.9729555,"population":213,"stateCapital":false,"nationalCapital":false,"pk":null,"quiz":"asia","code":null,"archived":false,"percentageOfSessions":null}, {"name":"Известковый","state":"Altai (Republic)","territory":"","country":"Russia","latitude":51.7558551,"longitude":85.7285667,"population":48,"stateCapital":false,"nationalCapital":false,"pk":null,"quiz":"asia","code":null,"archived":false,"percentageOfSessions":null}, {"name":"Ильинка","state":"Altai (Republic)","territory":"","country":"Russia","latitude":51.4437736,"longitude":85.1084067,"population":756,"stateCapital":false,"nationalCapital":false,"pk":null,"quiz":"asia","code":null,"archived":false,"percentageOfSessions":null}, {"name":"Инегень","state":"Altai (Republic)","territory":"","country":"Russia","latitude":50.3222419,"longitude":86.6940684,"population":195,"stateCapital":false,"nationalCapital":false,"pk":null,"quiz":"asia","code":null,"archived":false,"percentageOfSessions":null}, {"name":"Иня","state":"Altai (Republic)","territory":"","country":"Russia","latitude":50.4507585,"longitude":86.6252063,"population":798,"stateCapital":false,"nationalCapital":false,"pk":null,"quiz":"asia","code":null,"archived":false,"percentageOfSessions":null}, {"name":"Иогач","state":"Altai (Republic)","territory":"","country":"Russia","latitude":51.7834737,"longitude":87.2513648,"population":1289,"stateCapital":false,"nationalCapital":false,"pk":null,"quiz":"asia","code":null,"archived":false,"percentageOfSessions":null}, {"name":"Иодро","state":"Altai (Republic)","territory":"","country":"Russia","latitude":50.3996998,"longitude":86.9764591,"population":276,"stateCapital":false,"nationalCapital":false,"pk":null,"quiz":"asia","code":null,"archived":false,"percentageOfSessions":null}, {"name":"Иткуч","state":"Altai (Republic)","territory":"","country":"Russia","latitude":52.0937,"longitude":87.5202,"population":0,"stateCapital":false,"nationalCapital":false,"pk":null,"quiz":"asia","code":null,"archived":false,"percentageOfSessions":null}, {"name":"Ишинск","state":"Altai (Republic)","territory":"","country":"Russia","latitude":52.0309842,"longitude":86.6722707,"population":8,"stateCapital":false,"nationalCapital":false,"pk":null,"quiz":"asia","code":null,"archived":false,"percentageOfSessions":null}, {"name":"Кайсын","state":"Altai (Republic)","territory":"","country":"Russia","latitude":50.9493629,"longitude":84.5920139,"population":240,"stateCapital":false,"nationalCapital":false,"pk":null,"quiz":"asia","code":null,"archived":false,"percentageOfSessions":null}, {"name":"Кайтанак","state":"Altai (Republic)","territory":"","country":"Russia","latitude":50.1559671,"longitude":85.4650823,"population":360,"stateCapital":false,"nationalCapital":false,"pk":null,"quiz":"asia","code":null,"archived":false,"percentageOfSessions":null}, {"name":"Камай","state":"Altai (Republic)","territory":"","country":"Russia","latitude":51.505768,"longitude":85.7526984,"population":75,"stateCapital":false,"nationalCapital":false,"pk":null,"quiz":"asia","code":null,"archived":false,"percentageOfSessions":null}, {"name":"Камлак","state":"Altai (Republic)","territory":"","country":"Russia","latitude":51.6230876,"longitude":85.6606064,"population":567,"stateCapital":false,"nationalCapital":false,"pk":null,"quiz":"asia","code":null,"archived":false,"percentageOfSessions":null}, {"name":"Каначак","state":"Altai (Republic)","territory":"","country":"Russia","latitude":52.456268,"longitude":86.728085,"population":103,"stateCapital":false,"nationalCapital":false,"pk":null,"quiz":"asia","code":null,"archived":false,"percentageOfSessions":null}, {"name":"Кара Кобы","state":"Altai (Republic)","territory":"","country":"Russia","latitude":50.8142506,"longitude":85.5799484,"population":237,"stateCapital":false,"nationalCapital":false,"pk":null,"quiz":"asia","code":null,"archived":false,"percentageOfSessions":null}, {"name":"Карагай","state":"Altai (Republic)","territory":"","country":"Russia","latitude":50.3967497,"longitude":84.620626,"population":450,"stateCapital":false,"nationalCapital":false,"pk":null,"quiz":"asia","code":null,"archived":false,"percentageOfSessions":null}, {"name":"Каракокша","state":"Altai (Republic)","territory":"","country":"Russia","latitude":51.7673177,"longitude":86.6918262,"population":1338,"stateCapital":false,"nationalCapital":false,"pk":null,"quiz":"asia","code":null,"archived":false,"percentageOfSessions":null}, {"name":"Каракол","state":"Altai (Republic)","territory":"","country":"Russia","latitude":50.8143273,"longitude":85.9555725,"population":458,"stateCapital":false,"nationalCapital":false,"pk":null,"quiz":"asia","code":null,"archived":false,"percentageOfSessions":null}, {"name":"Каракол","state":"Altai (Republic)","territory":"","country":"Russia","latitude":51.2903923,"longitude":84.5832562,"population":151,"stateCapital":false,"nationalCapital":false,"pk":null,"quiz":"asia","code":null,"archived":false,"percentageOfSessions":null}, {"name":"Каракол","state":"Altai (Republic)","territory":"","country":"Russia","latitude":51.457432,"longitude":86.247406,"population":8,"stateCapital":false,"nationalCapital":false,"pk":null,"quiz":"asia","code":null,"archived":false,"percentageOfSessions":null}, {"name":"Кара-Кудюр","state":"Altai (Republic)","territory":"","country":"Russia","latitude":50.6724721,"longitude":87.8249375,"population":348,"stateCapital":false,"nationalCapital":false,"pk":null,"quiz":"asia","code":null,"archived":false,"percentageOfSessions":null}, {"name":"Карасук","state":"Altai (Republic)","territory":"","country":"Russia","latitude":51.8513939,"longitude":86.1412438,"population":288,"stateCapital":false,"nationalCapital":false,"pk":null,"quiz":"asia","code":null,"archived":false,"percentageOfSessions":null}, {"name":"Кара-Торбок","state":"Altai (Republic)","territory":"","country":"Russia","latitude":51.8037834,"longitude":86.3423488,"population":0,"stateCapital":false,"nationalCapital":false,"pk":null,"quiz":"asia","code":null,"archived":false,"percentageOfSessions":null}, {"name":"Карлушка","state":"Altai (Republic)","territory":"","country":"Russia","latitude":51.9814669,"longitude":85.8515045,"population":413,"stateCapital":false,"nationalCapital":false,"pk":null,"quiz":"asia","code":null,"archived":false,"percentageOfSessions":null}, {"name":"Карым","state":"Altai (Republic)","territory":"","country":"Russia","latitude":51.7415523,"longitude":85.8277234,"population":75,"stateCapital":false,"nationalCapital":false,"pk":null,"quiz":"asia","code":null,"archived":false,"percentageOfSessions":null}, {"name":"Каспа","state":"Altai (Republic)","territory":"","country":"Russia","latitude":51.1162134,"longitude":86.0074491,"population":360,"stateCapital":false,"nationalCapital":false,"pk":null,"quiz":"asia","code":null,"archived":false,"percentageOfSessions":null}, {"name":"Кастахта","state":"Altai (Republic)","territory":"","country":"Russia","latitude":50.3217632,"longitude":85.736462,"population":149,"stateCapital":false,"nationalCapital":false,"pk":null,"quiz":"asia","code":null,"archived":false,"percentageOfSessions":null}, {"name":"Катанда","state":"Altai (Republic)","territory":"","country":"Russia","latitude":50.1674347,"longitude":86.1769294,"population":1038,"stateCapital":false,"nationalCapital":false,"pk":null,"quiz":"asia","code":null,"archived":false,"percentageOfSessions":null}, {"name":"Каянча","state":"Altai (Republic)","territory":"","country":"Russia","latitude":50.8133278,"longitude":86.4203473,"population":0,"stateCapital":false,"nationalCapital":false,"pk":null,"quiz":"asia","code":null,"archived":false,"percentageOfSessions":null}, {"name":"Каярлык","state":"Altai (Republic)","territory":"","country":"Russia","latitude":50.6847582,"longitude":85.5774494,"population":200,"stateCapital":false,"nationalCapital":false,"pk":null,"quiz":"asia","code":null,"archived":false,"percentageOfSessions":null}, {"name":"Каяшкан","state":"Altai (Republic)","territory":"","country":"Russia","latitude":52.3756734,"longitude":87.3623281,"population":143,"stateCapital":false,"nationalCapital":false,"pk":null,"quiz":"asia","code":null,"archived":false,"percentageOfSessions":null}, {"name":"Кебезень","state":"Altai (Republic)","territory":"","country":"Russia","latitude":51.9101901,"longitude":87.1040466,"population":661,"stateCapital":false,"nationalCapital":false,"pk":null,"quiz":"asia","code":null,"archived":false,"percentageOfSessions":null}, {"name":"Келей","state":"Altai (Republic)","territory":"","country":"Russia","latitude":51.1807562,"longitude":84.7560869,"population":162,"stateCapital":false,"nationalCapital":false,"pk":null,"quiz":"asia","code":null,"archived":false,"percentageOfSessions":null}, {"name":"Киска","state":"Altai (Republic)","territory":"","country":"Russia","latitude":52.0600455,"longitude":86.4858333,"population":162,"stateCapital":false,"nationalCapital":false,"pk":null,"quiz":"asia","code":null,"archived":false,"percentageOfSessions":null}, {"name":"Козуль","state":"Altai (Republic)","territory":"","country":"Russia","latitude":50.9724436,"longitude":84.6865378,"population":535,"stateCapital":false,"nationalCapital":false,"pk":null,"quiz":"asia","code":null,"archived":false,"percentageOfSessions":null}, {"name":"Кокоря","state":"Altai (Republic)","territory":"","country":"Russia","latitude":49.913734,"longitude":89.001228,"population":1056,"stateCapital":false,"nationalCapital":false,"pk":null,"quiz":"asia","code":null,"archived":false,"percentageOfSessions":null}, {"name":"Кок-Паш","state":"Altai (Republic)","territory":"","country":"Russia","latitude":51.1837389,"longitude":87.7664683,"population":20,"stateCapital":false,"nationalCapital":false,"pk":null,"quiz":"asia","code":null,"archived":false,"percentageOfSessions":null}, {"name":"Коо","state":"Altai (Republic)","territory":"","country":"Russia","latitude":51.0982977,"longitude":87.8976942,"population":240,"stateCapital":false,"nationalCapital":false,"pk":null,"quiz":"asia","code":null,"archived":false,"percentageOfSessions":null}, {"name":"Коргон","state":"Altai (Republic)","territory":"","country":"Russia","latitude":51.0939796,"longitude":84.0451819,"population":402,"stateCapital":false,"nationalCapital":false,"pk":null,"quiz":"asia","code":null,"archived":false,"percentageOfSessions":null}, {"name":"Кош-Агач","state":"Altai (Republic)","territory":"","country":"Russia","latitude":49.9947055,"longitude":88.6628218,"population":7900,"stateCapital":false,"nationalCapital":false,"pk":null,"quiz":"asia","code":null,"archived":false,"percentageOfSessions":null}, {"name":"Красносельск","state":"Altai (Republic)","territory":"","country":"Russia","latitude":51.8098691,"longitude":86.7943324,"population":214,"stateCapital":false,"nationalCapital":false,"pk":null,"quiz":"asia","code":null,"archived":false,"percentageOfSessions":null}, {"name":"Красноярка","state":"Altai (Republic)","territory":"","country":"Russia","latitude":50.3098419,"longitude":85.272263,"population":60,"stateCapital":false,"nationalCapital":false,"pk":null,"quiz":"asia","code":null,"archived":false,"percentageOfSessions":null}, {"name":"Красноярка","state":"Altai (Republic)","territory":"","country":"Russia","latitude":50.3098419,"longitude":85.272263,"population":0,"stateCapital":false,"nationalCapital":false,"pk":null,"quiz":"asia","code":null,"archived":false,"percentageOfSessions":null}, {"name":"Кузя","state":"Altai (Republic)","territory":"","country":"Russia","latitude":51.7591639,"longitude":86.7208416,"population":34,"stateCapital":false,"nationalCapital":false,"pk":null,"quiz":"asia","code":null,"archived":false,"percentageOfSessions":null}, {"name":"Кукуя","state":"Altai (Republic)","territory":"","country":"Russia","latitude":51.4563325,"longitude":85.2941587,"population":37,"stateCapital":false,"nationalCapital":false,"pk":null,"quiz":"asia","code":null,"archived":false,"percentageOfSessions":null}, {"name":"Кулада","state":"Altai (Republic)","territory":"","country":"Russia","latitude":50.6878655,"longitude":85.7865715,"population":532,"stateCapital":false,"nationalCapital":false,"pk":null,"quiz":"asia","code":null,"archived":false,"percentageOfSessions":null}, {"name":"Кумалыр","state":"Altai (Republic)","territory":"","country":"Russia","latitude":51.2062536,"longitude":85.6207145,"population":165,"stateCapital":false,"nationalCapital":false,"pk":null,"quiz":"asia","code":null,"archived":false,"percentageOfSessions":null}, {"name":"Купчегень","state":"Altai (Republic)","territory":"","country":"Russia","latitude":50.6200073,"longitude":86.4253135,"population":574,"stateCapital":false,"nationalCapital":false,"pk":null,"quiz":"asia","code":null,"archived":false,"percentageOfSessions":null}, {"name":"Курай","state":"Altai (Republic)","territory":"","country":"Russia","latitude":50.232323,"longitude":87.935722,"population":514,"stateCapital":false,"nationalCapital":false,"pk":null,"quiz":"asia","code":null,"archived":false,"percentageOfSessions":null}, {"name":"Курдюм","state":"Altai (Republic)","territory":"","country":"Russia","latitude":50.3990685,"longitude":84.5709381,"population":34,"stateCapital":false,"nationalCapital":false,"pk":null,"quiz":"asia","code":null,"archived":false,"percentageOfSessions":null}, {"name":"Курмач-Байгол","state":"Altai (Republic)","territory":"","country":"Russia","latitude":52.1251372,"longitude":87.6589396,"population":214,"stateCapital":false,"nationalCapital":false,"pk":null,"quiz":"asia","code":null,"archived":false,"percentageOfSessions":null}, {"name":"Курота","state":"Altai (Republic)","territory":"","country":"Russia","latitude":50.8140968,"longitude":85.9691123,"population":350,"stateCapital":false,"nationalCapital":false,"pk":null,"quiz":"asia","code":null,"archived":false,"percentageOfSessions":null}, {"name":"Курунда","state":"Altai (Republic)","territory":"","country":"Russia","latitude":50.3230918,"longitude":85.7651137,"population":228,"stateCapital":false,"nationalCapital":false,"pk":null,"quiz":"asia","code":null,"archived":false,"percentageOfSessions":null}, {"name":"Кучерла","state":"Altai (Republic)","territory":"","country":"Russia","latitude":50.1439019,"longitude":86.3248828,"population":210,"stateCapital":false,"nationalCapital":false,"pk":null,"quiz":"asia","code":null,"archived":false,"percentageOfSessions":null}, {"name":"Куюс","state":"Altai (Republic)","territory":"","country":"Russia","latitude":51.02697,"longitude":86.23381,"population":229,"stateCapital":false,"nationalCapital":false,"pk":null,"quiz":"asia","code":null,"archived":false,"percentageOfSessions":null}, {"name":"Кызыл-Озек","state":"Altai (Republic)","territory":"","country":"Russia","latitude":51.8924438,"longitude":85.9949911,"population":4052,"stateCapital":false,"nationalCapital":false,"pk":null,"quiz":"asia","code":null,"archived":false,"percentageOfSessions":null}, {"name":"Кызыл-Таш","state":"Altai (Republic)","territory":"","country":"Russia","latitude":50.215996,"longitude":87.9389403,"population":766,"stateCapital":false,"nationalCapital":false,"pk":null,"quiz":"asia","code":null,"archived":false,"percentageOfSessions":null}, {"name":"Кырлык","state":"Altai (Republic)","territory":"","country":"Russia","latitude":50.8055937,"longitude":84.9462522,"population":1086,"stateCapital":false,"nationalCapital":false,"pk":null,"quiz":"asia","code":null,"archived":false,"percentageOfSessions":null}, {"name":"Лебедское","state":"Altai (Republic)","territory":"","country":"Russia","latitude":52.2993559,"longitude":87.1123645,"population":0,"stateCapital":false,"nationalCapital":false,"pk":null,"quiz":"asia","code":null,"archived":false,"percentageOfSessions":null}, {"name":"Левинка","state":"Altai (Republic)","territory":"","country":"Russia","latitude":51.9837905,"longitude":86.4227353,"population":24,"stateCapital":false,"nationalCapital":false,"pk":null,"quiz":"asia","code":null,"archived":false,"percentageOfSessions":null}, {"name":"Майма","state":"Altai (Republic)","territory":"","country":"Russia","latitude":52.004684,"longitude":85.898743,"population":16174,"stateCapital":false,"nationalCapital":false,"pk":null,"quiz":"asia","code":null,"archived":false,"percentageOfSessions":null}, {"name":"Майск","state":"Altai (Republic)","territory":"","country":"Russia","latitude":52.330456,"longitude":88.145279,"population":185,"stateCapital":false,"nationalCapital":false,"pk":null,"quiz":"asia","code":null,"archived":false,"percentageOfSessions":null}, {"name":"Малая Иня","state":"Altai (Republic)","territory":"","country":"Russia","latitude":50.4527976,"longitude":86.666746,"population":208,"stateCapital":false,"nationalCapital":false,"pk":null,"quiz":"asia","code":null,"archived":false,"percentageOfSessions":null}, {"name":"Малая Черга","state":"Altai (Republic)","territory":"","country":"Russia","latitude":51.3430296,"longitude":85.5514938,"population":274,"stateCapital":false,"nationalCapital":false,"pk":null,"quiz":"asia","code":null,"archived":false,"percentageOfSessions":null}, {"name":"Малый Яломан","state":"Altai (Republic)","territory":"","country":"Russia","latitude":50.4972159,"longitude":86.5755771,"population":219,"stateCapital":false,"nationalCapital":false,"pk":null,"quiz":"asia","code":null,"archived":false,"percentageOfSessions":null}, {"name":"Манжерок","state":"Altai (Republic)","territory":"","country":"Russia","latitude":51.8296084,"longitude":85.7792275,"population":1535,"stateCapital":false,"nationalCapital":false,"pk":null,"quiz":"asia","code":null,"archived":false,"percentageOfSessions":null}, {"name":"Мараловодка","state":"Altai (Republic)","territory":"","country":"Russia","latitude":50.1181648,"longitude":85.4636156,"population":241,"stateCapital":false,"nationalCapital":false,"pk":null,"quiz":"asia","code":null,"archived":false,"percentageOfSessions":null}, {"name":"Маральник-1","state":"Altai (Republic)","territory":"","country":"Russia","latitude":50.1019742,"longitude":85.8934441,"population":55,"stateCapital":false,"nationalCapital":false,"pk":null,"quiz":"asia","code":null,"archived":false,"percentageOfSessions":null}, {"name":"Маральник-2","state":"Altai (Republic)","territory":"","country":"Russia","latitude":50.2227464,"longitude":86.0451502,"population":14,"stateCapital":false,"nationalCapital":false,"pk":null,"quiz":"asia","code":null,"archived":false,"percentageOfSessions":null}, {"name":"Маргала","state":"Altai (Republic)","territory":"","country":"Russia","latitude":50.2583104,"longitude":86.0016578,"population":123,"stateCapital":false,"nationalCapital":false,"pk":null,"quiz":"asia","code":null,"archived":false,"percentageOfSessions":null}, {"name":"Мариинск","state":"Altai (Republic)","territory":"","country":"Russia","latitude":51.4059888,"longitude":84.9642861,"population":200,"stateCapital":false,"nationalCapital":false,"pk":null,"quiz":"asia","code":null,"archived":false,"percentageOfSessions":null}, {"name":"Мендур-Соккон","state":"Altai (Republic)","territory":"","country":"Russia","latitude":50.795949,"longitude":84.8127657,"population":719,"stateCapital":false,"nationalCapital":false,"pk":null,"quiz":"asia","code":null,"archived":false,"percentageOfSessions":null}, {"name":"Могута","state":"Altai (Republic)","territory":"","country":"Russia","latitude":51.5396582,"longitude":85.4217284,"population":37,"stateCapital":false,"nationalCapital":false,"pk":null,"quiz":"asia","code":null,"archived":false,"percentageOfSessions":null}, {"name":"Мульта","state":"Altai (Republic)","territory":"","country":"Russia","latitude":50.1691036,"longitude":85.9588012,"population":706,"stateCapital":false,"nationalCapital":false,"pk":null,"quiz":"asia","code":null,"archived":false,"percentageOfSessions":null}, {"name":"Мухор-Тархата","state":"Altai (Republic)","territory":"","country":"Russia","latitude":49.9879,"longitude":88.533943,"population":910,"stateCapital":false,"nationalCapital":false,"pk":null,"quiz":"asia","code":null,"archived":false,"percentageOfSessions":null}, {"name":"Мухор-Черга","state":"Altai (Republic)","territory":"","country":"Russia","latitude":51.4064962,"longitude":85.3460306,"population":137,"stateCapital":false,"nationalCapital":false,"pk":null,"quiz":"asia","code":null,"archived":false,"percentageOfSessions":null}, {"name":"Мыюта","state":"Altai (Republic)","territory":"","country":"Russia","latitude":51.4167109,"longitude":85.6211885,"population":284,"stateCapital":false,"nationalCapital":false,"pk":null,"quiz":"asia","code":null,"archived":false,"percentageOfSessions":null}, {"name":"Нефтебаза","state":"Altai (Republic)","territory":"","country":"Russia","latitude":50.85278,"longitude":85.8325074,"population":81,"stateCapital":false,"nationalCapital":false,"pk":null,"quiz":"asia","code":null,"archived":false,"percentageOfSessions":null}, {"name":"Нижний Куюм","state":"Altai (Republic)","territory":"","country":"Russia","latitude":51.56797,"longitude":86.09481,"population":16,"stateCapital":false,"nationalCapital":false,"pk":null,"quiz":"asia","code":null,"archived":false,"percentageOfSessions":null}, {"name":"Нижний Уймон","state":"Altai (Republic)","territory":"","country":"Russia","latitude":50.2023886,"longitude":85.9298658,"population":184,"stateCapital":false,"nationalCapital":false,"pk":null,"quiz":"asia","code":null,"archived":false,"percentageOfSessions":null}, {"name":"Нижняя Талда","state":"Altai (Republic)","territory":"","country":"Russia","latitude":50.8519238,"longitude":85.981286,"population":533,"stateCapital":false,"nationalCapital":false,"pk":null,"quiz":"asia","code":null,"archived":false,"percentageOfSessions":null}, {"name":"Никольское","state":"Altai (Republic)","territory":"","country":"Russia","latitude":51.7816078,"longitude":86.6003674,"population":3,"stateCapital":false,"nationalCapital":false,"pk":null,"quiz":"asia","code":null,"archived":false,"percentageOfSessions":null}, {"name":"Ново-Троицк","state":"Altai (Republic)","territory":"","country":"Russia","latitude":51.7593235,"longitude":87.0998204,"population":46,"stateCapital":false,"nationalCapital":false,"pk":null,"quiz":"asia","code":null,"archived":false,"percentageOfSessions":null}, {"name":"Новый Бельтир","state":"Altai (Republic)","territory":"","country":"Russia","latitude":49.9293048,"longitude":88.6031419,"population":904,"stateCapital":false,"nationalCapital":false,"pk":null,"quiz":"asia","code":null,"archived":false,"percentageOfSessions":null}, {"name":"Огневка","state":"Altai (Republic)","territory":"","country":"Russia","latitude":50.2310837,"longitude":85.510883,"population":644,"stateCapital":false,"nationalCapital":false,"pk":null,"quiz":"asia","code":null,"archived":false,"percentageOfSessions":null}, {"name":"Огни","state":"Altai (Republic)","territory":"","country":"Russia","latitude":52.1297965,"longitude":87.0769379,"population":21,"stateCapital":false,"nationalCapital":false,"pk":null,"quiz":"asia","code":null,"archived":false,"percentageOfSessions":null}, {"name":"Озерное","state":"Altai (Republic)","territory":"","country":"Russia","latitude":51.814701,"longitude":85.7990141,"population":170,"stateCapital":false,"nationalCapital":false,"pk":null,"quiz":"asia","code":null,"archived":false,"percentageOfSessions":null}, {"name":"Озерное","state":"Altai (Republic)","territory":"","country":"Russia","latitude":50.9079045,"longitude":85.5787024,"population":258,"stateCapital":false,"nationalCapital":false,"pk":null,"quiz":"asia","code":null,"archived":false,"percentageOfSessions":null}, {"name":"Озерное","state":"Altai (Republic)","territory":"","country":"Russia","latitude":50.9978923,"longitude":84.7638264,"population":181,"stateCapital":false,"nationalCapital":false,"pk":null,"quiz":"asia","code":null,"archived":false,"percentageOfSessions":null}, {"name":"Озеро-Куреево","state":"Altai (Republic)","territory":"","country":"Russia","latitude":52.4644736,"longitude":86.7508829,"population":381,"stateCapital":false,"nationalCapital":false,"pk":null,"quiz":"asia","code":null,"archived":false,"percentageOfSessions":null}, {"name":"Октябрьское","state":"Altai (Republic)","territory":"","country":"Russia","latitude":50.2407811,"longitude":85.7251396,"population":248,"stateCapital":false,"nationalCapital":false,"pk":null,"quiz":"asia","code":null,"archived":false,"percentageOfSessions":null}, {"name":"Онгудай","state":"Altai (Republic)","territory":"","country":"Russia","latitude":50.7495872,"longitude":86.1335256,"population":5655,"stateCapital":false,"nationalCapital":false,"pk":null,"quiz":"asia","code":null,"archived":false,"percentageOfSessions":null}, {"name":"Оро","state":"Altai (Republic)","territory":"","country":"Russia","latitude":50.9114424,"longitude":85.0020598,"population":230,"stateCapital":false,"nationalCapital":false,"pk":null,"quiz":"asia","code":null,"archived":false,"percentageOfSessions":null}, {"name":"Ороктой","state":"Altai (Republic)","territory":"","country":"Russia","latitude":51.0554047,"longitude":86.1134838,"population":229,"stateCapital":false,"nationalCapital":false,"pk":null,"quiz":"asia","code":null,"archived":false,"percentageOfSessions":null}, {"name":"Ортолык","state":"Altai (Republic)","territory":"","country":"Russia","latitude":50.0354722,"longitude":88.5003607,"population":688,"stateCapital":false,"nationalCapital":false,"pk":null,"quiz":"asia","code":null,"archived":false,"percentageOfSessions":null}, {"name":"Паспарта","state":"Altai (Republic)","territory":"","country":"Russia","latitude":50.8374239,"longitude":87.884833,"population":317,"stateCapital":false,"nationalCapital":false,"pk":null,"quiz":"asia","code":null,"archived":false,"percentageOfSessions":null}, {"name":"Паспаул","state":"Altai (Republic)","territory":"","country":"Russia","latitude":51.9376061,"longitude":86.346281,"population":1160,"stateCapital":false,"nationalCapital":false,"pk":null,"quiz":"asia","code":null,"archived":false,"percentageOfSessions":null}, {"name":"Подгорное","state":"Altai (Republic)","territory":"","country":"Russia","latitude":52.0326576,"longitude":85.8883698,"population":472,"stateCapital":false,"nationalCapital":false,"pk":null,"quiz":"asia","code":null,"archived":false,"percentageOfSessions":null}, {"name":"Полеводка","state":"Altai (Republic)","territory":"","country":"Russia","latitude":50.2291136,"longitude":85.9923376,"population":78,"stateCapital":false,"nationalCapital":false,"pk":null,"quiz":"asia","code":null,"archived":false,"percentageOfSessions":null}, {"name":"Рыбалка","state":"Altai (Republic)","territory":"","country":"Russia","latitude":51.9166112,"longitude":85.8618254,"population":43,"stateCapital":false,"nationalCapital":false,"pk":null,"quiz":"asia","code":null,"archived":false,"percentageOfSessions":null}, {"name":"Салганда","state":"Altai (Republic)","territory":"","country":"Russia","latitude":51.8530932,"longitude":86.3238612,"population":34,"stateCapital":false,"nationalCapital":false,"pk":null,"quiz":"asia","code":null,"archived":false,"percentageOfSessions":null}, {"name":"Санаровка","state":"Altai (Republic)","territory":"","country":"Russia","latitude":51.0660915,"longitude":84.3886041,"population":118,"stateCapital":false,"nationalCapital":false,"pk":null,"quiz":"asia","code":null,"archived":false,"percentageOfSessions":null}, {"name":"Санькин Аил","state":"Altai (Republic)","territory":"","country":"Russia","latitude":52.187553,"longitude":87.104103,"population":102,"stateCapital":false,"nationalCapital":false,"pk":null,"quiz":"asia","code":null,"archived":false,"percentageOfSessions":null}, {"name":"Саратан","state":"Altai (Republic)","territory":"","country":"Russia","latitude":50.5217125,"longitude":88.2626024,"population":738,"stateCapital":false,"nationalCapital":false,"pk":null,"quiz":"asia","code":null,"archived":false,"percentageOfSessions":null}, {"name":"Сахсабай","state":"Altai (Republic)","territory":"","country":"Russia","latitude":50.1969672,"longitude":85.516238,"population":17,"stateCapital":false,"nationalCapital":false,"pk":null,"quiz":"asia","code":null,"archived":false,"percentageOfSessions":null}, {"name":"Сейка","state":"Altai (Republic)","territory":"","country":"Russia","latitude":51.8823021,"longitude":86.7347553,"population":1520,"stateCapital":false,"nationalCapital":false,"pk":null,"quiz":"asia","code":null,"archived":false,"percentageOfSessions":null}, {"name":"Синий Яр","state":"Altai (Republic)","territory":"","country":"Russia","latitude":50.3001317,"longitude":85.4435145,"population":7,"stateCapital":false,"nationalCapital":false,"pk":null,"quiz":"asia","code":null,"archived":false,"percentageOfSessions":null}, {"name":"Советский Байгол","state":"Altai (Republic)","territory":"","country":"Russia","latitude":52.2022528,"longitude":87.4454464,"population":12,"stateCapital":false,"nationalCapital":false,"pk":null,"quiz":"asia","code":null,"archived":false,"percentageOfSessions":null}, {"name":"Советское","state":"Altai (Republic)","territory":"","country":"Russia","latitude":52.034634,"longitude":86.615822,"population":108,"stateCapital":false,"nationalCapital":false,"pk":null,"quiz":"asia","code":null,"archived":false,"percentageOfSessions":null}, {"name":"Соузар","state":"Altai (Republic)","territory":"","country":"Russia","latitude":50.445279,"longitude":84.8615097,"population":30,"stateCapital":false,"nationalCapital":false,"pk":null,"quiz":"asia","code":null,"archived":false,"percentageOfSessions":null}, {"name":"Соузга","state":"Altai (Republic)","territory":"","country":"Russia","latitude":51.886547,"longitude":85.849403,"population":1146,"stateCapital":false,"nationalCapital":false,"pk":null,"quiz":"asia","code":null,"archived":false,"percentageOfSessions":null}, {"name":"Средний Сайдыс","state":"Altai (Republic)","territory":"","country":"Russia","latitude":51.7634912,"longitude":86.1523653,"population":194,"stateCapital":false,"nationalCapital":false,"pk":null,"quiz":"asia","code":null,"archived":false,"percentageOfSessions":null}, {"name":"Старый Кебезень","state":"Altai (Republic)","territory":"","country":"Russia","latitude":51.9129499,"longitude":87.1218691,"population":153,"stateCapital":false,"nationalCapital":false,"pk":null,"quiz":"asia","code":null,"archived":false,"percentageOfSessions":null}, {"name":"Стретинка","state":"Altai (Republic)","territory":"","country":"Russia","latitude":52.2506566,"longitude":87.2355198,"population":0,"stateCapital":false,"nationalCapital":false,"pk":null,"quiz":"asia","code":null,"archived":false,"percentageOfSessions":null}, {"name":"Сугаш","state":"Altai (Republic)","territory":"","country":"Russia","latitude":50.5688975,"longitude":84.9560577,"population":576,"stateCapital":false,"nationalCapital":false,"pk":null,"quiz":"asia","code":null,"archived":false,"percentageOfSessions":null}, {"name":"Сугул","state":"Altai (Republic)","territory":"","country":"Russia","latitude":51.9440709,"longitude":86.2676864,"population":54,"stateCapital":false,"nationalCapital":false,"pk":null,"quiz":"asia","code":null,"archived":false,"percentageOfSessions":null}, {"name":"Суранаш","state":"Altai (Republic)","territory":"","country":"Russia","latitude":52.2935506,"longitude":87.7569744,"population":44,"stateCapital":false,"nationalCapital":false,"pk":null,"quiz":"asia","code":null,"archived":false,"percentageOfSessions":null}, {"name":"Сухой Карасук","state":"Altai (Republic)","territory":"","country":"Russia","latitude":51.9015226,"longitude":86.2009004,"population":5,"stateCapital":false,"nationalCapital":false,"pk":null,"quiz":"asia","code":null,"archived":false,"percentageOfSessions":null}, {"name":"Сюря","state":"Altai (Republic)","territory":"","country":"Russia","latitude":51.905245,"longitude":87.0531578,"population":4,"stateCapital":false,"nationalCapital":false,"pk":null,"quiz":"asia","code":null,"archived":false,"percentageOfSessions":null}, {"name":"Талда","state":"Altai (Republic)","territory":"","country":"Russia","latitude":50.8417939,"longitude":85.7673747,"population":138,"stateCapital":false,"nationalCapital":false,"pk":null,"quiz":"asia","code":null,"archived":false,"percentageOfSessions":null}, {"name":"Талда","state":"Altai (Republic)","territory":"","country":"Russia","latitude":50.5054124,"longitude":85.0213105,"population":712,"stateCapital":false,"nationalCapital":false,"pk":null,"quiz":"asia","code":null,"archived":false,"percentageOfSessions":null}, {"name":"Талица","state":"Altai (Republic)","territory":"","country":"Russia","latitude":51.0372887,"longitude":84.3075025,"population":125,"stateCapital":false,"nationalCapital":false,"pk":null,"quiz":"asia","code":null,"archived":false,"percentageOfSessions":null}, {"name":"Талон","state":"Altai (Republic)","territory":"","country":"Russia","latitude":52.339812,"longitude":88.362871,"population":32,"stateCapital":false,"nationalCapital":false,"pk":null,"quiz":"asia","code":null,"archived":false,"percentageOfSessions":null}, {"name":"Ташанта","state":"Altai (Republic)","territory":"","country":"Russia","latitude":49.717453,"longitude":89.192589,"population":550,"stateCapital":false,"nationalCapital":false,"pk":null,"quiz":"asia","code":null,"archived":false,"percentageOfSessions":null}, {"name":"Теленгит-Сортогой","state":"Altai (Republic)","territory":"","country":"Russia","latitude":50.0117903,"longitude":88.7478743,"population":658,"stateCapital":false,"nationalCapital":false,"pk":null,"quiz":"asia","code":null,"archived":false,"percentageOfSessions":null}, {"name":"Теньга","state":"Altai (Republic)","territory":"","country":"Russia","latitude":50.8374015,"longitude":85.6565889,"population":643,"stateCapital":false,"nationalCapital":false,"pk":null,"quiz":"asia","code":null,"archived":false,"percentageOfSessions":null}, {"name":"Теректа","state":"Altai (Republic)","territory":"","country":"Russia","latitude":50.2937144,"longitude":85.8739998,"population":449,"stateCapital":false,"nationalCapital":false,"pk":null,"quiz":"asia","code":null,"archived":false,"percentageOfSessions":null}, {"name":"Тихонькая","state":"Altai (Republic)","territory":"","country":"Russia","latitude":50.2044349,"longitude":85.7985611,"population":425,"stateCapital":false,"nationalCapital":false,"pk":null,"quiz":"asia","code":null,"archived":false,"percentageOfSessions":null}, {"name":"Тобелер","state":"Altai (Republic)","territory":"","country":"Russia","latitude":49.9135841,"longitude":88.7949821,"population":1058,"stateCapital":false,"nationalCapital":false,"pk":null,"quiz":"asia","code":null,"archived":false,"percentageOfSessions":null}, {"name":"Толгоек","state":"Altai (Republic)","territory":"","country":"Russia","latitude":51.340599,"longitude":86.058212,"population":142,"stateCapital":false,"nationalCapital":false,"pk":null,"quiz":"asia","code":null,"archived":false,"percentageOfSessions":null}, {"name":"Тондошка","state":"Altai (Republic)","territory":"","country":"Russia","latitude":52.1208895,"longitude":87.1119895,"population":329,"stateCapital":false,"nationalCapital":false,"pk":null,"quiz":"asia","code":null,"archived":false,"percentageOfSessions":null}, {"name":"Топучая","state":"Altai (Republic)","territory":"","country":"Russia","latitude":51.1250961,"longitude":85.5859526,"population":209,"stateCapital":false,"nationalCapital":false,"pk":null,"quiz":"asia","code":null,"archived":false,"percentageOfSessions":null}, {"name":"Туекта","state":"Altai (Republic)","territory":"","country":"Russia","latitude":50.8386297,"longitude":85.8794031,"population":360,"stateCapital":false,"nationalCapital":false,"pk":null,"quiz":"asia","code":null,"archived":false,"percentageOfSessions":null}, {"name":"Тулой","state":"Altai (Republic)","territory":"","country":"Russia","latitude":52.0054569,"longitude":87.1235309,"population":224,"stateCapital":false,"nationalCapital":false,"pk":null,"quiz":"asia","code":null,"archived":false,"percentageOfSessions":null}, {"name":"Туньжа","state":"Altai (Republic)","territory":"","country":"Russia","latitude":52.0081419,"longitude":86.4634131,"population":238,"stateCapital":false,"nationalCapital":false,"pk":null,"quiz":"asia","code":null,"archived":false,"percentageOfSessions":null}, {"name":"Турата","state":"Altai (Republic)","territory":"","country":"Russia","latitude":51.315492,"longitude":84.7687415,"population":192,"stateCapital":false,"nationalCapital":false,"pk":null,"quiz":"asia","code":null,"archived":false,"percentageOfSessions":null}, {"name":"Турбаза Катунь","state":"Altai (Republic)","territory":"","country":"Russia","latitude":51.5454,"longitude":85.9071666,"population":111,"stateCapital":false,"nationalCapital":false,"pk":null,"quiz":"asia","code":null,"archived":false,"percentageOfSessions":null}, {"name":"Турбаза Юность","state":"Altai (Republic)","territory":"","country":"Russia","latitude":51.8760603,"longitude":85.8001061,"population":45,"stateCapital":false,"nationalCapital":false,"pk":null,"quiz":"asia","code":null,"archived":false,"percentageOfSessions":null}, {"name":"Турочак","state":"Altai (Republic)","territory":"","country":"Russia","latitude":52.259956,"longitude":87.117538,"population":5582,"stateCapital":false,"nationalCapital":false,"pk":null,"quiz":"asia","code":null,"archived":false,"percentageOfSessions":null}, {"name":"Тюгурюк","state":"Altai (Republic)","territory":"","country":"Russia","latitude":50.3011581,"longitude":85.4039552,"population":327,"stateCapital":false,"nationalCapital":false,"pk":null,"quiz":"asia","code":null,"archived":false,"percentageOfSessions":null}, {"name":"Тюдрала","state":"Altai (Republic)","territory":"","country":"Russia","latitude":50.9930821,"longitude":84.4842376,"population":332,"stateCapital":false,"nationalCapital":false,"pk":null,"quiz":"asia","code":null,"archived":false,"percentageOfSessions":null}, {"name":"Тюнгур","state":"Altai (Republic)","territory":"","country":"Russia","latitude":50.1610069,"longitude":86.3065341,"population":397,"stateCapital":false,"nationalCapital":false,"pk":null,"quiz":"asia","code":null,"archived":false,"percentageOfSessions":null}, {"name":"Удаловка","state":"Altai (Republic)","territory":"","country":"Russia","latitude":52.3549614,"longitude":86.9417456,"population":180,"stateCapital":false,"nationalCapital":false,"pk":null,"quiz":"asia","code":null,"archived":false,"percentageOfSessions":null}, {"name":"Узнезя","state":"Altai (Republic)","territory":"","country":"Russia","latitude":51.5254227,"longitude":85.9424926,"population":452,"stateCapital":false,"nationalCapital":false,"pk":null,"quiz":"asia","code":null,"archived":false,"percentageOfSessions":null}, {"name":"Уймень","state":"Altai (Republic)","territory":"","country":"Russia","latitude":51.6579953,"longitude":86.9202667,"population":372,"stateCapital":false,"nationalCapital":false,"pk":null,"quiz":"asia","code":null,"archived":false,"percentageOfSessions":null}, {"name":"Улаган","state":"Altai (Republic)","territory":"","country":"Russia","latitude":50.6317434,"longitude":87.9561929,"population":3222,"stateCapital":false,"nationalCapital":false,"pk":null,"quiz":"asia","code":null,"archived":false,"percentageOfSessions":null}, {"name":"Улалушка","state":"Altai (Republic)","territory":"","country":"Russia","latitude":51.941471,"longitude":86.079437,"population":11,"stateCapital":false,"nationalCapital":false,"pk":null,"quiz":"asia","code":null,"archived":false,"percentageOfSessions":null}, {"name":"Улита","state":"Altai (Republic)","territory":"","country":"Russia","latitude":50.7110317,"longitude":86.2120235,"population":255,"stateCapital":false,"nationalCapital":false,"pk":null,"quiz":"asia","code":null,"archived":false,"percentageOfSessions":null}, {"name":"Улужай","state":"Altai (Republic)","territory":"","country":"Russia","latitude":50.5468373,"longitude":84.605212,"population":0,"stateCapital":false,"nationalCapital":false,"pk":null,"quiz":"asia","code":null,"archived":false,"percentageOfSessions":null}, {"name":"Улусчерга","state":"Altai (Republic)","territory":"","country":"Russia","latitude":51.5116576,"longitude":85.4451385,"population":293,"stateCapital":false,"nationalCapital":false,"pk":null,"quiz":"asia","code":null,"archived":false,"percentageOfSessions":null}, {"name":"Уожан","state":"Altai (Republic)","territory":"","country":"Russia","latitude":51.32174,"longitude":86.1482109,"population":78,"stateCapital":false,"nationalCapital":false,"pk":null,"quiz":"asia","code":null,"archived":false,"percentageOfSessions":null}, {"name":"Урлу-Аспак","state":"Altai (Republic)","territory":"","country":"Russia","latitude":51.686428,"longitude":86.210564,"population":408,"stateCapital":false,"nationalCapital":false,"pk":null,"quiz":"asia","code":null,"archived":false,"percentageOfSessions":null}, {"name":"Ускуч","state":"Altai (Republic)","territory":"","country":"Russia","latitude":52.0359023,"longitude":86.9080081,"population":353,"stateCapital":false,"nationalCapital":false,"pk":null,"quiz":"asia","code":null,"archived":false,"percentageOfSessions":null}, {"name":"Усть-Кан","state":"Altai (Republic)","territory":"","country":"Russia","latitude":50.932003,"longitude":84.765213,"population":4123,"stateCapital":false,"nationalCapital":false,"pk":null,"quiz":"asia","code":null,"archived":false,"percentageOfSessions":null}, {"name":"Усть-Кокса","state":"Altai (Republic)","territory":"","country":"Russia","latitude":50.2695927,"longitude":85.6155842,"population":4373,"stateCapital":false,"nationalCapital":false,"pk":null,"quiz":"asia","code":null,"archived":false,"percentageOfSessions":null}, {"name":"Усть-Кумир","state":"Altai (Republic)","territory":"","country":"Russia","latitude":51.0317219,"longitude":84.2836437,"population":484,"stateCapital":false,"nationalCapital":false,"pk":null,"quiz":"asia","code":null,"archived":false,"percentageOfSessions":null}, {"name":"Усть-Лебедь","state":"Altai (Republic)","territory":"","country":"Russia","latitude":52.2858521,"longitude":87.0328392,"population":3,"stateCapital":false,"nationalCapital":false,"pk":null,"quiz":"asia","code":null,"archived":false,"percentageOfSessions":null}, {"name":"Усть-Муны","state":"Altai (Republic)","territory":"","country":"Russia","latitude":51.722095,"longitude":85.762192,"population":437,"stateCapital":false,"nationalCapital":false,"pk":null,"quiz":"asia","code":null,"archived":false,"percentageOfSessions":null}, {"name":"Усть-Мута","state":"Altai (Republic)","territory":"","country":"Russia","latitude":51.2317515,"longitude":84.7544273,"population":521,"stateCapital":false,"nationalCapital":false,"pk":null,"quiz":"asia","code":null,"archived":false,"percentageOfSessions":null}, {"name":"Усть-Пыжа","state":"Altai (Republic)","territory":"","country":"Russia","latitude":51.8596926,"longitude":87.0911034,"population":162,"stateCapital":false,"nationalCapital":false,"pk":null,"quiz":"asia","code":null,"archived":false,"percentageOfSessions":null}, {"name":"Усть-Сема","state":"Altai (Republic)","territory":"","country":"Russia","latitude":51.641487,"longitude":85.762215,"population":401,"stateCapital":false,"nationalCapital":false,"pk":null,"quiz":"asia","code":null,"archived":false,"percentageOfSessions":null}, {"name":"Филиал","state":"Altai (Republic)","territory":"","country":"Russia","latitude":51.8392488,"longitude":86.0300647,"population":18,"stateCapital":false,"nationalCapital":false,"pk":null,"quiz":"asia","code":null,"archived":false,"percentageOfSessions":null}, {"name":"Хабаровка","state":"Altai (Republic)","territory":"","country":"Russia","latitude":50.6856792,"longitude":86.2884835,"population":305,"stateCapital":false,"nationalCapital":false,"pk":null,"quiz":"asia","code":null,"archived":false,"percentageOfSessions":null}, {"name":"Чаган-Узун","state":"Altai (Republic)","territory":"","country":"Russia","latitude":50.1026426,"longitude":88.3615013,"population":449,"stateCapital":false,"nationalCapital":false,"pk":null,"quiz":"asia","code":null,"archived":false,"percentageOfSessions":null}, {"name":"Чемал","state":"Altai (Republic)","territory":"","country":"Russia","latitude":51.4065933,"longitude":86.0037576,"population":3602,"stateCapital":false,"nationalCapital":false,"pk":null,"quiz":"asia","code":null,"archived":false,"percentageOfSessions":null}, {"name":"Чендек","state":"Altai (Republic)","territory":"","country":"Russia","latitude":50.2640377,"longitude":85.953454,"population":928,"stateCapital":false,"nationalCapital":false,"pk":null,"quiz":"asia","code":null,"archived":false,"percentageOfSessions":null}, {"name":"Чепош","state":"Altai (Republic)","territory":"","country":"Russia","latitude":51.5883105,"longitude":85.8317792,"population":705,"stateCapital":false,"nationalCapital":false,"pk":null,"quiz":"asia","code":null,"archived":false,"percentageOfSessions":null}, {"name":"Черга","state":"Altai (Republic)","territory":"","country":"Russia","latitude":51.571728,"longitude":85.569879,"population":1826,"stateCapital":false,"nationalCapital":false,"pk":null,"quiz":"asia","code":null,"archived":false,"percentageOfSessions":null}, {"name":"Черемшанка","state":"Altai (Republic)","territory":"","country":"Russia","latitude":51.870026,"longitude":85.782997,"population":69,"stateCapital":false,"nationalCapital":false,"pk":null,"quiz":"asia","code":null,"archived":false,"percentageOfSessions":null}, {"name":"Черный Ануй","state":"Altai (Republic)","territory":"","country":"Russia","latitude":51.3572571,"longitude":84.7255316,"population":661,"stateCapital":false,"nationalCapital":false,"pk":null,"quiz":"asia","code":null,"archived":false,"percentageOfSessions":null}, {"name":"Чибиля","state":"Altai (Republic)","territory":"","country":"Russia","latitude":50.6221976,"longitude":87.9182094,"population":672,"stateCapital":false,"nationalCapital":false,"pk":null,"quiz":"asia","code":null,"archived":false,"percentageOfSessions":null}, {"name":"Чибит","state":"Altai (Republic)","territory":"","country":"Russia","latitude":50.31562,"longitude":87.5060451,"population":651,"stateCapital":false,"nationalCapital":false,"pk":null,"quiz":"asia","code":null,"archived":false,"percentageOfSessions":null}, {"name":"Чоя","state":"Altai (Republic)","territory":"","country":"Russia","latitude":52.0131939,"longitude":86.544221,"population":1916,"stateCapital":false,"nationalCapital":false,"pk":null,"quiz":"asia","code":null,"archived":false,"percentageOfSessions":null}, {"name":"Чуйка","state":"Altai (Republic)","territory":"","country":"Russia","latitude":51.9688843,"longitude":87.5092008,"population":99,"stateCapital":false,"nationalCapital":false,"pk":null,"quiz":"asia","code":null,"archived":false,"percentageOfSessions":null}, {"name":"Шашикман","state":"Altai (Republic)","territory":"","country":"Russia","latitude":50.7879644,"longitude":86.0580109,"population":752,"stateCapital":false,"nationalCapital":false,"pk":null,"quiz":"asia","code":null,"archived":false,"percentageOfSessions":null}, {"name":"Шебалино","state":"Altai (Republic)","territory":"","country":"Russia","latitude":51.2922638,"longitude":85.6739928,"population":4924,"stateCapital":false,"nationalCapital":false,"pk":null,"quiz":"asia","code":null,"archived":false,"percentageOfSessions":null}, {"name":"Шиба","state":"Altai (Republic)","territory":"","country":"Russia","latitude":50.848423,"longitude":85.7382164,"population":329,"stateCapital":false,"nationalCapital":false,"pk":null,"quiz":"asia","code":null,"archived":false,"percentageOfSessions":null}, {"name":"Шунарак","state":"Altai (Republic)","territory":"","country":"Russia","latitude":52.4569493,"longitude":86.8125065,"population":46,"stateCapital":false,"nationalCapital":false,"pk":null,"quiz":"asia","code":null,"archived":false,"percentageOfSessions":null}, {"name":"Шыргайту","state":"Altai (Republic)","territory":"","country":"Russia","latitude":51.2056367,"longitude":85.2896156,"population":539,"stateCapital":false,"nationalCapital":false,"pk":null,"quiz":"asia","code":null,"archived":false,"percentageOfSessions":null}, {"name":"Ынырга","state":"Altai (Republic)","territory":"","country":"Russia","latitude":51.8257768,"longitude":86.79284,"population":478,"stateCapital":false,"nationalCapital":false,"pk":null,"quiz":"asia","code":null,"archived":false,"percentageOfSessions":null}, {"name":"Эдиган","state":"Altai (Republic)","territory":"","country":"Russia","latitude":51.1100258,"longitude":86.2606135,"population":235,"stateCapital":false,"nationalCapital":false,"pk":null,"quiz":"asia","code":null,"archived":false,"percentageOfSessions":null}, {"name":"Элекмонар","state":"Altai (Republic)","territory":"","country":"Russia","latitude":51.4585813,"longitude":85.9880987,"population":1755,"stateCapital":false,"nationalCapital":false,"pk":null,"quiz":"asia","code":null,"archived":false,"percentageOfSessions":null}, {"name":"Юстик","state":"Altai (Republic)","territory":"","country":"Russia","latitude":50.3590412,"longitude":85.2344437,"population":311,"stateCapital":false,"nationalCapital":false,"pk":null,"quiz":"asia","code":null,"archived":false,"percentageOfSessions":null}, {"name":"Ябоган","state":"Altai (Republic)","territory":"","country":"Russia","latitude":50.910026,"longitude":85.0718406,"population":1430,"stateCapital":false,"nationalCapital":false,"pk":null,"quiz":"asia","code":null,"archived":false,"percentageOfSessions":null}, {"name":"Язула","state":"Altai (Republic)","territory":"","country":"Russia","latitude":50.6166643,"longitude":88.7741393,"population":254,"stateCapital":false,"nationalCapital":false,"pk":null,"quiz":"asia","code":null,"archived":false,"percentageOfSessions":null}, {"name":"Яйлю","state":"Altai (Republic)","territory":"","country":"Russia","latitude":51.7691107,"longitude":87.6035275,"population":187,"stateCapital":false,"nationalCapital":false,"pk":null,"quiz":"asia","code":null,"archived":false,"percentageOfSessions":null}, {"name":"Яконур","state":"Altai (Republic)","territory":"","country":"Russia","latitude":51.0371827,"longitude":84.8736202,"population":1661,"stateCapital":false,"nationalCapital":false,"pk":null,"quiz":"asia","code":null,"archived":false,"percentageOfSessions":null}],"startTimeMs":0}