{"cities":[{"name":"10-й разъезд","state":"Kemerovo","territory":"","country":"Russia","latitude":56.1467151,"longitude":87.8455209,"population":10,"stateCapital":false,"nationalCapital":false,"pk":null,"quiz":"asia","code":null,"archived":false,"percentageOfSessions":null}, {"name":"115 км","state":"Kemerovo","territory":"","country":"Russia","latitude":55.2473647,"longitude":85.7320822,"population":38,"stateCapital":false,"nationalCapital":false,"pk":null,"quiz":"asia","code":null,"archived":false,"percentageOfSessions":null}, {"name":"123 км","state":"Kemerovo","territory":"","country":"Russia","latitude":55.182837,"longitude":85.7424251,"population":29,"stateCapital":false,"nationalCapital":false,"pk":null,"quiz":"asia","code":null,"archived":false,"percentageOfSessions":null}, {"name":"13 км","state":"Kemerovo","territory":"","country":"Russia","latitude":55.3372184,"longitude":85.7527091,"population":41,"stateCapital":false,"nationalCapital":false,"pk":null,"quiz":"asia","code":null,"archived":false,"percentageOfSessions":null}, {"name":"130 км","state":"Kemerovo","territory":"","country":"Russia","latitude":55.1393723,"longitude":85.7987114,"population":47,"stateCapital":false,"nationalCapital":false,"pk":null,"quiz":"asia","code":null,"archived":false,"percentageOfSessions":null}, {"name":"137 км","state":"Kemerovo","territory":"","country":"Russia","latitude":55.0921099,"longitude":85.8478087,"population":16,"stateCapital":false,"nationalCapital":false,"pk":null,"quiz":"asia","code":null,"archived":false,"percentageOfSessions":null}, {"name":"139 км","state":"Kemerovo","territory":"","country":"Russia","latitude":55.708872,"longitude":84.6243979,"population":11,"stateCapital":false,"nationalCapital":false,"pk":null,"quiz":"asia","code":null,"archived":false,"percentageOfSessions":null}, {"name":"14 км","state":"Kemerovo","territory":"","country":"Russia","latitude":55.6142189,"longitude":84.7542718,"population":35,"stateCapital":false,"nationalCapital":false,"pk":null,"quiz":"asia","code":null,"archived":false,"percentageOfSessions":null}, {"name":"15 км","state":"Kemerovo","territory":"","country":"Russia","latitude":55.35129,"longitude":85.7840182,"population":0,"stateCapital":false,"nationalCapital":false,"pk":null,"quiz":"asia","code":null,"archived":false,"percentageOfSessions":null}, {"name":"168 км","state":"Kemerovo","territory":"","country":"Russia","latitude":54.8857381,"longitude":86.0905055,"population":0,"stateCapital":false,"nationalCapital":false,"pk":null,"quiz":"asia","code":null,"archived":false,"percentageOfSessions":null}, {"name":"169 км","state":"Kemerovo","territory":"","country":"Russia","latitude":54.877815,"longitude":86.100586,"population":2,"stateCapital":false,"nationalCapital":false,"pk":null,"quiz":"asia","code":null,"archived":false,"percentageOfSessions":null}, {"name":"189 км","state":"Kemerovo","territory":"","country":"Russia","latitude":54.74794,"longitude":86.186646,"population":25,"stateCapital":false,"nationalCapital":false,"pk":null,"quiz":"asia","code":null,"archived":false,"percentageOfSessions":null}, {"name":"1-й","state":"Kemerovo","territory":"","country":"Russia","latitude":56.0256656,"longitude":87.8168376,"population":1110,"stateCapital":false,"nationalCapital":false,"pk":null,"quiz":"asia","code":null,"archived":false,"percentageOfSessions":null}, {"name":"20 км","state":"Kemerovo","territory":"","country":"Russia","latitude":54.318306,"longitude":86.074532,"population":45,"stateCapital":false,"nationalCapital":false,"pk":null,"quiz":"asia","code":null,"archived":false,"percentageOfSessions":null}, {"name":"210 км","state":"Kemerovo","territory":"","country":"Russia","latitude":54.947425,"longitude":85.3874179,"population":3,"stateCapital":false,"nationalCapital":false,"pk":null,"quiz":"asia","code":null,"archived":false,"percentageOfSessions":null}, {"name":"23 км","state":"Kemerovo","territory":"","country":"Russia","latitude":55.5347956,"longitude":84.7857931,"population":21,"stateCapital":false,"nationalCapital":false,"pk":null,"quiz":"asia","code":null,"archived":false,"percentageOfSessions":null}, {"name":"239 км","state":"Kemerovo","territory":"","country":"Russia","latitude":54.8801717,"longitude":85.7751108,"population":20,"stateCapital":false,"nationalCapital":false,"pk":null,"quiz":"asia","code":null,"archived":false,"percentageOfSessions":null}, {"name":"251 км","state":"Kemerovo","territory":"","country":"Russia","latitude":54.8487034,"longitude":85.9516963,"population":8,"stateCapital":false,"nationalCapital":false,"pk":null,"quiz":"asia","code":null,"archived":false,"percentageOfSessions":null}, {"name":"2-й","state":"Kemerovo","territory":"","country":"Russia","latitude":56.0172393,"longitude":87.8018857,"population":33,"stateCapital":false,"nationalCapital":false,"pk":null,"quiz":"asia","code":null,"archived":false,"percentageOfSessions":null}, {"name":"31 км","state":"Kemerovo","territory":"","country":"Russia","latitude":55.4703705,"longitude":84.7580133,"population":70,"stateCapital":false,"nationalCapital":false,"pk":null,"quiz":"asia","code":null,"archived":false,"percentageOfSessions":null}, {"name":"324 км","state":"Kemerovo","territory":"","country":"Russia","latitude":56.162239,"longitude":86.982079,"population":0,"stateCapital":false,"nationalCapital":false,"pk":null,"quiz":"asia","code":null,"archived":false,"percentageOfSessions":null}, {"name":"326-го квартала","state":"Kemerovo","territory":"","country":"Russia","latitude":56.019812,"longitude":86.0918472,"population":194,"stateCapital":false,"nationalCapital":false,"pk":null,"quiz":"asia","code":null,"archived":false,"percentageOfSessions":null}, {"name":"348-го квартала","state":"Kemerovo","territory":"","country":"Russia","latitude":56.0148189,"longitude":86.0703364,"population":603,"stateCapital":false,"nationalCapital":false,"pk":null,"quiz":"asia","code":null,"archived":false,"percentageOfSessions":null}, {"name":"360 км","state":"Kemerovo","territory":"","country":"Russia","latitude":53.783794,"longitude":86.97007,"population":58,"stateCapital":false,"nationalCapital":false,"pk":null,"quiz":"asia","code":null,"archived":false,"percentageOfSessions":null}, {"name":"3669 км","state":"Kemerovo","territory":"","country":"Russia","latitude":56.159607,"longitude":87.074623,"population":0,"stateCapital":false,"nationalCapital":false,"pk":null,"quiz":"asia","code":null,"archived":false,"percentageOfSessions":null}, {"name":"3747 км","state":"Kemerovo","territory":"","country":"Russia","latitude":56.1765816,"longitude":88.2314116,"population":0,"stateCapital":false,"nationalCapital":false,"pk":null,"quiz":"asia","code":null,"archived":false,"percentageOfSessions":null}, {"name":"3755 км","state":"Kemerovo","territory":"","country":"Russia","latitude":56.1083312,"longitude":88.416424,"population":3,"stateCapital":false,"nationalCapital":false,"pk":null,"quiz":"asia","code":null,"archived":false,"percentageOfSessions":null}, {"name":"3-й","state":"Kemerovo","territory":"","country":"Russia","latitude":55.9762881,"longitude":87.7928848,"population":62,"stateCapital":false,"nationalCapital":false,"pk":null,"quiz":"asia","code":null,"archived":false,"percentageOfSessions":null}, {"name":"3-й склад","state":"Kemerovo","territory":"","country":"Russia","latitude":56.020188,"longitude":86.0495508,"population":40,"stateCapital":false,"nationalCapital":false,"pk":null,"quiz":"asia","code":null,"archived":false,"percentageOfSessions":null}, {"name":"46 км","state":"Kemerovo","territory":"","country":"Russia","latitude":55.4255192,"longitude":84.9452708,"population":1,"stateCapital":false,"nationalCapital":false,"pk":null,"quiz":"asia","code":null,"archived":false,"percentageOfSessions":null}, {"name":"4-й","state":"Kemerovo","territory":"","country":"Russia","latitude":55.9365092,"longitude":87.8055805,"population":32,"stateCapital":false,"nationalCapital":false,"pk":null,"quiz":"asia","code":null,"archived":false,"percentageOfSessions":null}, {"name":"517 км","state":"Kemerovo","territory":"","country":"Russia","latitude":52.9751964,"longitude":87.446251,"population":3,"stateCapital":false,"nationalCapital":false,"pk":null,"quiz":"asia","code":null,"archived":false,"percentageOfSessions":null}, {"name":"527 км","state":"Kemerovo","territory":"","country":"Russia","latitude":52.9177416,"longitude":87.4968135,"population":27,"stateCapital":false,"nationalCapital":false,"pk":null,"quiz":"asia","code":null,"archived":false,"percentageOfSessions":null}, {"name":"534 км","state":"Kemerovo","territory":"","country":"Russia","latitude":52.9298413,"longitude":87.5950572,"population":13,"stateCapital":false,"nationalCapital":false,"pk":null,"quiz":"asia","code":null,"archived":false,"percentageOfSessions":null}, {"name":"538 км","state":"Kemerovo","territory":"","country":"Russia","latitude":52.9233085,"longitude":87.6374802,"population":8,"stateCapital":false,"nationalCapital":false,"pk":null,"quiz":"asia","code":null,"archived":false,"percentageOfSessions":null}, {"name":"54 км","state":"Kemerovo","territory":"","country":"Russia","latitude":55.4689156,"longitude":85.0461276,"population":39,"stateCapital":false,"nationalCapital":false,"pk":null,"quiz":"asia","code":null,"archived":false,"percentageOfSessions":null}, {"name":"545 км","state":"Kemerovo","territory":"","country":"Russia","latitude":52.927664,"longitude":87.7349183,"population":61,"stateCapital":false,"nationalCapital":false,"pk":null,"quiz":"asia","code":null,"archived":false,"percentageOfSessions":null}, {"name":"64 км","state":"Kemerovo","territory":"","country":"Russia","latitude":55.4175664,"longitude":85.1689122,"population":12,"stateCapital":false,"nationalCapital":false,"pk":null,"quiz":"asia","code":null,"archived":false,"percentageOfSessions":null}, {"name":"75-й Пикет","state":"Kemerovo","territory":"","country":"Russia","latitude":53.738247,"longitude":86.938774,"population":6,"stateCapital":false,"nationalCapital":false,"pk":null,"quiz":"asia","code":null,"archived":false,"percentageOfSessions":null}, {"name":"79 км","state":"Kemerovo","territory":"","country":"Russia","latitude":55.3144155,"longitude":85.3152471,"population":26,"stateCapital":false,"nationalCapital":false,"pk":null,"quiz":"asia","code":null,"archived":false,"percentageOfSessions":null}, {"name":"96 км","state":"Kemerovo","territory":"","country":"Russia","latitude":55.2506052,"longitude":85.4903377,"population":4,"stateCapital":false,"nationalCapital":false,"pk":null,"quiz":"asia","code":null,"archived":false,"percentageOfSessions":null}, {"name":"№5","state":"Kemerovo","territory":"","country":"Russia","latitude":54.5385909,"longitude":86.3251989,"population":82,"stateCapital":false,"nationalCapital":false,"pk":null,"quiz":"asia","code":null,"archived":false,"percentageOfSessions":null}, {"name":"Абышево","state":"Kemerovo","territory":"","country":"Russia","latitude":55.0629203,"longitude":84.994672,"population":731,"stateCapital":false,"nationalCapital":false,"pk":null,"quiz":"asia","code":null,"archived":false,"percentageOfSessions":null}, {"name":"Аверьяновка","state":"Kemerovo","territory":"","country":"Russia","latitude":56.1656505,"longitude":88.2893323,"population":7,"stateCapital":false,"nationalCapital":false,"pk":null,"quiz":"asia","code":null,"archived":false,"percentageOfSessions":null}, {"name":"Азаново","state":"Kemerovo","territory":"","country":"Russia","latitude":56.112835,"longitude":86.570381,"population":70,"stateCapital":false,"nationalCapital":false,"pk":null,"quiz":"asia","code":null,"archived":false,"percentageOfSessions":null}, {"name":"Аило-Атынаково","state":"Kemerovo","territory":"","country":"Russia","latitude":54.765354,"longitude":86.880699,"population":0,"stateCapital":false,"nationalCapital":false,"pk":null,"quiz":"asia","code":null,"archived":false,"percentageOfSessions":null}, {"name":"Акация","state":"Kemerovo","territory":"","country":"Russia","latitude":55.7367594,"longitude":85.3637949,"population":906,"stateCapital":false,"nationalCapital":false,"pk":null,"quiz":"asia","code":null,"archived":false,"percentageOfSessions":null}, {"name":"Акимо-Анненка","state":"Kemerovo","territory":"","country":"Russia","latitude":56.0794363,"longitude":88.7967634,"population":439,"stateCapital":false,"nationalCapital":false,"pk":null,"quiz":"asia","code":null,"archived":false,"percentageOfSessions":null}, {"name":"Аксас","state":"Kemerovo","territory":"","country":"Russia","latitude":53.863789,"longitude":87.904205,"population":0,"stateCapital":false,"nationalCapital":false,"pk":null,"quiz":"asia","code":null,"archived":false,"percentageOfSessions":null}, {"name":"Алабучинка","state":"Kemerovo","territory":"","country":"Russia","latitude":55.9538636,"longitude":84.6611594,"population":94,"stateCapital":false,"nationalCapital":false,"pk":null,"quiz":"asia","code":null,"archived":false,"percentageOfSessions":null}, {"name":"Алаево","state":"Kemerovo","territory":"","country":"Russia","latitude":56.1530267,"longitude":84.8985527,"population":16,"stateCapital":false,"nationalCapital":false,"pk":null,"quiz":"asia","code":null,"archived":false,"percentageOfSessions":null}, {"name":"Александровка","state":"Kemerovo","territory":"","country":"Russia","latitude":53.9474738,"longitude":86.3875427,"population":30,"stateCapital":false,"nationalCapital":false,"pk":null,"quiz":"asia","code":null,"archived":false,"percentageOfSessions":null}, {"name":"Александровка","state":"Kemerovo","territory":"","country":"Russia","latitude":55.3539757,"longitude":86.3263235,"population":3,"stateCapital":false,"nationalCapital":false,"pk":null,"quiz":"asia","code":null,"archived":false,"percentageOfSessions":null}, {"name":"Алексеевка","state":"Kemerovo","territory":"","country":"Russia","latitude":53.980251,"longitude":86.374565,"population":58,"stateCapital":false,"nationalCapital":false,"pk":null,"quiz":"asia","code":null,"archived":false,"percentageOfSessions":null}, {"name":"Алексеевка","state":"Kemerovo","territory":"","country":"Russia","latitude":55.9561437,"longitude":88.9304876,"population":42,"stateCapital":false,"nationalCapital":false,"pk":null,"quiz":"asia","code":null,"archived":false,"percentageOfSessions":null}, {"name":"Алексеевка","state":"Kemerovo","territory":"","country":"Russia","latitude":53.561771,"longitude":86.838959,"population":38,"stateCapital":false,"nationalCapital":false,"pk":null,"quiz":"asia","code":null,"archived":false,"percentageOfSessions":null}, {"name":"Алтамаш","state":"Kemerovo","territory":"","country":"Russia","latitude":52.545834,"longitude":87.679642,"population":303,"stateCapital":false,"nationalCapital":false,"pk":null,"quiz":"asia","code":null,"archived":false,"percentageOfSessions":null}, {"name":"Алчедат","state":"Kemerovo","territory":"","country":"Russia","latitude":55.9849751,"longitude":87.913458,"population":606,"stateCapital":false,"nationalCapital":false,"pk":null,"quiz":"asia","code":null,"archived":false,"percentageOfSessions":null}, {"name":"Амзас","state":"Kemerovo","territory":"","country":"Russia","latitude":53.0147248,"longitude":87.5423069,"population":391,"stateCapital":false,"nationalCapital":false,"pk":null,"quiz":"asia","code":null,"archived":false,"percentageOfSessions":null}, {"name":"Ананьино","state":"Kemerovo","territory":"","country":"Russia","latitude":53.573742,"longitude":86.866562,"population":38,"stateCapital":false,"nationalCapital":false,"pk":null,"quiz":"asia","code":null,"archived":false,"percentageOfSessions":null}, {"name":"Андреевка","state":"Kemerovo","territory":"","country":"Russia","latitude":55.444168,"longitude":86.213356,"population":1229,"stateCapital":false,"nationalCapital":false,"pk":null,"quiz":"asia","code":null,"archived":false,"percentageOfSessions":null}, {"name":"Анжеро-Судженск","state":"Kemerovo","territory":"","country":"Russia","latitude":56.077808,"longitude":86.019356,"population":76646,"stateCapital":false,"nationalCapital":false,"pk":null,"quiz":"asia","code":null,"archived":false,"percentageOfSessions":null}, {"name":"Анзас","state":"Kemerovo","territory":"","country":"Russia","latitude":52.6297842,"longitude":88.3674954,"population":0,"stateCapital":false,"nationalCapital":false,"pk":null,"quiz":"asia","code":null,"archived":false,"percentageOfSessions":null}, {"name":"Анисимово","state":"Kemerovo","territory":"","country":"Russia","latitude":54.048965,"longitude":87.063347,"population":283,"stateCapital":false,"nationalCapital":false,"pk":null,"quiz":"asia","code":null,"archived":false,"percentageOfSessions":null}, {"name":"Антибесская","state":"Kemerovo","territory":"","country":"Russia","latitude":56.170158,"longitude":87.524162,"population":184,"stateCapital":false,"nationalCapital":false,"pk":null,"quiz":"asia","code":null,"archived":false,"percentageOfSessions":null}, {"name":"Антоновка","state":"Kemerovo","territory":"","country":"Russia","latitude":54.251328,"longitude":86.680717,"population":77,"stateCapital":false,"nationalCapital":false,"pk":null,"quiz":"asia","code":null,"archived":false,"percentageOfSessions":null}, {"name":"Антоновка","state":"Kemerovo","territory":"","country":"Russia","latitude":56.1077074,"longitude":86.2638464,"population":3,"stateCapital":false,"nationalCapital":false,"pk":null,"quiz":"asia","code":null,"archived":false,"percentageOfSessions":null}, {"name":"Антоново","state":"Kemerovo","territory":"","country":"Russia","latitude":55.8165467,"longitude":88.5784101,"population":77,"stateCapital":false,"nationalCapital":false,"pk":null,"quiz":"asia","code":null,"archived":false,"percentageOfSessions":null}, {"name":"Апанас","state":"Kemerovo","territory":"","country":"Russia","latitude":53.531898,"longitude":86.836967,"population":136,"stateCapital":false,"nationalCapital":false,"pk":null,"quiz":"asia","code":null,"archived":false,"percentageOfSessions":null}, {"name":"Апрелька","state":"Kemerovo","territory":"","country":"Russia","latitude":54.523952,"longitude":85.330414,"population":52,"stateCapital":false,"nationalCapital":false,"pk":null,"quiz":"asia","code":null,"archived":false,"percentageOfSessions":null}, {"name":"Ариничево","state":"Kemerovo","territory":"","country":"Russia","latitude":54.550442,"longitude":85.406494,"population":765,"stateCapital":false,"nationalCapital":false,"pk":null,"quiz":"asia","code":null,"archived":false,"percentageOfSessions":null}, {"name":"Арлюк","state":"Kemerovo","territory":"","country":"Russia","latitude":55.4347314,"longitude":84.8542761,"population":1760,"stateCapital":false,"nationalCapital":false,"pk":null,"quiz":"asia","code":null,"archived":false,"percentageOfSessions":null}, {"name":"Арсеново","state":"Kemerovo","territory":"","country":"Russia","latitude":54.803707,"longitude":86.876198,"population":342,"stateCapital":false,"nationalCapital":false,"pk":null,"quiz":"asia","code":null,"archived":false,"percentageOfSessions":null}, {"name":"Арсентьевка","state":"Kemerovo","territory":"","country":"Russia","latitude":55.749191,"longitude":86.142174,"population":125,"stateCapital":false,"nationalCapital":false,"pk":null,"quiz":"asia","code":null,"archived":false,"percentageOfSessions":null}, {"name":"Артышта","state":"Kemerovo","territory":"","country":"Russia","latitude":54.116268,"longitude":86.270058,"population":2780,"stateCapital":false,"nationalCapital":false,"pk":null,"quiz":"asia","code":null,"archived":false,"percentageOfSessions":null}, {"name":"Артышта","state":"Kemerovo","territory":"","country":"Russia","latitude":54.177605,"longitude":86.276489,"population":263,"stateCapital":false,"nationalCapital":false,"pk":null,"quiz":"asia","code":null,"archived":false,"percentageOfSessions":null}, {"name":"Арышево","state":"Kemerovo","territory":"","country":"Russia","latitude":56.3141567,"longitude":86.3933036,"population":133,"stateCapital":false,"nationalCapital":false,"pk":null,"quiz":"asia","code":null,"archived":false,"percentageOfSessions":null}, {"name":"Атаманово","state":"Kemerovo","territory":"","country":"Russia","latitude":53.7825768,"longitude":87.387579,"population":2954,"stateCapital":false,"nationalCapital":false,"pk":null,"quiz":"asia","code":null,"archived":false,"percentageOfSessions":null}, {"name":"Ашмарино","state":"Kemerovo","territory":"","country":"Russia","latitude":53.631451,"longitude":87.262169,"population":422,"stateCapital":false,"nationalCapital":false,"pk":null,"quiz":"asia","code":null,"archived":false,"percentageOfSessions":null}, {"name":"Баевка","state":"Kemerovo","territory":"","country":"Russia","latitude":53.725246,"longitude":87.413681,"population":304,"stateCapital":false,"nationalCapital":false,"pk":null,"quiz":"asia","code":null,"archived":false,"percentageOfSessions":null}, {"name":"Базанча","state":"Kemerovo","territory":"","country":"Russia","latitude":52.888298,"longitude":87.61187,"population":663,"stateCapital":false,"nationalCapital":false,"pk":null,"quiz":"asia","code":null,"archived":false,"percentageOfSessions":null}, {"name":"Базарный","state":"Kemerovo","territory":"","country":"Russia","latitude":52.77414,"longitude":87.1048579,"population":27,"stateCapital":false,"nationalCapital":false,"pk":null,"quiz":"asia","code":null,"archived":false,"percentageOfSessions":null}, {"name":"Байла","state":"Kemerovo","territory":"","country":"Russia","latitude":55.7427914,"longitude":88.5025358,"population":94,"stateCapital":false,"nationalCapital":false,"pk":null,"quiz":"asia","code":null,"archived":false,"percentageOfSessions":null}, {"name":"Байрак","state":"Kemerovo","territory":"","country":"Russia","latitude":54.8680575,"longitude":85.869025,"population":360,"stateCapital":false,"nationalCapital":false,"pk":null,"quiz":"asia","code":null,"archived":false,"percentageOfSessions":null}, {"name":"Балахнино","state":"Kemerovo","territory":"","country":"Russia","latitude":55.9065852,"longitude":85.2244976,"population":93,"stateCapital":false,"nationalCapital":false,"pk":null,"quiz":"asia","code":null,"archived":false,"percentageOfSessions":null}, {"name":"Балбынь","state":"Kemerovo","territory":"","country":"Russia","latitude":53.770202,"longitude":87.7120209,"population":7,"stateCapital":false,"nationalCapital":false,"pk":null,"quiz":"asia","code":null,"archived":false,"percentageOfSessions":null}, {"name":"Балластный Карьер","state":"Kemerovo","territory":"","country":"Russia","latitude":53.3002765,"longitude":87.1702292,"population":0,"stateCapital":false,"nationalCapital":false,"pk":null,"quiz":"asia","code":null,"archived":false,"percentageOfSessions":null}, {"name":"Банново","state":"Kemerovo","territory":"","country":"Russia","latitude":55.085411,"longitude":86.711746,"population":820,"stateCapital":false,"nationalCapital":false,"pk":null,"quiz":"asia","code":null,"archived":false,"percentageOfSessions":null}, {"name":"Барановка","state":"Kemerovo","territory":"","country":"Russia","latitude":55.638813,"longitude":85.950188,"population":1152,"stateCapital":false,"nationalCapital":false,"pk":null,"quiz":"asia","code":null,"archived":false,"percentageOfSessions":null}, {"name":"Барачаты","state":"Kemerovo","territory":"","country":"Russia","latitude":54.975975,"longitude":86.191116,"population":683,"stateCapital":false,"nationalCapital":false,"pk":null,"quiz":"asia","code":null,"archived":false,"percentageOfSessions":null}, {"name":"Бардина","state":"Kemerovo","territory":"","country":"Russia","latitude":53.9372583,"longitude":87.3428213,"population":92,"stateCapital":false,"nationalCapital":false,"pk":null,"quiz":"asia","code":null,"archived":false,"percentageOfSessions":null}, {"name":"Барзас","state":"Kemerovo","territory":"","country":"Russia","latitude":55.7294701,"longitude":86.3176758,"population":2111,"stateCapital":false,"nationalCapital":false,"pk":null,"quiz":"asia","code":null,"archived":false,"percentageOfSessions":null}, {"name":"Барсук","state":"Kemerovo","territory":"","country":"Russia","latitude":53.6541528,"longitude":88.5121885,"population":13,"stateCapital":false,"nationalCapital":false,"pk":null,"quiz":"asia","code":null,"archived":false,"percentageOfSessions":null}, {"name":"Бархатово","state":"Kemerovo","territory":"","country":"Russia","latitude":55.3607171,"longitude":85.0605046,"population":247,"stateCapital":false,"nationalCapital":false,"pk":null,"quiz":"asia","code":null,"archived":false,"percentageOfSessions":null}, {"name":"Бачатский","state":"Kemerovo","territory":"","country":"Russia","latitude":54.2828694,"longitude":86.1054844,"population":14402,"stateCapital":false,"nationalCapital":false,"pk":null,"quiz":"asia","code":null,"archived":false,"percentageOfSessions":null}, {"name":"Бедарево","state":"Kemerovo","territory":"","country":"Russia","latitude":53.855629,"longitude":87.12661,"population":392,"stateCapital":false,"nationalCapital":false,"pk":null,"quiz":"asia","code":null,"archived":false,"percentageOfSessions":null}, {"name":"Безлесный","state":"Kemerovo","territory":"","country":"Russia","latitude":56.1439951,"longitude":86.1089156,"population":380,"stateCapital":false,"nationalCapital":false,"pk":null,"quiz":"asia","code":null,"archived":false,"percentageOfSessions":null}, {"name":"Безменово","state":"Kemerovo","territory":"","country":"Russia","latitude":55.836388,"longitude":84.7535348,"population":580,"stateCapital":false,"nationalCapital":false,"pk":null,"quiz":"asia","code":null,"archived":false,"percentageOfSessions":null}, {"name":"Безруково","state":"Kemerovo","territory":"","country":"Russia","latitude":53.778408,"longitude":87.552422,"population":1814,"stateCapital":false,"nationalCapital":false,"pk":null,"quiz":"asia","code":null,"archived":false,"percentageOfSessions":null}, {"name":"Бекет","state":"Kemerovo","territory":"","country":"Russia","latitude":56.3612716,"longitude":86.4741505,"population":260,"stateCapital":false,"nationalCapital":false,"pk":null,"quiz":"asia","code":null,"archived":false,"percentageOfSessions":null}, {"name":"Беково","state":"Kemerovo","territory":"","country":"Russia","latitude":54.365827,"longitude":86.1902534,"population":704,"stateCapital":false,"nationalCapital":false,"pk":null,"quiz":"asia","code":null,"archived":false,"percentageOfSessions":null}, {"name":"Белка","state":"Kemerovo","territory":"","country":"Russia","latitude":52.6533203,"longitude":88.312309,"population":22,"stateCapital":false,"nationalCapital":false,"pk":null,"quiz":"asia","code":null,"archived":false,"percentageOfSessions":null}, {"name":"Белово","state":"Kemerovo","territory":"","country":"Russia","latitude":54.419323,"longitude":86.303429,"population":76764,"stateCapital":false,"nationalCapital":false,"pk":null,"quiz":"asia","code":null,"archived":false,"percentageOfSessions":null}, {"name":"Белогородка","state":"Kemerovo","territory":"","country":"Russia","latitude":56.290577,"longitude":87.172188,"population":681,"stateCapital":false,"nationalCapital":false,"pk":null,"quiz":"asia","code":null,"archived":false,"percentageOfSessions":null}, {"name":"Белогорск","state":"Kemerovo","territory":"","country":"Russia","latitude":55.018394,"longitude":88.486359,"population":3278,"stateCapital":false,"nationalCapital":false,"pk":null,"quiz":"asia","code":null,"archived":false,"percentageOfSessions":null}, {"name":"Белорус","state":"Kemerovo","territory":"","country":"Russia","latitude":53.497353,"longitude":87.075829,"population":8,"stateCapital":false,"nationalCapital":false,"pk":null,"quiz":"asia","code":null,"archived":false,"percentageOfSessions":null}, {"name":"Беляковка","state":"Kemerovo","territory":"","country":"Russia","latitude":56.2745918,"longitude":88.8958209,"population":0,"stateCapital":false,"nationalCapital":false,"pk":null,"quiz":"asia","code":null,"archived":false,"percentageOfSessions":null}, {"name":"Белянино","state":"Kemerovo","territory":"","country":"Russia","latitude":55.5380529,"longitude":85.253611,"population":456,"stateCapital":false,"nationalCapital":false,"pk":null,"quiz":"asia","code":null,"archived":false,"percentageOfSessions":null}, {"name":"Бенжереп 1-й","state":"Kemerovo","territory":"","country":"Russia","latitude":53.324463,"longitude":86.997871,"population":498,"stateCapital":false,"nationalCapital":false,"pk":null,"quiz":"asia","code":null,"archived":false,"percentageOfSessions":null}, {"name":"Бенжереп 2-й","state":"Kemerovo","territory":"","country":"Russia","latitude":53.262932,"longitude":86.795395,"population":172,"stateCapital":false,"nationalCapital":false,"pk":null,"quiz":"asia","code":null,"archived":false,"percentageOfSessions":null}, {"name":"Бердовка","state":"Kemerovo","territory":"","country":"Russia","latitude":55.556263,"longitude":86.443817,"population":18,"stateCapital":false,"nationalCapital":false,"pk":null,"quiz":"asia","code":null,"archived":false,"percentageOfSessions":null}, {"name":"Бердюгино","state":"Kemerovo","territory":"","country":"Russia","latitude":54.868237,"longitude":86.476547,"population":192,"stateCapital":false,"nationalCapital":false,"pk":null,"quiz":"asia","code":null,"archived":false,"percentageOfSessions":null}, {"name":"Береговая","state":"Kemerovo","territory":"","country":"Russia","latitude":55.148563,"longitude":86.316956,"population":1974,"stateCapital":false,"nationalCapital":false,"pk":null,"quiz":"asia","code":null,"archived":false,"percentageOfSessions":null}, {"name":"Березовая Грива","state":"Kemerovo","territory":"","country":"Russia","latitude":53.678314,"longitude":87.482925,"population":19,"stateCapital":false,"nationalCapital":false,"pk":null,"quiz":"asia","code":null,"archived":false,"percentageOfSessions":null}, {"name":"Березовая Речка","state":"Kemerovo","territory":"","country":"Russia","latitude":52.84432,"longitude":86.943767,"population":77,"stateCapital":false,"nationalCapital":false,"pk":null,"quiz":"asia","code":null,"archived":false,"percentageOfSessions":null}, {"name":"Березовка","state":"Kemerovo","territory":"","country":"Russia","latitude":53.9250549,"longitude":86.3627455,"population":7,"stateCapital":false,"nationalCapital":false,"pk":null,"quiz":"asia","code":null,"archived":false,"percentageOfSessions":null}, {"name":"Березовка","state":"Kemerovo","territory":"","country":"Russia","latitude":55.114231,"longitude":86.50972,"population":403,"stateCapital":false,"nationalCapital":false,"pk":null,"quiz":"asia","code":null,"archived":false,"percentageOfSessions":null}, {"name":"Березовка","state":"Kemerovo","territory":"","country":"Russia","latitude":54.830971,"longitude":86.201866,"population":0,"stateCapital":false,"nationalCapital":false,"pk":null,"quiz":"asia","code":null,"archived":false,"percentageOfSessions":null}, {"name":"Березово","state":"Kemerovo","territory":"","country":"Russia","latitude":55.233673,"longitude":86.247391,"population":2360,"stateCapital":false,"nationalCapital":false,"pk":null,"quiz":"asia","code":null,"archived":false,"percentageOfSessions":null}, {"name":"Березово","state":"Kemerovo","territory":"","country":"Russia","latitude":53.701546,"longitude":86.795563,"population":365,"stateCapital":false,"nationalCapital":false,"pk":null,"quiz":"asia","code":null,"archived":false,"percentageOfSessions":null}, {"name":"Березово","state":"Kemerovo","territory":"","country":"Russia","latitude":55.1759167,"longitude":85.0453625,"population":114,"stateCapital":false,"nationalCapital":false,"pk":null,"quiz":"asia","code":null,"archived":false,"percentageOfSessions":null}, {"name":"Березовский","state":"Kemerovo","territory":"","country":"Russia","latitude":55.6696946,"longitude":86.275154,"population":47279,"stateCapital":false,"nationalCapital":false,"pk":null,"quiz":"asia","code":null,"archived":false,"percentageOfSessions":null}, {"name":"Березовский","state":"Kemerovo","territory":"","country":"Russia","latitude":56.217026,"longitude":86.552849,"population":141,"stateCapital":false,"nationalCapital":false,"pk":null,"quiz":"asia","code":null,"archived":false,"percentageOfSessions":null}, {"name":"Березовый","state":"Kemerovo","territory":"","country":"Russia","latitude":53.4059631,"longitude":87.6813811,"population":6,"stateCapital":false,"nationalCapital":false,"pk":null,"quiz":"asia","code":null,"archived":false,"percentageOfSessions":null}, {"name":"Берензас","state":"Kemerovo","territory":"","country":"Russia","latitude":53.7224178,"longitude":87.6182002,"population":360,"stateCapital":false,"nationalCapital":false,"pk":null,"quiz":"asia","code":null,"archived":false,"percentageOfSessions":null}, {"name":"Берензас","state":"Kemerovo","territory":"","country":"Russia","latitude":53.679562,"longitude":87.581139,"population":71,"stateCapital":false,"nationalCapital":false,"pk":null,"quiz":"asia","code":null,"archived":false,"percentageOfSessions":null}, {"name":"Берикуль","state":"Kemerovo","territory":"","country":"Russia","latitude":56.2076191,"longitude":87.0616647,"population":321,"stateCapital":false,"nationalCapital":false,"pk":null,"quiz":"asia","code":null,"archived":false,"percentageOfSessions":null}, {"name":"Берикульский","state":"Kemerovo","territory":"","country":"Russia","latitude":55.518356,"longitude":88.117325,"population":694,"stateCapital":false,"nationalCapital":false,"pk":null,"quiz":"asia","code":null,"archived":false,"percentageOfSessions":null}, {"name":"Бжицкая","state":"Kemerovo","territory":"","country":"Russia","latitude":55.7191378,"longitude":84.6433915,"population":82,"stateCapital":false,"nationalCapital":false,"pk":null,"quiz":"asia","code":null,"archived":false,"percentageOfSessions":null}, {"name":"Благовещенка","state":"Kemerovo","territory":"","country":"Russia","latitude":56.380539,"longitude":87.38681,"population":1147,"stateCapital":false,"nationalCapital":false,"pk":null,"quiz":"asia","code":null,"archived":false,"percentageOfSessions":null}, {"name":"Благодатный","state":"Kemerovo","territory":"","country":"Russia","latitude":55.401524,"longitude":85.811966,"population":439,"stateCapital":false,"nationalCapital":false,"pk":null,"quiz":"asia","code":null,"archived":false,"percentageOfSessions":null}, {"name":"Ближний Кезек","state":"Kemerovo","territory":"","country":"Russia","latitude":53.0872449,"longitude":88.43391,"population":8,"stateCapital":false,"nationalCapital":false,"pk":null,"quiz":"asia","code":null,"archived":false,"percentageOfSessions":null}, {"name":"Блок-Пост 149 км","state":"Kemerovo","territory":"","country":"Russia","latitude":55.7037142,"longitude":84.7803021,"population":13,"stateCapital":false,"nationalCapital":false,"pk":null,"quiz":"asia","code":null,"archived":false,"percentageOfSessions":null}, {"name":"Бобровский","state":"Kemerovo","territory":"","country":"Russia","latitude":56.15889,"longitude":87.49752,"population":39,"stateCapital":false,"nationalCapital":false,"pk":null,"quiz":"asia","code":null,"archived":false,"percentageOfSessions":null}, {"name":"Большая Златогорка","state":"Kemerovo","territory":"","country":"Russia","latitude":55.849461,"longitude":86.81488,"population":22,"stateCapital":false,"nationalCapital":false,"pk":null,"quiz":"asia","code":null,"archived":false,"percentageOfSessions":null}, {"name":"Большая Натальевка","state":"Kemerovo","territory":"","country":"Russia","latitude":55.5160221,"longitude":87.933135,"population":136,"stateCapital":false,"nationalCapital":false,"pk":null,"quiz":"asia","code":null,"archived":false,"percentageOfSessions":null}, {"name":"Большая Песчанка","state":"Kemerovo","territory":"","country":"Russia","latitude":56.235176,"longitude":86.877815,"population":85,"stateCapital":false,"nationalCapital":false,"pk":null,"quiz":"asia","code":null,"archived":false,"percentageOfSessions":null}, {"name":"Большая Покровка","state":"Kemerovo","territory":"","country":"Russia","latitude":55.9045032,"longitude":88.7939953,"population":54,"stateCapital":false,"nationalCapital":false,"pk":null,"quiz":"asia","code":null,"archived":false,"percentageOfSessions":null}, {"name":"Большая Сулага","state":"Kemerovo","territory":"","country":"Russia","latitude":53.089993,"longitude":86.994362,"population":3,"stateCapital":false,"nationalCapital":false,"pk":null,"quiz":"asia","code":null,"archived":false,"percentageOfSessions":null}, {"name":"Большая Талда","state":"Kemerovo","territory":"","country":"Russia","latitude":54.165207,"longitude":87.058716,"population":1239,"stateCapital":false,"nationalCapital":false,"pk":null,"quiz":"asia","code":null,"archived":false,"percentageOfSessions":null}, {"name":"Большекитатский","state":"Kemerovo","territory":"","country":"Russia","latitude":55.841335,"longitude":86.731377,"population":6,"stateCapital":false,"nationalCapital":false,"pk":null,"quiz":"asia","code":null,"archived":false,"percentageOfSessions":null}, {"name":"Большепичугино","state":"Kemerovo","territory":"","country":"Russia","latitude":55.6583425,"longitude":88.8834524,"population":199,"stateCapital":false,"nationalCapital":false,"pk":null,"quiz":"asia","code":null,"archived":false,"percentageOfSessions":null}, {"name":"Большеямное","state":"Kemerovo","territory":"","country":"Russia","latitude":55.5805408,"longitude":85.4914282,"population":410,"stateCapital":false,"nationalCapital":false,"pk":null,"quiz":"asia","code":null,"archived":false,"percentageOfSessions":null}, {"name":"Большой Антибес","state":"Kemerovo","territory":"","country":"Russia","latitude":56.306705,"longitude":87.755768,"population":396,"stateCapital":false,"nationalCapital":false,"pk":null,"quiz":"asia","code":null,"archived":false,"percentageOfSessions":null}, {"name":"Большой Барандат","state":"Kemerovo","territory":"","country":"Russia","latitude":55.758247,"longitude":88.754021,"population":590,"stateCapital":false,"nationalCapital":false,"pk":null,"quiz":"asia","code":null,"archived":false,"percentageOfSessions":null}, {"name":"Большой Берчикуль","state":"Kemerovo","territory":"","country":"Russia","latitude":55.6368384,"longitude":88.3058118,"population":230,"stateCapital":false,"nationalCapital":false,"pk":null,"quiz":"asia","code":null,"archived":false,"percentageOfSessions":null}, {"name":"Большой Керлегеш","state":"Kemerovo","territory":"","country":"Russia","latitude":53.895531,"longitude":86.494141,"population":1043,"stateCapital":false,"nationalCapital":false,"pk":null,"quiz":"asia","code":null,"archived":false,"percentageOfSessions":null}, {"name":"Большой Корчуган","state":"Kemerovo","territory":"","country":"Russia","latitude":55.2090768,"longitude":85.3922526,"population":222,"stateCapital":false,"nationalCapital":false,"pk":null,"quiz":"asia","code":null,"archived":false,"percentageOfSessions":null}, {"name":"Большой Лабыш","state":"Kemerovo","territory":"","country":"Russia","latitude":52.6074618,"longitude":88.0609615,"population":2,"stateCapital":false,"nationalCapital":false,"pk":null,"quiz":"asia","code":null,"archived":false,"percentageOfSessions":null}, {"name":"Большой Ортон","state":"Kemerovo","territory":"","country":"Russia","latitude":53.2331479,"longitude":88.7814186,"population":0,"stateCapital":false,"nationalCapital":false,"pk":null,"quiz":"asia","code":null,"archived":false,"percentageOfSessions":null}, {"name":"Большой Улус","state":"Kemerovo","territory":"","country":"Russia","latitude":55.5738443,"longitude":84.8971718,"population":25,"stateCapital":false,"nationalCapital":false,"pk":null,"quiz":"asia","code":null,"archived":false,"percentageOfSessions":null}, {"name":"Борисово","state":"Kemerovo","territory":"","country":"Russia","latitude":54.808437,"longitude":86.55851,"population":1405,"stateCapital":false,"nationalCapital":false,"pk":null,"quiz":"asia","code":null,"archived":false,"percentageOfSessions":null}, {"name":"Борисоглебское","state":"Kemerovo","territory":"","country":"Russia","latitude":56.1967969,"longitude":88.6338567,"population":265,"stateCapital":false,"nationalCapital":false,"pk":null,"quiz":"asia","code":null,"archived":false,"percentageOfSessions":null}, {"name":"Бормотово (Плешки)","state":"Kemerovo","territory":"","country":"Russia","latitude":54.9448043,"longitude":85.4292755,"population":0,"stateCapital":false,"nationalCapital":false,"pk":null,"quiz":"asia","code":null,"archived":false,"percentageOfSessions":null}, {"name":"Боровково","state":"Kemerovo","territory":"","country":"Russia","latitude":53.791348,"longitude":87.498199,"population":300,"stateCapital":false,"nationalCapital":false,"pk":null,"quiz":"asia","code":null,"archived":false,"percentageOfSessions":null}, {"name":"Боровой","state":"Kemerovo","territory":"","country":"Russia","latitude":55.9115665,"longitude":87.3941805,"population":98,"stateCapital":false,"nationalCapital":false,"pk":null,"quiz":"asia","code":null,"archived":false,"percentageOfSessions":null}, {"name":"Бородино","state":"Kemerovo","territory":"","country":"Russia","latitude":53.7391116,"longitude":87.7484839,"population":399,"stateCapital":false,"nationalCapital":false,"pk":null,"quiz":"asia","code":null,"archived":false,"percentageOfSessions":null}, {"name":"Бороковка","state":"Kemerovo","territory":"","country":"Russia","latitude":56.1302038,"longitude":88.7694371,"population":206,"stateCapital":false,"nationalCapital":false,"pk":null,"quiz":"asia","code":null,"archived":false,"percentageOfSessions":null}, {"name":"Ботьево","state":"Kemerovo","territory":"","country":"Russia","latitude":55.937004,"longitude":85.228798,"population":543,"stateCapital":false,"nationalCapital":false,"pk":null,"quiz":"asia","code":null,"archived":false,"percentageOfSessions":null}, {"name":"Брянский (157 км)","state":"Kemerovo","territory":"","country":"Russia","latitude":54.9519272,"longitude":85.9795455,"population":33,"stateCapital":false,"nationalCapital":false,"pk":null,"quiz":"asia","code":null,"archived":false,"percentageOfSessions":null}, {"name":"Букино","state":"Kemerovo","territory":"","country":"Russia","latitude":53.6830489,"longitude":87.1796952,"population":96,"stateCapital":false,"nationalCapital":false,"pk":null,"quiz":"asia","code":null,"archived":false,"percentageOfSessions":null}, {"name":"Бунгур","state":"Kemerovo","territory":"","country":"Russia","latitude":53.742912,"longitude":86.986267,"population":581,"stateCapital":false,"nationalCapital":false,"pk":null,"quiz":"asia","code":null,"archived":false,"percentageOfSessions":null}, {"name":"Буреничево","state":"Kemerovo","territory":"","country":"Russia","latitude":55.357933,"longitude":85.869865,"population":193,"stateCapital":false,"nationalCapital":false,"pk":null,"quiz":"asia","code":null,"archived":false,"percentageOfSessions":null}, {"name":"Бурлаки","state":"Kemerovo","territory":"","country":"Russia","latitude":54.144283,"longitude":86.689301,"population":955,"stateCapital":false,"nationalCapital":false,"pk":null,"quiz":"asia","code":null,"archived":false,"percentageOfSessions":null}, {"name":"Бурухино","state":"Kemerovo","territory":"","country":"Russia","latitude":55.132691,"longitude":85.5778549,"population":7,"stateCapital":false,"nationalCapital":false,"pk":null,"quiz":"asia","code":null,"archived":false,"percentageOfSessions":null}, {"name":"Бускускан","state":"Kemerovo","territory":"","country":"Russia","latitude":54.195042,"longitude":86.249878,"population":223,"stateCapital":false,"nationalCapital":false,"pk":null,"quiz":"asia","code":null,"archived":false,"percentageOfSessions":null}, {"name":"Ваганово","state":"Kemerovo","territory":"","country":"Russia","latitude":54.7013661,"longitude":85.173269,"population":1507,"stateCapital":false,"nationalCapital":false,"pk":null,"quiz":"asia","code":null,"archived":false,"percentageOfSessions":null}, {"name":"Валерьяновка","state":"Kemerovo","territory":"","country":"Russia","latitude":56.0109784,"longitude":88.3897542,"population":418,"stateCapital":false,"nationalCapital":false,"pk":null,"quiz":"asia","code":null,"archived":false,"percentageOfSessions":null}, {"name":"Варюхино","state":"Kemerovo","territory":"","country":"Russia","latitude":56.1048235,"longitude":84.8956684,"population":381,"stateCapital":false,"nationalCapital":false,"pk":null,"quiz":"asia","code":null,"archived":false,"percentageOfSessions":null}, {"name":"Васильевка","state":"Kemerovo","territory":"","country":"Russia","latitude":55.4003202,"longitude":84.7185414,"population":88,"stateCapital":false,"nationalCapital":false,"pk":null,"quiz":"asia","code":null,"archived":false,"percentageOfSessions":null}, {"name":"Васьково","state":"Kemerovo","territory":"","country":"Russia","latitude":55.049778,"longitude":85.089447,"population":1152,"stateCapital":false,"nationalCapital":false,"pk":null,"quiz":"asia","code":null,"archived":false,"percentageOfSessions":null}, {"name":"Верх-Великосельское","state":"Kemerovo","territory":"","country":"Russia","latitude":56.4240327,"longitude":86.3673971,"population":80,"stateCapital":false,"nationalCapital":false,"pk":null,"quiz":"asia","code":null,"archived":false,"percentageOfSessions":null}, {"name":"Верх-Егос","state":"Kemerovo","territory":"","country":"Russia","latitude":53.925385,"longitude":86.606064,"population":1039,"stateCapital":false,"nationalCapital":false,"pk":null,"quiz":"asia","code":null,"archived":false,"percentageOfSessions":null}, {"name":"Верх-Иткара","state":"Kemerovo","territory":"","country":"Russia","latitude":55.9824392,"longitude":85.1329727,"population":0,"stateCapital":false,"nationalCapital":false,"pk":null,"quiz":"asia","code":null,"archived":false,"percentageOfSessions":null}, {"name":"Верх-Кинерки","state":"Kemerovo","territory":"","country":"Russia","latitude":53.580894,"longitude":86.941864,"population":4,"stateCapital":false,"nationalCapital":false,"pk":null,"quiz":"asia","code":null,"archived":false,"percentageOfSessions":null}, {"name":"Верх-Кочура","state":"Kemerovo","territory":"","country":"Russia","latitude":52.65657,"longitude":87.972,"population":10,"stateCapital":false,"nationalCapital":false,"pk":null,"quiz":"asia","code":null,"archived":false,"percentageOfSessions":null}, {"name":"Верх-Мостовинский","state":"Kemerovo","territory":"","country":"Russia","latitude":55.4467225,"longitude":85.3282582,"population":25,"stateCapital":false,"nationalCapital":false,"pk":null,"quiz":"asia","code":null,"archived":false,"percentageOfSessions":null}, {"name":"Верхние Кичи","state":"Kemerovo","territory":"","country":"Russia","latitude":52.752763,"longitude":88.1724041,"population":0,"stateCapital":false,"nationalCapital":false,"pk":null,"quiz":"asia","code":null,"archived":false,"percentageOfSessions":null}, {"name":"Верхний Алзак","state":"Kemerovo","territory":"","country":"Russia","latitude":52.7021642,"longitude":88.371888,"population":9,"stateCapital":false,"nationalCapital":false,"pk":null,"quiz":"asia","code":null,"archived":false,"percentageOfSessions":null}, {"name":"Верхний Анзас","state":"Kemerovo","territory":"","country":"Russia","latitude":53.0570747,"longitude":88.4394792,"population":19,"stateCapital":false,"nationalCapital":false,"pk":null,"quiz":"asia","code":null,"archived":false,"percentageOfSessions":null}, {"name":"Верхний Бугзас","state":"Kemerovo","territory":"","country":"Russia","latitude":52.6500722,"longitude":88.4664309,"population":38,"stateCapital":false,"nationalCapital":false,"pk":null,"quiz":"asia","code":null,"archived":false,"percentageOfSessions":null}, {"name":"Верхний Калтан","state":"Kemerovo","territory":"","country":"Russia","latitude":53.492195,"longitude":87.274635,"population":59,"stateCapital":false,"nationalCapital":false,"pk":null,"quiz":"asia","code":null,"archived":false,"percentageOfSessions":null}, {"name":"Верхний Нымзас","state":"Kemerovo","territory":"","country":"Russia","latitude":52.7027039,"longitude":88.2752107,"population":16,"stateCapital":false,"nationalCapital":false,"pk":null,"quiz":"asia","code":null,"archived":false,"percentageOfSessions":null}, {"name":"Верхний Таймет","state":"Kemerovo","territory":"","country":"Russia","latitude":52.4852546,"longitude":88.2690882,"population":9,"stateCapital":false,"nationalCapital":false,"pk":null,"quiz":"asia","code":null,"archived":false,"percentageOfSessions":null}, {"name":"Верхняя Александровка","state":"Kemerovo","territory":"","country":"Russia","latitude":52.812543,"longitude":88.1064092,"population":5,"stateCapital":false,"nationalCapital":false,"pk":null,"quiz":"asia","code":null,"archived":false,"percentageOfSessions":null}, {"name":"Верховская","state":"Kemerovo","territory":"","country":"Russia","latitude":54.364315,"longitude":86.214035,"population":198,"stateCapital":false,"nationalCapital":false,"pk":null,"quiz":"asia","code":null,"archived":false,"percentageOfSessions":null}, {"name":"Верхотомское","state":"Kemerovo","territory":"","country":"Russia","latitude":55.469341,"longitude":85.954659,"population":1697,"stateCapital":false,"nationalCapital":false,"pk":null,"quiz":"asia","code":null,"archived":false,"percentageOfSessions":null}, {"name":"Верх-Падунский","state":"Kemerovo","territory":"","country":"Russia","latitude":55.1554678,"longitude":85.2064545,"population":565,"stateCapital":false,"nationalCapital":false,"pk":null,"quiz":"asia","code":null,"archived":false,"percentageOfSessions":null}, {"name":"Верх-Подобас","state":"Kemerovo","territory":"","country":"Russia","latitude":53.70377,"longitude":87.597176,"population":23,"stateCapital":false,"nationalCapital":false,"pk":null,"quiz":"asia","code":null,"archived":false,"percentageOfSessions":null}, {"name":"Верх-Тайменка","state":"Kemerovo","territory":"","country":"Russia","latitude":55.6554946,"longitude":85.211964,"population":626,"stateCapital":false,"nationalCapital":false,"pk":null,"quiz":"asia","code":null,"archived":false,"percentageOfSessions":null}, {"name":"Верх-Тереш","state":"Kemerovo","territory":"","country":"Russia","latitude":53.745571,"longitude":86.624275,"population":10,"stateCapital":false,"nationalCapital":false,"pk":null,"quiz":"asia","code":null,"archived":false,"percentageOfSessions":null}, {"name":"Верх-Теш","state":"Kemerovo","territory":"","country":"Russia","latitude":53.3794527,"longitude":87.3644259,"population":7,"stateCapital":false,"nationalCapital":false,"pk":null,"quiz":"asia","code":null,"archived":false,"percentageOfSessions":null}, {"name":"Верх-Чебула","state":"Kemerovo","territory":"","country":"Russia","latitude":56.0330343,"longitude":87.6220223,"population":5060,"stateCapital":false,"nationalCapital":false,"pk":null,"quiz":"asia","code":null,"archived":false,"percentageOfSessions":null}, {"name":"Верх-Чумыш","state":"Kemerovo","territory":"","country":"Russia","latitude":53.9621039,"longitude":86.4657558,"population":345,"stateCapital":false,"nationalCapital":false,"pk":null,"quiz":"asia","code":null,"archived":false,"percentageOfSessions":null}, {"name":"Веселая Грива","state":"Kemerovo","territory":"","country":"Russia","latitude":52.978193,"longitude":87.3912997,"population":0,"stateCapital":false,"nationalCapital":false,"pk":null,"quiz":"asia","code":null,"archived":false,"percentageOfSessions":null}, {"name":"Веселый","state":"Kemerovo","territory":"","country":"Russia","latitude":54.052818,"longitude":87.007149,"population":76,"stateCapital":false,"nationalCapital":false,"pk":null,"quiz":"asia","code":null,"archived":false,"percentageOfSessions":null}, {"name":"Викторьевка","state":"Kemerovo","territory":"","country":"Russia","latitude":53.0822022,"longitude":88.0474653,"population":0,"stateCapital":false,"nationalCapital":false,"pk":null,"quiz":"asia","code":null,"archived":false,"percentageOfSessions":null}, {"name":"Вишневка","state":"Kemerovo","territory":"","country":"Russia","latitude":54.412445,"longitude":86.399742,"population":737,"stateCapital":false,"nationalCapital":false,"pk":null,"quiz":"asia","code":null,"archived":false,"percentageOfSessions":null}, {"name":"Власково","state":"Kemerovo","territory":"","country":"Russia","latitude":55.7568247,"longitude":85.4133367,"population":287,"stateCapital":false,"nationalCapital":false,"pk":null,"quiz":"asia","code":null,"archived":false,"percentageOfSessions":null}, {"name":"Возвышенка","state":"Kemerovo","territory":"","country":"Russia","latitude":54.5686061,"longitude":85.8586482,"population":324,"stateCapital":false,"nationalCapital":false,"pk":null,"quiz":"asia","code":null,"archived":false,"percentageOfSessions":null}, {"name":"Вознесенка","state":"Kemerovo","territory":"","country":"Russia","latitude":55.402966,"longitude":86.313614,"population":12,"stateCapital":false,"nationalCapital":false,"pk":null,"quiz":"asia","code":null,"archived":false,"percentageOfSessions":null}, {"name":"Вознесенка","state":"Kemerovo","territory":"","country":"Russia","latitude":55.7692924,"longitude":88.7171058,"population":135,"stateCapital":false,"nationalCapital":false,"pk":null,"quiz":"asia","code":null,"archived":false,"percentageOfSessions":null}, {"name":"Вознесенка","state":"Kemerovo","territory":"","country":"Russia","latitude":56.3188296,"longitude":85.9589362,"population":391,"stateCapital":false,"nationalCapital":false,"pk":null,"quiz":"asia","code":null,"archived":false,"percentageOfSessions":null}, {"name":"Воскресенка","state":"Kemerovo","territory":"","country":"Russia","latitude":55.208824,"longitude":86.502167,"population":147,"stateCapital":false,"nationalCapital":false,"pk":null,"quiz":"asia","code":null,"archived":false,"percentageOfSessions":null}, {"name":"Воскресенка","state":"Kemerovo","territory":"","country":"Russia","latitude":55.813007,"longitude":85.0166101,"population":0,"stateCapital":false,"nationalCapital":false,"pk":null,"quiz":"asia","code":null,"archived":false,"percentageOfSessions":null}, {"name":"Воскресенка","state":"Kemerovo","territory":"","country":"Russia","latitude":56.134521,"longitude":86.946114,"population":272,"stateCapital":false,"nationalCapital":false,"pk":null,"quiz":"asia","code":null,"archived":false,"percentageOfSessions":null}, {"name":"Воскресенка (Суровка)","state":"Kemerovo","territory":"","country":"Russia","latitude":56.2576402,"longitude":86.0409567,"population":107,"stateCapital":false,"nationalCapital":false,"pk":null,"quiz":"asia","code":null,"archived":false,"percentageOfSessions":null}, {"name":"Восточный","state":"Kemerovo","territory":"","country":"Russia","latitude":53.9273395,"longitude":87.0294256,"population":69,"stateCapital":false,"nationalCapital":false,"pk":null,"quiz":"asia","code":null,"archived":false,"percentageOfSessions":null}, {"name":"Восход","state":"Kemerovo","territory":"","country":"Russia","latitude":55.0491565,"longitude":85.9134252,"population":266,"stateCapital":false,"nationalCapital":false,"pk":null,"quiz":"asia","code":null,"archived":false,"percentageOfSessions":null}, {"name":"Восходящий","state":"Kemerovo","territory":"","country":"Russia","latitude":54.682083,"longitude":86.076897,"population":950,"stateCapital":false,"nationalCapital":false,"pk":null,"quiz":"asia","code":null,"archived":false,"percentageOfSessions":null}, {"name":"Вотиновка","state":"Kemerovo","territory":"","country":"Russia","latitude":55.851952,"longitude":85.966942,"population":60,"stateCapital":false,"nationalCapital":false,"pk":null,"quiz":"asia","code":null,"archived":false,"percentageOfSessions":null}, {"name":"Вяземка","state":"Kemerovo","territory":"","country":"Russia","latitude":55.857639,"longitude":87.004524,"population":15,"stateCapital":false,"nationalCapital":false,"pk":null,"quiz":"asia","code":null,"archived":false,"percentageOfSessions":null}, {"name":"Габовск","state":"Kemerovo","territory":"","country":"Russia","latitude":52.6147921,"longitude":87.7488047,"population":33,"stateCapital":false,"nationalCapital":false,"pk":null,"quiz":"asia","code":null,"archived":false,"percentageOfSessions":null}, {"name":"Гавриловка","state":"Kemerovo","territory":"","country":"Russia","latitude":54.26075,"longitude":85.834839,"population":64,"stateCapital":false,"nationalCapital":false,"pk":null,"quiz":"asia","code":null,"archived":false,"percentageOfSessions":null}, {"name":"Гавриловка","state":"Kemerovo","territory":"","country":"Russia","latitude":53.61726,"longitude":87.118553,"population":87,"stateCapital":false,"nationalCapital":false,"pk":null,"quiz":"asia","code":null,"archived":false,"percentageOfSessions":null}, {"name":"Гавриловка","state":"Kemerovo","territory":"","country":"Russia","latitude":53.61726,"longitude":87.118553,"population":135,"stateCapital":false,"nationalCapital":false,"pk":null,"quiz":"asia","code":null,"archived":false,"percentageOfSessions":null}, {"name":"Георгиевка","state":"Kemerovo","territory":"","country":"Russia","latitude":56.2697328,"longitude":88.6182128,"population":280,"stateCapital":false,"nationalCapital":false,"pk":null,"quiz":"asia","code":null,"archived":false,"percentageOfSessions":null}, {"name":"Глинковка","state":"Kemerovo","territory":"","country":"Russia","latitude":55.4184675,"longitude":84.9463376,"population":7,"stateCapital":false,"nationalCapital":false,"pk":null,"quiz":"asia","code":null,"archived":false,"percentageOfSessions":null}, {"name":"Глубокое","state":"Kemerovo","territory":"","country":"Russia","latitude":55.5253966,"longitude":85.71026,"population":723,"stateCapital":false,"nationalCapital":false,"pk":null,"quiz":"asia","code":null,"archived":false,"percentageOfSessions":null}, {"name":"Глухаринка","state":"Kemerovo","territory":"","country":"Russia","latitude":55.7675496,"longitude":86.652054,"population":0,"stateCapital":false,"nationalCapital":false,"pk":null,"quiz":"asia","code":null,"archived":false,"percentageOfSessions":null}, {"name":"Глуховка","state":"Kemerovo","territory":"","country":"Russia","latitude":53.769428,"longitude":87.015518,"population":8,"stateCapital":false,"nationalCapital":false,"pk":null,"quiz":"asia","code":null,"archived":false,"percentageOfSessions":null}, {"name":"Голубево","state":"Kemerovo","territory":"","country":"Russia","latitude":54.8508059,"longitude":85.0740683,"population":432,"stateCapital":false,"nationalCapital":false,"pk":null,"quiz":"asia","code":null,"archived":false,"percentageOfSessions":null}, {"name":"Горняк","state":"Kemerovo","territory":"","country":"Russia","latitude":54.660366,"longitude":86.081047,"population":102,"stateCapital":false,"nationalCapital":false,"pk":null,"quiz":"asia","code":null,"archived":false,"percentageOfSessions":null}, {"name":"Городок","state":"Kemerovo","territory":"","country":"Russia","latitude":55.5902413,"longitude":88.4210065,"population":37,"stateCapital":false,"nationalCapital":false,"pk":null,"quiz":"asia","code":null,"archived":false,"percentageOfSessions":null}, {"name":"Горскино","state":"Kemerovo","territory":"","country":"Russia","latitude":54.466091,"longitude":85.634682,"population":1174,"stateCapital":false,"nationalCapital":false,"pk":null,"quiz":"asia","code":null,"archived":false,"percentageOfSessions":null}, {"name":"Грамотеино","state":"Kemerovo","territory":"","country":"Russia","latitude":54.4985749,"longitude":86.3722183,"population":1557,"stateCapital":false,"nationalCapital":false,"pk":null,"quiz":"asia","code":null,"archived":false,"percentageOfSessions":null}, {"name":"Грамотеино","state":"Kemerovo","territory":"","country":"Russia","latitude":54.4985749,"longitude":86.3722183,"population":12996,"stateCapital":false,"nationalCapital":false,"pk":null,"quiz":"asia","code":null,"archived":false,"percentageOfSessions":null}, {"name":"Гурьевск","state":"Kemerovo","territory":"","country":"Russia","latitude":54.284954,"longitude":85.931091,"population":24817,"stateCapital":false,"nationalCapital":false,"pk":null,"quiz":"asia","code":null,"archived":false,"percentageOfSessions":null}, {"name":"Дальний Кезек","state":"Kemerovo","territory":"","country":"Russia","latitude":53.0904211,"longitude":88.4142224,"population":17,"stateCapital":false,"nationalCapital":false,"pk":null,"quiz":"asia","code":null,"archived":false,"percentageOfSessions":null}, {"name":"Даниловка","state":"Kemerovo","territory":"","country":"Russia","latitude":56.3102206,"longitude":88.6446,"population":460,"stateCapital":false,"nationalCapital":false,"pk":null,"quiz":"asia","code":null,"archived":false,"percentageOfSessions":null}, {"name":"Данковка","state":"Kemerovo","territory":"","country":"Russia","latitude":56.3002919,"longitude":86.1129366,"population":270,"stateCapital":false,"nationalCapital":false,"pk":null,"quiz":"asia","code":null,"archived":false,"percentageOfSessions":null}, {"name":"Дауровка","state":"Kemerovo","territory":"","country":"Russia","latitude":55.912239,"longitude":85.1269,"population":44,"stateCapital":false,"nationalCapital":false,"pk":null,"quiz":"asia","code":null,"archived":false,"percentageOfSessions":null}, {"name":"Дворниково","state":"Kemerovo","territory":"","country":"Russia","latitude":55.7953226,"longitude":88.409667,"population":291,"stateCapital":false,"nationalCapital":false,"pk":null,"quiz":"asia","code":null,"archived":false,"percentageOfSessions":null}, {"name":"Дегтяревка","state":"Kemerovo","territory":"","country":"Russia","latitude":54.456318,"longitude":85.873489,"population":44,"stateCapital":false,"nationalCapital":false,"pk":null,"quiz":"asia","code":null,"archived":false,"percentageOfSessions":null}, {"name":"Дедюево","state":"Kemerovo","territory":"","country":"Russia","latitude":55.3642128,"longitude":85.7408832,"population":136,"stateCapital":false,"nationalCapital":false,"pk":null,"quiz":"asia","code":null,"archived":false,"percentageOfSessions":null}, {"name":"Дедюево","state":"Kemerovo","territory":"","country":"Russia","latitude":55.3642128,"longitude":85.7408832,"population":6,"stateCapital":false,"nationalCapital":false,"pk":null,"quiz":"asia","code":null,"archived":false,"percentageOfSessions":null}, {"name":"Демьяновка","state":"Kemerovo","territory":"","country":"Russia","latitude":54.747231,"longitude":86.243301,"population":1090,"stateCapital":false,"nationalCapital":false,"pk":null,"quiz":"asia","code":null,"archived":false,"percentageOfSessions":null}, {"name":"Денисовка","state":"Kemerovo","territory":"","country":"Russia","latitude":54.9543101,"longitude":85.0025263,"population":134,"stateCapital":false,"nationalCapital":false,"pk":null,"quiz":"asia","code":null,"archived":false,"percentageOfSessions":null}, {"name":"Денисово","state":"Kemerovo","territory":"","country":"Russia","latitude":55.473503,"longitude":85.932663,"population":15,"stateCapital":false,"nationalCapital":false,"pk":null,"quiz":"asia","code":null,"archived":false,"percentageOfSessions":null}, {"name":"Джелсай","state":"Kemerovo","territory":"","country":"Russia","latitude":52.7935352,"longitude":88.1722544,"population":6,"stateCapital":false,"nationalCapital":false,"pk":null,"quiz":"asia","code":null,"archived":false,"percentageOfSessions":null}, {"name":"Димитрово","state":"Kemerovo","territory":"","country":"Russia","latitude":56.4642309,"longitude":86.2502089,"population":41,"stateCapital":false,"nationalCapital":false,"pk":null,"quiz":"asia","code":null,"archived":false,"percentageOfSessions":null}, {"name":"Дмитриевка","state":"Kemerovo","territory":"","country":"Russia","latitude":55.618992,"longitude":86.384834,"population":34,"stateCapital":false,"nationalCapital":false,"pk":null,"quiz":"asia","code":null,"archived":false,"percentageOfSessions":null}, {"name":"Дмитриевка","state":"Kemerovo","territory":"","country":"Russia","latitude":56.032875,"longitude":87.909805,"population":550,"stateCapital":false,"nationalCapital":false,"pk":null,"quiz":"asia","code":null,"archived":false,"percentageOfSessions":null}, {"name":"Дмитриевка","state":"Kemerovo","territory":"","country":"Russia","latitude":54.466717,"longitude":85.325363,"population":170,"stateCapital":false,"nationalCapital":false,"pk":null,"quiz":"asia","code":null,"archived":false,"percentageOfSessions":null}, {"name":"Долгополово","state":"Kemerovo","territory":"","country":"Russia","latitude":54.77478,"longitude":86.60762,"population":129,"stateCapital":false,"nationalCapital":false,"pk":null,"quiz":"asia","code":null,"archived":false,"percentageOfSessions":null}, {"name":"Донской","state":"Kemerovo","territory":"","country":"Russia","latitude":55.8970204,"longitude":86.1643513,"population":19,"stateCapital":false,"nationalCapital":false,"pk":null,"quiz":"asia","code":null,"archived":false,"percentageOfSessions":null}, {"name":"Драченино","state":"Kemerovo","territory":"","country":"Russia","latitude":54.761208,"longitude":86.037697,"population":1077,"stateCapital":false,"nationalCapital":false,"pk":null,"quiz":"asia","code":null,"archived":false,"percentageOfSessions":null}, {"name":"Дружный","state":"Kemerovo","territory":"","country":"Russia","latitude":54.625031,"longitude":85.6799742,"population":67,"stateCapital":false,"nationalCapital":false,"pk":null,"quiz":"asia","code":null,"archived":false,"percentageOfSessions":null}, {"name":"Дубровка","state":"Kemerovo","territory":"","country":"Russia","latitude":55.9224372,"longitude":85.3465927,"population":411,"stateCapital":false,"nationalCapital":false,"pk":null,"quiz":"asia","code":null,"archived":false,"percentageOfSessions":null}, {"name":"Дуброво","state":"Kemerovo","territory":"","country":"Russia","latitude":54.1493765,"longitude":86.2268904,"population":196,"stateCapital":false,"nationalCapital":false,"pk":null,"quiz":"asia","code":null,"archived":false,"percentageOfSessions":null}, {"name":"Дунай-Ключ","state":"Kemerovo","territory":"","country":"Russia","latitude":54.468292,"longitude":86.707985,"population":288,"stateCapital":false,"nationalCapital":false,"pk":null,"quiz":"asia","code":null,"archived":false,"percentageOfSessions":null}, {"name":"Евтино","state":"Kemerovo","territory":"","country":"Russia","latitude":54.354439,"longitude":86.70076,"population":941,"stateCapital":false,"nationalCapital":false,"pk":null,"quiz":"asia","code":null,"archived":false,"percentageOfSessions":null}, {"name":"Егозово","state":"Kemerovo","territory":"","country":"Russia","latitude":54.71335,"longitude":86.1115344,"population":31,"stateCapital":false,"nationalCapital":false,"pk":null,"quiz":"asia","code":null,"archived":false,"percentageOfSessions":null}, {"name":"Егозово","state":"Kemerovo","territory":"","country":"Russia","latitude":54.71335,"longitude":86.1115344,"population":815,"stateCapital":false,"nationalCapital":false,"pk":null,"quiz":"asia","code":null,"archived":false,"percentageOfSessions":null}, {"name":"Егултыс","state":"Kemerovo","territory":"","country":"Russia","latitude":54.022526,"longitude":86.805946,"population":72,"stateCapital":false,"nationalCapital":false,"pk":null,"quiz":"asia","code":null,"archived":false,"percentageOfSessions":null}, {"name":"Елань","state":"Kemerovo","territory":"","country":"Russia","latitude":53.706509,"longitude":87.265854,"population":1704,"stateCapital":false,"nationalCapital":false,"pk":null,"quiz":"asia","code":null,"archived":false,"percentageOfSessions":null}, {"name":"Елгино","state":"Kemerovo","territory":"","country":"Russia","latitude":55.915787,"longitude":84.858337,"population":441,"stateCapital":false,"nationalCapital":false,"pk":null,"quiz":"asia","code":null,"archived":false,"percentageOfSessions":null}, {"name":"Еловка","state":"Kemerovo","territory":"","country":"Russia","latitude":54.100811,"longitude":86.192955,"population":67,"stateCapital":false,"nationalCapital":false,"pk":null,"quiz":"asia","code":null,"archived":false,"percentageOfSessions":null}, {"name":"Елыкаево","state":"Kemerovo","territory":"","country":"Russia","latitude":55.299999,"longitude":86.255035,"population":2748,"stateCapital":false,"nationalCapital":false,"pk":null,"quiz":"asia","code":null,"archived":false,"percentageOfSessions":null}, {"name":"Емельяновка","state":"Kemerovo","territory":"","country":"Russia","latitude":56.379339,"longitude":85.9101322,"population":251,"stateCapital":false,"nationalCapital":false,"pk":null,"quiz":"asia","code":null,"archived":false,"percentageOfSessions":null}, {"name":"Еремино","state":"Kemerovo","territory":"","country":"Russia","latitude":54.901095,"longitude":85.7106294,"population":460,"stateCapital":false,"nationalCapital":false,"pk":null,"quiz":"asia","code":null,"archived":false,"percentageOfSessions":null}, {"name":"Ерунаково","state":"Kemerovo","territory":"","country":"Russia","latitude":54.082523,"longitude":87.453751,"population":19,"stateCapital":false,"nationalCapital":false,"pk":null,"quiz":"asia","code":null,"archived":false,"percentageOfSessions":null}, {"name":"Ерунаково","state":"Kemerovo","territory":"","country":"Russia","latitude":54.082523,"longitude":87.453751,"population":572,"stateCapital":false,"nationalCapital":false,"pk":null,"quiz":"asia","code":null,"archived":false,"percentageOfSessions":null}, {"name":"Есаулка","state":"Kemerovo","territory":"","country":"Russia","latitude":53.897438,"longitude":87.43853,"population":57,"stateCapital":false,"nationalCapital":false,"pk":null,"quiz":"asia","code":null,"archived":false,"percentageOfSessions":null}, {"name":"Жерново","state":"Kemerovo","territory":"","country":"Russia","latitude":54.171185,"longitude":87.249168,"population":10,"stateCapital":false,"nationalCapital":false,"pk":null,"quiz":"asia","code":null,"archived":false,"percentageOfSessions":null}, {"name":"Журавлево","state":"Kemerovo","territory":"","country":"Russia","latitude":55.36821,"longitude":86.224922,"population":293,"stateCapital":false,"nationalCapital":false,"pk":null,"quiz":"asia","code":null,"archived":false,"percentageOfSessions":null}, {"name":"Журавлево","state":"Kemerovo","territory":"","country":"Russia","latitude":54.7837082,"longitude":85.0642041,"population":1127,"stateCapital":false,"nationalCapital":false,"pk":null,"quiz":"asia","code":null,"archived":false,"percentageOfSessions":null}, {"name":"Жургавань","state":"Kemerovo","territory":"","country":"Russia","latitude":55.3476239,"longitude":86.2323728,"population":119,"stateCapital":false,"nationalCapital":false,"pk":null,"quiz":"asia","code":null,"archived":false,"percentageOfSessions":null}, {"name":"Заборье","state":"Kemerovo","territory":"","country":"Russia","latitude":56.549126,"longitude":87.446175,"population":6,"stateCapital":false,"nationalCapital":false,"pk":null,"quiz":"asia","code":null,"archived":false,"percentageOfSessions":null}, {"name":"Загадное","state":"Kemerovo","territory":"","country":"Russia","latitude":54.150238,"longitude":87.815773,"population":197,"stateCapital":false,"nationalCapital":false,"pk":null,"quiz":"asia","code":null,"archived":false,"percentageOfSessions":null}, {"name":"Загорский","state":"Kemerovo","territory":"","country":"Russia","latitude":53.758934,"longitude":87.008606,"population":1632,"stateCapital":false,"nationalCapital":false,"pk":null,"quiz":"asia","code":null,"archived":false,"percentageOfSessions":null}, {"name":"Задубровский","state":"Kemerovo","territory":"","country":"Russia","latitude":54.432007,"longitude":86.611259,"population":167,"stateCapital":false,"nationalCapital":false,"pk":null,"quiz":"asia","code":null,"archived":false,"percentageOfSessions":null}, {"name":"Зайцево","state":"Kemerovo","territory":"","country":"Russia","latitude":52.6296699,"longitude":87.2373937,"population":28,"stateCapital":false,"nationalCapital":false,"pk":null,"quiz":"asia","code":null,"archived":false,"percentageOfSessions":null}, {"name":"За-Мрассу","state":"Kemerovo","territory":"","country":"Russia","latitude":53.0405744,"longitude":88.4124979,"population":2,"stateCapital":false,"nationalCapital":false,"pk":null,"quiz":"asia","code":null,"archived":false,"percentageOfSessions":null}, {"name":"Заозерный","state":"Kemerovo","territory":"","country":"Russia","latitude":55.8912032,"longitude":84.717761,"population":532,"stateCapital":false,"nationalCapital":false,"pk":null,"quiz":"asia","code":null,"archived":false,"percentageOfSessions":null}, {"name":"Заречное","state":"Kemerovo","territory":"","country":"Russia","latitude":54.3137545,"longitude":86.2434296,"population":454,"stateCapital":false,"nationalCapital":false,"pk":null,"quiz":"asia","code":null,"archived":false,"percentageOfSessions":null}, {"name":"Заречный","state":"Kemerovo","territory":"","country":"Russia","latitude":54.273495,"longitude":85.734322,"population":121,"stateCapital":false,"nationalCapital":false,"pk":null,"quiz":"asia","code":null,"archived":false,"percentageOfSessions":null}, {"name":"Заречный","state":"Kemerovo","territory":"","country":"Russia","latitude":56.267818,"longitude":87.686172,"population":138,"stateCapital":false,"nationalCapital":false,"pk":null,"quiz":"asia","code":null,"archived":false,"percentageOfSessions":null}, {"name":"Заречный","state":"Kemerovo","territory":"","country":"Russia","latitude":53.598549,"longitude":87.303146,"population":351,"stateCapital":false,"nationalCapital":false,"pk":null,"quiz":"asia","code":null,"archived":false,"percentageOfSessions":null}, {"name":"Заринское","state":"Kemerovo","territory":"","country":"Russia","latitude":54.596119,"longitude":86.505211,"population":579,"stateCapital":false,"nationalCapital":false,"pk":null,"quiz":"asia","code":null,"archived":false,"percentageOfSessions":null}, {"name":"Зарубино","state":"Kemerovo","territory":"","country":"Russia","latitude":55.45784,"longitude":85.52668,"population":1427,"stateCapital":false,"nationalCapital":false,"pk":null,"quiz":"asia","code":null,"archived":false,"percentageOfSessions":null}, {"name":"Заря","state":"Kemerovo","territory":"","country":"Russia","latitude":55.197262,"longitude":85.983818,"population":89,"stateCapital":false,"nationalCapital":false,"pk":null,"quiz":"asia","code":null,"archived":false,"percentageOfSessions":null}, {"name":"Заря","state":"Kemerovo","territory":"","country":"Russia","latitude":54.528042,"longitude":86.514969,"population":184,"stateCapital":false,"nationalCapital":false,"pk":null,"quiz":"asia","code":null,"archived":false,"percentageOfSessions":null}, {"name":"Заря","state":"Kemerovo","territory":"","country":"Russia","latitude":54.472733,"longitude":85.385178,"population":22,"stateCapital":false,"nationalCapital":false,"pk":null,"quiz":"asia","code":null,"archived":false,"percentageOfSessions":null}, {"name":"Заря","state":"Kemerovo","territory":"","country":"Russia","latitude":56.0413872,"longitude":88.3190298,"population":93,"stateCapital":false,"nationalCapital":false,"pk":null,"quiz":"asia","code":null,"archived":false,"percentageOfSessions":null}, {"name":"Звездный","state":"Kemerovo","territory":"","country":"Russia","latitude":55.456921,"longitude":85.846062,"population":1385,"stateCapital":false,"nationalCapital":false,"pk":null,"quiz":"asia","code":null,"archived":false,"percentageOfSessions":null}, {"name":"Зеледеево","state":"Kemerovo","territory":"","country":"Russia","latitude":56.0394794,"longitude":84.8767856,"population":586,"stateCapital":false,"nationalCapital":false,"pk":null,"quiz":"asia","code":null,"archived":false,"percentageOfSessions":null}, {"name":"Зеленая Горка","state":"Kemerovo","territory":"","country":"Russia","latitude":55.7048716,"longitude":84.6409053,"population":159,"stateCapital":false,"nationalCapital":false,"pk":null,"quiz":"asia","code":null,"archived":false,"percentageOfSessions":null}, {"name":"Зеленовский","state":"Kemerovo","territory":"","country":"Russia","latitude":55.003395,"longitude":86.389099,"population":797,"stateCapital":false,"nationalCapital":false,"pk":null,"quiz":"asia","code":null,"archived":false,"percentageOfSessions":null}, {"name":"Зеленогорский","state":"Kemerovo","territory":"","country":"Russia","latitude":55.004623,"longitude":86.952477,"population":5175,"stateCapital":false,"nationalCapital":false,"pk":null,"quiz":"asia","code":null,"archived":false,"percentageOfSessions":null}, {"name":"Зеленый Луг","state":"Kemerovo","territory":"","country":"Russia","latitude":53.478233,"longitude":87.302467,"population":168,"stateCapital":false,"nationalCapital":false,"pk":null,"quiz":"asia","code":null,"archived":false,"percentageOfSessions":null}, {"name":"Зенкино","state":"Kemerovo","territory":"","country":"Russia","latitude":56.49107,"longitude":87.215469,"population":19,"stateCapital":false,"nationalCapital":false,"pk":null,"quiz":"asia","code":null,"archived":false,"percentageOfSessions":null}, {"name":"Зимник","state":"Kemerovo","territory":"","country":"Russia","latitude":55.661999,"longitude":84.925949,"population":852,"stateCapital":false,"nationalCapital":false,"pk":null,"quiz":"asia","code":null,"archived":false,"percentageOfSessions":null}, {"name":"Змеинка","state":"Kemerovo","territory":"","country":"Russia","latitude":55.095875,"longitude":86.774567,"population":18,"stateCapital":false,"nationalCapital":false,"pk":null,"quiz":"asia","code":null,"archived":false,"percentageOfSessions":null}, {"name":"Знаменка","state":"Kemerovo","territory":"","country":"Russia","latitude":56.058052,"longitude":88.229675,"population":199,"stateCapital":false,"nationalCapital":false,"pk":null,"quiz":"asia","code":null,"archived":false,"percentageOfSessions":null}, {"name":"Знаменский","state":"Kemerovo","territory":"","country":"Russia","latitude":55.1935397,"longitude":85.6968745,"population":200,"stateCapital":false,"nationalCapital":false,"pk":null,"quiz":"asia","code":null,"archived":false,"percentageOfSessions":null}, {"name":"Золотаревский","state":"Kemerovo","territory":"","country":"Russia","latitude":54.7150041,"longitude":86.3965742,"population":43,"stateCapital":false,"nationalCapital":false,"pk":null,"quiz":"asia","code":null,"archived":false,"percentageOfSessions":null}, {"name":"Золх","state":"Kemerovo","territory":"","country":"Russia","latitude":53.8741547,"longitude":86.4949692,"population":11,"stateCapital":false,"nationalCapital":false,"pk":null,"quiz":"asia","code":null,"archived":false,"percentageOfSessions":null}, {"name":"Зырянка","state":"Kemerovo","territory":"","country":"Russia","latitude":55.71586,"longitude":85.2316876,"population":389,"stateCapital":false,"nationalCapital":false,"pk":null,"quiz":"asia","code":null,"archived":false,"percentageOfSessions":null}, {"name":"Иван-Брод","state":"Kemerovo","territory":"","country":"Russia","latitude":54.6101269,"longitude":85.1404048,"population":0,"stateCapital":false,"nationalCapital":false,"pk":null,"quiz":"asia","code":null,"archived":false,"percentageOfSessions":null}, {"name":"Ивановка","state":"Kemerovo","territory":"","country":"Russia","latitude":54.47046,"longitude":86.251,"population":588,"stateCapital":false,"nationalCapital":false,"pk":null,"quiz":"asia","code":null,"archived":false,"percentageOfSessions":null}, {"name":"Ивановка","state":"Kemerovo","territory":"","country":"Russia","latitude":55.140297,"longitude":86.723236,"population":38,"stateCapital":false,"nationalCapital":false,"pk":null,"quiz":"asia","code":null,"archived":false,"percentageOfSessions":null}, {"name":"Ивановка","state":"Kemerovo","territory":"","country":"Russia","latitude":56.129879,"longitude":88.215645,"population":48,"stateCapital":false,"nationalCapital":false,"pk":null,"quiz":"asia","code":null,"archived":false,"percentageOfSessions":null}, {"name":"Ивановка","state":"Kemerovo","territory":"","country":"Russia","latitude":54.552559,"longitude":85.944794,"population":263,"stateCapital":false,"nationalCapital":false,"pk":null,"quiz":"asia","code":null,"archived":false,"percentageOfSessions":null}, {"name":"Ивановка","state":"Kemerovo","territory":"","country":"Russia","latitude":53.7840255,"longitude":87.0167102,"population":2,"stateCapital":false,"nationalCapital":false,"pk":null,"quiz":"asia","code":null,"archived":false,"percentageOfSessions":null}, {"name":"Ивановка","state":"Kemerovo","territory":"","country":"Russia","latitude":54.196156,"longitude":86.651443,"population":82,"stateCapital":false,"nationalCapital":false,"pk":null,"quiz":"asia","code":null,"archived":false,"percentageOfSessions":null}, {"name":"Ивановка","state":"Kemerovo","territory":"","country":"Russia","latitude":55.8857671,"longitude":87.7626887,"population":153,"stateCapital":false,"nationalCapital":false,"pk":null,"quiz":"asia","code":null,"archived":false,"percentageOfSessions":null}, {"name":"Иваново-Родионовский","state":"Kemerovo","territory":"","country":"Russia","latitude":54.8927673,"longitude":85.5362809,"population":319,"stateCapital":false,"nationalCapital":false,"pk":null,"quiz":"asia","code":null,"archived":false,"percentageOfSessions":null}, {"name":"Иверка","state":"Kemerovo","territory":"","country":"Russia","latitude":55.943478,"longitude":86.826958,"population":53,"stateCapital":false,"nationalCapital":false,"pk":null,"quiz":"asia","code":null,"archived":false,"percentageOfSessions":null}, {"name":"Иверка","state":"Kemerovo","territory":"","country":"Russia","latitude":55.943478,"longitude":86.826958,"population":181,"stateCapital":false,"nationalCapital":false,"pk":null,"quiz":"asia","code":null,"archived":false,"percentageOfSessions":null}, {"name":"Иганино","state":"Kemerovo","territory":"","country":"Russia","latitude":53.993893,"longitude":87.22316,"population":85,"stateCapital":false,"nationalCapital":false,"pk":null,"quiz":"asia","code":null,"archived":false,"percentageOfSessions":null}, {"name":"Иганино","state":"Kemerovo","territory":"","country":"Russia","latitude":54.008224,"longitude":86.451042,"population":124,"stateCapital":false,"nationalCapital":false,"pk":null,"quiz":"asia","code":null,"archived":false,"percentageOfSessions":null}, {"name":"Ижморка 2-я","state":"Kemerovo","territory":"","country":"Russia","latitude":56.158791,"longitude":86.631409,"population":493,"stateCapital":false,"nationalCapital":false,"pk":null,"quiz":"asia","code":null,"archived":false,"percentageOfSessions":null}, {"name":"Ижморский","state":"Kemerovo","territory":"","country":"Russia","latitude":56.192169,"longitude":86.637169,"population":5615,"stateCapital":false,"nationalCapital":false,"pk":null,"quiz":"asia","code":null,"archived":false,"percentageOfSessions":null}, {"name":"Известковый","state":"Kemerovo","territory":"","country":"Russia","latitude":55.597027,"longitude":85.761322,"population":30,"stateCapital":false,"nationalCapital":false,"pk":null,"quiz":"asia","code":null,"archived":false,"percentageOfSessions":null}, {"name":"Изындаево","state":"Kemerovo","territory":"","country":"Russia","latitude":55.7496515,"longitude":89.1879796,"population":170,"stateCapital":false,"nationalCapital":false,"pk":null,"quiz":"asia","code":null,"archived":false,"percentageOfSessions":null}, {"name":"Илиндеевка","state":"Kemerovo","territory":"","country":"Russia","latitude":55.34227,"longitude":86.368797,"population":9,"stateCapital":false,"nationalCapital":false,"pk":null,"quiz":"asia","code":null,"archived":false,"percentageOfSessions":null}, {"name":"Ильинка","state":"Kemerovo","territory":"","country":"Russia","latitude":53.1602491,"longitude":88.7166381,"population":45,"stateCapital":false,"nationalCapital":false,"pk":null,"quiz":"asia","code":null,"archived":false,"percentageOfSessions":null}, {"name":"Ильинка","state":"Kemerovo","territory":"","country":"Russia","latitude":53.900764,"longitude":87.163513,"population":1708,"stateCapital":false,"nationalCapital":false,"pk":null,"quiz":"asia","code":null,"archived":false,"percentageOfSessions":null}, {"name":"имени Ильича","state":"Kemerovo","territory":"","country":"Russia","latitude":54.312168,"longitude":86.389099,"population":213,"stateCapital":false,"nationalCapital":false,"pk":null,"quiz":"asia","code":null,"archived":false,"percentageOfSessions":null}, {"name":"Индустрия","state":"Kemerovo","territory":"","country":"Russia","latitude":53.830406,"longitude":86.72274,"population":381,"stateCapital":false,"nationalCapital":false,"pk":null,"quiz":"asia","code":null,"archived":false,"percentageOfSessions":null}, {"name":"Индустрия","state":"Kemerovo","territory":"","country":"Russia","latitude":54.6205877,"longitude":86.1066774,"population":15,"stateCapital":false,"nationalCapital":false,"pk":null,"quiz":"asia","code":null,"archived":false,"percentageOfSessions":null}, {"name":"Инской","state":"Kemerovo","territory":"","country":"Russia","latitude":54.432644,"longitude":86.441681,"population":12590,"stateCapital":false,"nationalCapital":false,"pk":null,"quiz":"asia","code":null,"archived":false,"percentageOfSessions":null}, {"name":"Инченково","state":"Kemerovo","territory":"","country":"Russia","latitude":54.059406,"longitude":86.383568,"population":55,"stateCapital":false,"nationalCapital":false,"pk":null,"quiz":"asia","code":null,"archived":false,"percentageOfSessions":null}, {"name":"Инченково","state":"Kemerovo","territory":"","country":"Russia","latitude":54.059406,"longitude":86.383568,"population":207,"stateCapital":false,"nationalCapital":false,"pk":null,"quiz":"asia","code":null,"archived":false,"percentageOfSessions":null}, {"name":"Инюшка","state":"Kemerovo","territory":"","country":"Russia","latitude":54.606499,"longitude":86.802017,"population":334,"stateCapital":false,"nationalCapital":false,"pk":null,"quiz":"asia","code":null,"archived":false,"percentageOfSessions":null}, {"name":"Итатский","state":"Kemerovo","territory":"","country":"Russia","latitude":56.068081,"longitude":89.032578,"population":3726,"stateCapital":false,"nationalCapital":false,"pk":null,"quiz":"asia","code":null,"archived":false,"percentageOfSessions":null}, {"name":"Иткара","state":"Kemerovo","territory":"","country":"Russia","latitude":55.954056,"longitude":84.988632,"population":42,"stateCapital":false,"nationalCapital":false,"pk":null,"quiz":"asia","code":null,"archived":false,"percentageOfSessions":null}, {"name":"Ишим","state":"Kemerovo","territory":"","country":"Russia","latitude":56.513992,"longitude":86.221596,"population":378,"stateCapital":false,"nationalCapital":false,"pk":null,"quiz":"asia","code":null,"archived":false,"percentageOfSessions":null}, {"name":"Кабаново","state":"Kemerovo","territory":"","country":"Russia","latitude":54.984852,"longitude":86.170723,"population":185,"stateCapital":false,"nationalCapital":false,"pk":null,"quiz":"asia","code":null,"archived":false,"percentageOfSessions":null}, {"name":"Каз","state":"Kemerovo","territory":"","country":"Russia","latitude":53.112923,"longitude":87.554047,"population":4623,"stateCapital":false,"nationalCapital":false,"pk":null,"quiz":"asia","code":null,"archived":false,"percentageOfSessions":null}, {"name":"Казанка-20","state":"Kemerovo","territory":"","country":"Russia","latitude":55.6493324,"longitude":87.5101981,"population":50,"stateCapital":false,"nationalCapital":false,"pk":null,"quiz":"asia","code":null,"archived":false,"percentageOfSessions":null}, {"name":"Казанково","state":"Kemerovo","territory":"","country":"Russia","latitude":53.999435,"longitude":87.273628,"population":870,"stateCapital":false,"nationalCapital":false,"pk":null,"quiz":"asia","code":null,"archived":false,"percentageOfSessions":null}, {"name":"Казас","state":"Kemerovo","territory":"","country":"Russia","latitude":53.6065983,"longitude":87.8422915,"population":29,"stateCapital":false,"nationalCapital":false,"pk":null,"quiz":"asia","code":null,"archived":false,"percentageOfSessions":null}, {"name":"Кайдулы","state":"Kemerovo","territory":"","country":"Russia","latitude":56.279125,"longitude":87.503563,"population":115,"stateCapital":false,"nationalCapital":false,"pk":null,"quiz":"asia","code":null,"archived":false,"percentageOfSessions":null}, {"name":"Кайла","state":"Kemerovo","territory":"","country":"Russia","latitude":56.2214029,"longitude":86.0753983,"population":726,"stateCapital":false,"nationalCapital":false,"pk":null,"quiz":"asia","code":null,"archived":false,"percentageOfSessions":null}, {"name":"Каип","state":"Kemerovo","territory":"","country":"Russia","latitude":55.5364115,"longitude":84.9502677,"population":75,"stateCapital":false,"nationalCapital":false,"pk":null,"quiz":"asia","code":null,"archived":false,"percentageOfSessions":null}, {"name":"Кайчак","state":"Kemerovo","territory":"","country":"Russia","latitude":55.7359856,"longitude":88.556968,"population":270,"stateCapital":false,"nationalCapital":false,"pk":null,"quiz":"asia","code":null,"archived":false,"percentageOfSessions":null}, {"name":"Калары","state":"Kemerovo","territory":"","country":"Russia","latitude":52.9184794,"longitude":87.5729454,"population":444,"stateCapital":false,"nationalCapital":false,"pk":null,"quiz":"asia","code":null,"archived":false,"percentageOfSessions":null}, {"name":"Калачево","state":"Kemerovo","territory":"","country":"Russia","latitude":53.788517,"longitude":86.934181,"population":1843,"stateCapital":false,"nationalCapital":false,"pk":null,"quiz":"asia","code":null,"archived":false,"percentageOfSessions":null}, {"name":"Каленово","state":"Kemerovo","territory":"","country":"Russia","latitude":55.7939517,"longitude":85.2212735,"population":44,"stateCapital":false,"nationalCapital":false,"pk":null,"quiz":"asia","code":null,"archived":false,"percentageOfSessions":null}, {"name":"Калининский","state":"Kemerovo","territory":"","country":"Russia","latitude":56.195591,"longitude":87.638901,"population":1533,"stateCapital":false,"nationalCapital":false,"pk":null,"quiz":"asia","code":null,"archived":false,"percentageOfSessions":null}, {"name":"Калининский","state":"Kemerovo","territory":"","country":"Russia","latitude":56.195591,"longitude":87.638901,"population":77,"stateCapital":false,"nationalCapital":false,"pk":null,"quiz":"asia","code":null,"archived":false,"percentageOfSessions":null}, {"name":"Калинкино","state":"Kemerovo","territory":"","country":"Russia","latitude":54.9256452,"longitude":85.7744631,"population":719,"stateCapital":false,"nationalCapital":false,"pk":null,"quiz":"asia","code":null,"archived":false,"percentageOfSessions":null}, {"name":"Калиновка","state":"Kemerovo","territory":"","country":"Russia","latitude":54.497223,"longitude":86.209732,"population":152,"stateCapital":false,"nationalCapital":false,"pk":null,"quiz":"asia","code":null,"archived":false,"percentageOfSessions":null}, {"name":"Калиновка","state":"Kemerovo","territory":"","country":"Russia","latitude":54.098442,"longitude":86.386246,"population":82,"stateCapital":false,"nationalCapital":false,"pk":null,"quiz":"asia","code":null,"archived":false,"percentageOfSessions":null}, {"name":"Калиновский","state":"Kemerovo","territory":"","country":"Russia","latitude":53.616302,"longitude":87.018044,"population":16,"stateCapital":false,"nationalCapital":false,"pk":null,"quiz":"asia","code":null,"archived":false,"percentageOfSessions":null}, {"name":"Калмыковский","state":"Kemerovo","territory":"","country":"Russia","latitude":53.628208,"longitude":86.979248,"population":12,"stateCapital":false,"nationalCapital":false,"pk":null,"quiz":"asia","code":null,"archived":false,"percentageOfSessions":null}, {"name":"Калтан","state":"Kemerovo","territory":"","country":"Russia","latitude":53.519459,"longitude":87.286179,"population":21892,"stateCapital":false,"nationalCapital":false,"pk":null,"quiz":"asia","code":null,"archived":false,"percentageOfSessions":null}, {"name":"Калташ","state":"Kemerovo","territory":"","country":"Russia","latitude":52.6734024,"longitude":87.5756707,"population":0,"stateCapital":false,"nationalCapital":false,"pk":null,"quiz":"asia","code":null,"archived":false,"percentageOfSessions":null}, {"name":"Калтышино","state":"Kemerovo","territory":"","country":"Russia","latitude":54.8316016,"longitude":85.1195991,"population":112,"stateCapital":false,"nationalCapital":false,"pk":null,"quiz":"asia","code":null,"archived":false,"percentageOfSessions":null}, {"name":"Каменка","state":"Kemerovo","territory":"","country":"Russia","latitude":54.840696,"longitude":85.5435454,"population":862,"stateCapital":false,"nationalCapital":false,"pk":null,"quiz":"asia","code":null,"archived":false,"percentageOfSessions":null}, {"name":"Каменка","state":"Kemerovo","territory":"","country":"Russia","latitude":54.799759,"longitude":86.705849,"population":883,"stateCapital":false,"nationalCapital":false,"pk":null,"quiz":"asia","code":null,"archived":false,"percentageOfSessions":null}, {"name":"Каменный","state":"Kemerovo","territory":"","country":"Russia","latitude":54.955471,"longitude":86.719566,"population":493,"stateCapital":false,"nationalCapital":false,"pk":null,"quiz":"asia","code":null,"archived":false,"percentageOfSessions":null}, {"name":"Каменный Брод","state":"Kemerovo","territory":"","country":"Russia","latitude":55.981026,"longitude":85.808853,"population":2,"stateCapital":false,"nationalCapital":false,"pk":null,"quiz":"asia","code":null,"archived":false,"percentageOfSessions":null}, {"name":"Каменный Карьер","state":"Kemerovo","territory":"","country":"Russia","latitude":52.9980172,"longitude":87.5158276,"population":3,"stateCapital":false,"nationalCapital":false,"pk":null,"quiz":"asia","code":null,"archived":false,"percentageOfSessions":null}, {"name":"Каменный Ключ","state":"Kemerovo","territory":"","country":"Russia","latitude":54.104118,"longitude":86.14579,"population":91,"stateCapital":false,"nationalCapital":false,"pk":null,"quiz":"asia","code":null,"archived":false,"percentageOfSessions":null}, {"name":"Каменный Ключ","state":"Kemerovo","territory":"","country":"Russia","latitude":54.104118,"longitude":86.14579,"population":680,"stateCapital":false,"nationalCapital":false,"pk":null,"quiz":"asia","code":null,"archived":false,"percentageOfSessions":null}, {"name":"Каменушка","state":"Kemerovo","territory":"","country":"Russia","latitude":54.2988544,"longitude":85.7583071,"population":36,"stateCapital":false,"nationalCapital":false,"pk":null,"quiz":"asia","code":null,"archived":false,"percentageOfSessions":null}, {"name":"Камень-Садат","state":"Kemerovo","territory":"","country":"Russia","latitude":55.3810204,"longitude":88.5669589,"population":9,"stateCapital":false,"nationalCapital":false,"pk":null,"quiz":"asia","code":null,"archived":false,"percentageOfSessions":null}, {"name":"Камешек","state":"Kemerovo","territory":"","country":"Russia","latitude":53.5744182,"longitude":87.7938834,"population":5,"stateCapital":false,"nationalCapital":false,"pk":null,"quiz":"asia","code":null,"archived":false,"percentageOfSessions":null}, {"name":"Камешек","state":"Kemerovo","territory":"","country":"Russia","latitude":54.428291,"longitude":86.541008,"population":66,"stateCapital":false,"nationalCapital":false,"pk":null,"quiz":"asia","code":null,"archived":false,"percentageOfSessions":null}, {"name":"Камзас","state":"Kemerovo","territory":"","country":"Russia","latitude":52.4250276,"longitude":88.5154009,"population":2,"stateCapital":false,"nationalCapital":false,"pk":null,"quiz":"asia","code":null,"archived":false,"percentageOfSessions":null}, {"name":"Камышенка","state":"Kemerovo","territory":"","country":"Russia","latitude":56.106659,"longitude":87.253891,"population":205,"stateCapital":false,"nationalCapital":false,"pk":null,"quiz":"asia","code":null,"archived":false,"percentageOfSessions":null}, {"name":"Камышино","state":"Kemerovo","territory":"","country":"Russia","latitude":54.61713,"longitude":85.796303,"population":621,"stateCapital":false,"nationalCapital":false,"pk":null,"quiz":"asia","code":null,"archived":false,"percentageOfSessions":null}, {"name":"Камышловка","state":"Kemerovo","territory":"","country":"Russia","latitude":55.9739183,"longitude":88.5334348,"population":49,"stateCapital":false,"nationalCapital":false,"pk":null,"quiz":"asia","code":null,"archived":false,"percentageOfSessions":null}, {"name":"Камышная","state":"Kemerovo","territory":"","country":"Russia","latitude":55.3356474,"longitude":85.8630893,"population":417,"stateCapital":false,"nationalCapital":false,"pk":null,"quiz":"asia","code":null,"archived":false,"percentageOfSessions":null}, {"name":"Канаш","state":"Kemerovo","territory":"","country":"Russia","latitude":54.082134,"longitude":86.331604,"population":41,"stateCapital":false,"nationalCapital":false,"pk":null,"quiz":"asia","code":null,"archived":false,"percentageOfSessions":null}, {"name":"Кандалеп","state":"Kemerovo","territory":"","country":"Russia","latitude":53.273609,"longitude":86.929749,"population":170,"stateCapital":false,"nationalCapital":false,"pk":null,"quiz":"asia","code":null,"archived":false,"percentageOfSessions":null}, {"name":"Кантус","state":"Kemerovo","territory":"","country":"Russia","latitude":52.8138372,"longitude":88.7340234,"population":2,"stateCapital":false,"nationalCapital":false,"pk":null,"quiz":"asia","code":null,"archived":false,"percentageOfSessions":null}, {"name":"Карагайла","state":"Kemerovo","territory":"","country":"Russia","latitude":54.1721,"longitude":86.555199,"population":1150,"stateCapital":false,"nationalCapital":false,"pk":null,"quiz":"asia","code":null,"archived":false,"percentageOfSessions":null}, {"name":"Карагайлинский","state":"Kemerovo","territory":"","country":"Russia","latitude":54.14595,"longitude":86.611023,"population":4245,"stateCapital":false,"nationalCapital":false,"pk":null,"quiz":"asia","code":null,"archived":false,"percentageOfSessions":null}, {"name":"Карагол","state":"Kemerovo","territory":"","country":"Russia","latitude":52.778378,"longitude":87.125938,"population":104,"stateCapital":false,"nationalCapital":false,"pk":null,"quiz":"asia","code":null,"archived":false,"percentageOfSessions":null}, {"name":"Каракан","state":"Kemerovo","territory":"","country":"Russia","latitude":54.390175,"longitude":86.771339,"population":908,"stateCapital":false,"nationalCapital":false,"pk":null,"quiz":"asia","code":null,"archived":false,"percentageOfSessions":null}, {"name":"Каралда","state":"Kemerovo","territory":"","country":"Russia","latitude":54.390499,"longitude":86.989746,"population":522,"stateCapital":false,"nationalCapital":false,"pk":null,"quiz":"asia","code":null,"archived":false,"percentageOfSessions":null}, {"name":"Карачарово","state":"Kemerovo","territory":"","country":"Russia","latitude":55.7454149,"longitude":87.6888884,"population":235,"stateCapital":false,"nationalCapital":false,"pk":null,"quiz":"asia","code":null,"archived":false,"percentageOfSessions":null}, {"name":"Кара-Чумыш","state":"Kemerovo","territory":"","country":"Russia","latitude":54.086823,"longitude":86.275734,"population":35,"stateCapital":false,"nationalCapital":false,"pk":null,"quiz":"asia","code":null,"archived":false,"percentageOfSessions":null}, {"name":"Кара-Чумыш","state":"Kemerovo","territory":"","country":"Russia","latitude":54.086823,"longitude":86.275734,"population":107,"stateCapital":false,"nationalCapital":false,"pk":null,"quiz":"asia","code":null,"archived":false,"percentageOfSessions":null}, {"name":"Карбалык","state":"Kemerovo","territory":"","country":"Russia","latitude":52.6884832,"longitude":88.1508309,"population":5,"stateCapital":false,"nationalCapital":false,"pk":null,"quiz":"asia","code":null,"archived":false,"percentageOfSessions":null}, {"name":"Карчагол","state":"Kemerovo","territory":"","country":"Russia","latitude":53.4055741,"longitude":87.2642881,"population":35,"stateCapital":false,"nationalCapital":false,"pk":null,"quiz":"asia","code":null,"archived":false,"percentageOfSessions":null}, {"name":"Карьер (Белая Глинка)","state":"Kemerovo","territory":"","country":"Russia","latitude":54.7153949,"longitude":85.8082631,"population":10,"stateCapital":false,"nationalCapital":false,"pk":null,"quiz":"asia","code":null,"archived":false,"percentageOfSessions":null}, {"name":"Касимовка","state":"Kemerovo","territory":"","country":"Russia","latitude":54.7424004,"longitude":85.3408462,"population":20,"stateCapital":false,"nationalCapital":false,"pk":null,"quiz":"asia","code":null,"archived":false,"percentageOfSessions":null},