{"cities":[{"name":"Абакумовка","state":"Krasnoyarsk","territory":"","country":"Russia","latitude":55.7357597,"longitude":96.2314241,"population":6,"stateCapital":false,"nationalCapital":false,"pk":null,"quiz":"asia","code":null,"archived":false,"percentageOfSessions":null}, {"name":"Абакшино","state":"Krasnoyarsk","territory":"","country":"Russia","latitude":56.5729919,"longitude":93.6895483,"population":211,"stateCapital":false,"nationalCapital":false,"pk":null,"quiz":"asia","code":null,"archived":false,"percentageOfSessions":null}, {"name":"Абалаково","state":"Krasnoyarsk","territory":"","country":"Russia","latitude":55.066632,"longitude":94.8314962,"population":51,"stateCapital":false,"nationalCapital":false,"pk":null,"quiz":"asia","code":null,"archived":false,"percentageOfSessions":null}, {"name":"Абалаково","state":"Krasnoyarsk","territory":"","country":"Russia","latitude":58.1112655,"longitude":92.72598,"population":773,"stateCapital":false,"nationalCapital":false,"pk":null,"quiz":"asia","code":null,"archived":false,"percentageOfSessions":null}, {"name":"Абалаково","state":"Krasnoyarsk","territory":"","country":"Russia","latitude":58.1112655,"longitude":92.72598,"population":1451,"stateCapital":false,"nationalCapital":false,"pk":null,"quiz":"asia","code":null,"archived":false,"percentageOfSessions":null}, {"name":"Абан","state":"Krasnoyarsk","territory":"","country":"Russia","latitude":56.67667,"longitude":96.067764,"population":9187,"stateCapital":false,"nationalCapital":false,"pk":null,"quiz":"asia","code":null,"archived":false,"percentageOfSessions":null}, {"name":"Авда","state":"Krasnoyarsk","territory":"","country":"Russia","latitude":55.7378276,"longitude":94.6206492,"population":411,"stateCapital":false,"nationalCapital":false,"pk":null,"quiz":"asia","code":null,"archived":false,"percentageOfSessions":null}, {"name":"Авдинка","state":"Krasnoyarsk","territory":"","country":"Russia","latitude":55.7562213,"longitude":94.6769783,"population":5,"stateCapital":false,"nationalCapital":false,"pk":null,"quiz":"asia","code":null,"archived":false,"percentageOfSessions":null}, {"name":"Агинское","state":"Krasnoyarsk","territory":"","country":"Russia","latitude":55.258972,"longitude":94.906372,"population":5584,"stateCapital":false,"nationalCapital":false,"pk":null,"quiz":"asia","code":null,"archived":false,"percentageOfSessions":null}, {"name":"Агул","state":"Krasnoyarsk","territory":"","country":"Russia","latitude":55.5041068,"longitude":95.8874405,"population":353,"stateCapital":false,"nationalCapital":false,"pk":null,"quiz":"asia","code":null,"archived":false,"percentageOfSessions":null}, {"name":"Агул","state":"Krasnoyarsk","territory":"","country":"Russia","latitude":55.7531052,"longitude":95.8327678,"population":90,"stateCapital":false,"nationalCapital":false,"pk":null,"quiz":"asia","code":null,"archived":false,"percentageOfSessions":null}, {"name":"Адриха","state":"Krasnoyarsk","territory":"","country":"Russia","latitude":54.4243631,"longitude":92.4184443,"population":75,"stateCapital":false,"nationalCapital":false,"pk":null,"quiz":"asia","code":null,"archived":false,"percentageOfSessions":null}, {"name":"Аешка","state":"Krasnoyarsk","territory":"","country":"Russia","latitude":54.9222047,"longitude":90.8474827,"population":227,"stateCapital":false,"nationalCapital":false,"pk":null,"quiz":"asia","code":null,"archived":false,"percentageOfSessions":null}, {"name":"Ажинское","state":"Krasnoyarsk","territory":"","country":"Russia","latitude":55.549683,"longitude":89.212158,"population":404,"stateCapital":false,"nationalCapital":false,"pk":null,"quiz":"asia","code":null,"archived":false,"percentageOfSessions":null}, {"name":"Айдара","state":"Krasnoyarsk","territory":"","country":"Russia","latitude":58.5272946,"longitude":88.4038577,"population":171,"stateCapital":false,"nationalCapital":false,"pk":null,"quiz":"asia","code":null,"archived":false,"percentageOfSessions":null}, {"name":"Айтат","state":"Krasnoyarsk","territory":"","country":"Russia","latitude":57.009253,"longitude":92.98719,"population":232,"stateCapital":false,"nationalCapital":false,"pk":null,"quiz":"asia","code":null,"archived":false,"percentageOfSessions":null}, {"name":"Аксеново","state":"Krasnoyarsk","territory":"","country":"Russia","latitude":58.9320084,"longitude":101.5964683,"population":697,"stateCapital":false,"nationalCapital":false,"pk":null,"quiz":"asia","code":null,"archived":false,"percentageOfSessions":null}, {"name":"Алгайск","state":"Krasnoyarsk","territory":"","country":"Russia","latitude":57.2870174,"longitude":92.1097153,"population":1,"stateCapital":false,"nationalCapital":false,"pk":null,"quiz":"asia","code":null,"archived":false,"percentageOfSessions":null}, {"name":"Алгасы","state":"Krasnoyarsk","territory":"","country":"Russia","latitude":56.0829347,"longitude":96.0870416,"population":0,"stateCapital":false,"nationalCapital":false,"pk":null,"quiz":"asia","code":null,"archived":false,"percentageOfSessions":null}, {"name":"Алгаштык","state":"Krasnoyarsk","territory":"","country":"Russia","latitude":54.6547067,"longitude":91.6077784,"population":118,"stateCapital":false,"nationalCapital":false,"pk":null,"quiz":"asia","code":null,"archived":false,"percentageOfSessions":null}, {"name":"Алдарак","state":"Krasnoyarsk","territory":"","country":"Russia","latitude":55.2518177,"longitude":94.4199302,"population":13,"stateCapital":false,"nationalCapital":false,"pk":null,"quiz":"asia","code":null,"archived":false,"percentageOfSessions":null}, {"name":"Алега","state":"Krasnoyarsk","territory":"","country":"Russia","latitude":56.4225179,"longitude":95.0907423,"population":123,"stateCapital":false,"nationalCapital":false,"pk":null,"quiz":"asia","code":null,"archived":false,"percentageOfSessions":null}, {"name":"Александровка","state":"Krasnoyarsk","territory":"","country":"Russia","latitude":57.1075152,"longitude":90.2292051,"population":102,"stateCapital":false,"nationalCapital":false,"pk":null,"quiz":"asia","code":null,"archived":false,"percentageOfSessions":null}, {"name":"Александровка","state":"Krasnoyarsk","territory":"","country":"Russia","latitude":56.5323612,"longitude":90.777599,"population":172,"stateCapital":false,"nationalCapital":false,"pk":null,"quiz":"asia","code":null,"archived":false,"percentageOfSessions":null}, {"name":"Александровка","state":"Krasnoyarsk","territory":"","country":"Russia","latitude":54.630161,"longitude":91.782623,"population":79,"stateCapital":false,"nationalCapital":false,"pk":null,"quiz":"asia","code":null,"archived":false,"percentageOfSessions":null}, {"name":"Александровка","state":"Krasnoyarsk","territory":"","country":"Russia","latitude":56.3402501,"longitude":97.010858,"population":269,"stateCapital":false,"nationalCapital":false,"pk":null,"quiz":"asia","code":null,"archived":false,"percentageOfSessions":null}, {"name":"Александровка","state":"Krasnoyarsk","territory":"","country":"Russia","latitude":55.802021,"longitude":89.749756,"population":126,"stateCapital":false,"nationalCapital":false,"pk":null,"quiz":"asia","code":null,"archived":false,"percentageOfSessions":null}, {"name":"Александровка","state":"Krasnoyarsk","territory":"","country":"Russia","latitude":56.009918,"longitude":89.343414,"population":459,"stateCapital":false,"nationalCapital":false,"pk":null,"quiz":"asia","code":null,"archived":false,"percentageOfSessions":null}, {"name":"Александровка","state":"Krasnoyarsk","territory":"","country":"Russia","latitude":55.5648271,"longitude":95.3804606,"population":431,"stateCapital":false,"nationalCapital":false,"pk":null,"quiz":"asia","code":null,"archived":false,"percentageOfSessions":null}, {"name":"Александровка","state":"Krasnoyarsk","territory":"","country":"Russia","latitude":57.3784226,"longitude":93.6852895,"population":86,"stateCapital":false,"nationalCapital":false,"pk":null,"quiz":"asia","code":null,"archived":false,"percentageOfSessions":null}, {"name":"Александровка","state":"Krasnoyarsk","territory":"","country":"Russia","latitude":55.9929136,"longitude":94.5579701,"population":644,"stateCapital":false,"nationalCapital":false,"pk":null,"quiz":"asia","code":null,"archived":false,"percentageOfSessions":null}, {"name":"Александровский Шлюз","state":"Krasnoyarsk","territory":"","country":"Russia","latitude":59.4297436,"longitude":89.2898685,"population":135,"stateCapital":false,"nationalCapital":false,"pk":null,"quiz":"asia","code":null,"archived":false,"percentageOfSessions":null}, {"name":"Александро-Ерша","state":"Krasnoyarsk","territory":"","country":"Russia","latitude":56.6286757,"longitude":95.2681805,"population":439,"stateCapital":false,"nationalCapital":false,"pk":null,"quiz":"asia","code":null,"archived":false,"percentageOfSessions":null}, {"name":"Алексеевка","state":"Krasnoyarsk","territory":"","country":"Russia","latitude":56.7355443,"longitude":96.020651,"population":166,"stateCapital":false,"nationalCapital":false,"pk":null,"quiz":"asia","code":null,"archived":false,"percentageOfSessions":null}, {"name":"Алексеевка","state":"Krasnoyarsk","territory":"","country":"Russia","latitude":56.6269936,"longitude":91.9814107,"population":0,"stateCapital":false,"nationalCapital":false,"pk":null,"quiz":"asia","code":null,"archived":false,"percentageOfSessions":null}, {"name":"Алексеевка","state":"Krasnoyarsk","territory":"","country":"Russia","latitude":53.4414605,"longitude":93.2018746,"population":34,"stateCapital":false,"nationalCapital":false,"pk":null,"quiz":"asia","code":null,"archived":false,"percentageOfSessions":null}, {"name":"Алексеевка","state":"Krasnoyarsk","territory":"","country":"Russia","latitude":56.3769257,"longitude":96.9785986,"population":100,"stateCapital":false,"nationalCapital":false,"pk":null,"quiz":"asia","code":null,"archived":false,"percentageOfSessions":null}, {"name":"Алексеевка","state":"Krasnoyarsk","territory":"","country":"Russia","latitude":55.1190177,"longitude":94.7509282,"population":24,"stateCapital":false,"nationalCapital":false,"pk":null,"quiz":"asia","code":null,"archived":false,"percentageOfSessions":null}, {"name":"Алексеевка","state":"Krasnoyarsk","territory":"","country":"Russia","latitude":56.511295,"longitude":89.45842,"population":3,"stateCapital":false,"nationalCapital":false,"pk":null,"quiz":"asia","code":null,"archived":false,"percentageOfSessions":null}, {"name":"Алексеевка","state":"Krasnoyarsk","territory":"","country":"Russia","latitude":55.622517,"longitude":89.95295,"population":117,"stateCapital":false,"nationalCapital":false,"pk":null,"quiz":"asia","code":null,"archived":false,"percentageOfSessions":null}, {"name":"Алексеевка","state":"Krasnoyarsk","territory":"","country":"Russia","latitude":54.0481,"longitude":92.231,"population":884,"stateCapital":false,"nationalCapital":false,"pk":null,"quiz":"asia","code":null,"archived":false,"percentageOfSessions":null}, {"name":"Алешино","state":"Krasnoyarsk","territory":"","country":"Russia","latitude":56.2576819,"longitude":95.0563316,"population":2,"stateCapital":false,"nationalCapital":false,"pk":null,"quiz":"asia","code":null,"archived":false,"percentageOfSessions":null}, {"name":"Алинское","state":"Krasnoyarsk","territory":"","country":"Russia","latitude":63.301299,"longitude":87.6046181,"population":11,"stateCapital":false,"nationalCapital":false,"pk":null,"quiz":"asia","code":null,"archived":false,"percentageOfSessions":null}, {"name":"Алтан","state":"Krasnoyarsk","territory":"","country":"Russia","latitude":53.2420406,"longitude":91.8880364,"population":332,"stateCapital":false,"nationalCapital":false,"pk":null,"quiz":"asia","code":null,"archived":false,"percentageOfSessions":null}, {"name":"Алтат","state":"Krasnoyarsk","territory":"","country":"Russia","latitude":56.063797,"longitude":90.064133,"population":265,"stateCapital":false,"nationalCapital":false,"pk":null,"quiz":"asia","code":null,"archived":false,"percentageOfSessions":null}, {"name":"Алтат","state":"Krasnoyarsk","territory":"","country":"Russia","latitude":57.491627,"longitude":91.393547,"population":111,"stateCapital":false,"nationalCapital":false,"pk":null,"quiz":"asia","code":null,"archived":false,"percentageOfSessions":null}, {"name":"Альгинка","state":"Krasnoyarsk","territory":"","country":"Russia","latitude":55.4978937,"longitude":95.4291383,"population":197,"stateCapital":false,"nationalCapital":false,"pk":null,"quiz":"asia","code":null,"archived":false,"percentageOfSessions":null}, {"name":"Аммала","state":"Krasnoyarsk","territory":"","country":"Russia","latitude":55.797478,"longitude":91.098251,"population":67,"stateCapital":false,"nationalCapital":false,"pk":null,"quiz":"asia","code":null,"archived":false,"percentageOfSessions":null}, {"name":"Амонаш","state":"Krasnoyarsk","territory":"","country":"Russia","latitude":55.9035802,"longitude":95.8405721,"population":308,"stateCapital":false,"nationalCapital":false,"pk":null,"quiz":"asia","code":null,"archived":false,"percentageOfSessions":null}, {"name":"Анастасино","state":"Krasnoyarsk","territory":"","country":"Russia","latitude":55.1242796,"longitude":93.3920342,"population":219,"stateCapital":false,"nationalCapital":false,"pk":null,"quiz":"asia","code":null,"archived":false,"percentageOfSessions":null}, {"name":"Анаш","state":"Krasnoyarsk","territory":"","country":"Russia","latitude":54.86969,"longitude":91.049149,"population":994,"stateCapital":false,"nationalCapital":false,"pk":null,"quiz":"asia","code":null,"archived":false,"percentageOfSessions":null}, {"name":"Ангарский","state":"Krasnoyarsk","territory":"","country":"Russia","latitude":58.4381343,"longitude":97.145955,"population":2093,"stateCapital":false,"nationalCapital":false,"pk":null,"quiz":"asia","code":null,"archived":false,"percentageOfSessions":null}, {"name":"Ангутиха","state":"Krasnoyarsk","territory":"","country":"Russia","latitude":66.117599,"longitude":87.236191,"population":0,"stateCapital":false,"nationalCapital":false,"pk":null,"quiz":"asia","code":null,"archived":false,"percentageOfSessions":null}, {"name":"Андреев Ключ","state":"Krasnoyarsk","territory":"","country":"Russia","latitude":54.0639387,"longitude":93.1537197,"population":4,"stateCapital":false,"nationalCapital":false,"pk":null,"quiz":"asia","code":null,"archived":false,"percentageOfSessions":null}, {"name":"Андроново","state":"Krasnoyarsk","territory":"","country":"Russia","latitude":55.555569,"longitude":90.037498,"population":265,"stateCapital":false,"nationalCapital":false,"pk":null,"quiz":"asia","code":null,"archived":false,"percentageOfSessions":null}, {"name":"Антропово","state":"Krasnoyarsk","territory":"","country":"Russia","latitude":55.815945,"longitude":90.146675,"population":424,"stateCapital":false,"nationalCapital":false,"pk":null,"quiz":"asia","code":null,"archived":false,"percentageOfSessions":null}, {"name":"Анцирь","state":"Krasnoyarsk","territory":"","country":"Russia","latitude":56.2534217,"longitude":95.5381308,"population":1262,"stateCapital":false,"nationalCapital":false,"pk":null,"quiz":"asia","code":null,"archived":false,"percentageOfSessions":null}, {"name":"Анциферово","state":"Krasnoyarsk","territory":"","country":"Russia","latitude":58.8724802,"longitude":91.8622253,"population":208,"stateCapital":false,"nationalCapital":false,"pk":null,"quiz":"asia","code":null,"archived":false,"percentageOfSessions":null}, {"name":"Апано-Ключи","state":"Krasnoyarsk","territory":"","country":"Russia","latitude":56.862183,"longitude":96.221741,"population":370,"stateCapital":false,"nationalCapital":false,"pk":null,"quiz":"asia","code":null,"archived":false,"percentageOfSessions":null}, {"name":"Арабкаево","state":"Krasnoyarsk","territory":"","country":"Russia","latitude":55.083023,"longitude":90.323479,"population":328,"stateCapital":false,"nationalCapital":false,"pk":null,"quiz":"asia","code":null,"archived":false,"percentageOfSessions":null}, {"name":"Арадан","state":"Krasnoyarsk","territory":"","country":"Russia","latitude":52.5745347,"longitude":93.4426151,"population":278,"stateCapital":false,"nationalCapital":false,"pk":null,"quiz":"asia","code":null,"archived":false,"percentageOfSessions":null}, {"name":"Аргаза","state":"Krasnoyarsk","territory":"","country":"Russia","latitude":55.2729904,"longitude":94.2285632,"population":41,"stateCapital":false,"nationalCapital":false,"pk":null,"quiz":"asia","code":null,"archived":false,"percentageOfSessions":null}, {"name":"Арей","state":"Krasnoyarsk","territory":"","country":"Russia","latitude":56.2333152,"longitude":92.8411815,"population":312,"stateCapital":false,"nationalCapital":false,"pk":null,"quiz":"asia","code":null,"archived":false,"percentageOfSessions":null}, {"name":"Арейское","state":"Krasnoyarsk","territory":"","country":"Russia","latitude":56.09734,"longitude":92.452278,"population":2117,"stateCapital":false,"nationalCapital":false,"pk":null,"quiz":"asia","code":null,"archived":false,"percentageOfSessions":null}, {"name":"Арефьевка","state":"Krasnoyarsk","territory":"","country":"Russia","latitude":56.3576182,"longitude":95.7312072,"population":335,"stateCapital":false,"nationalCapital":false,"pk":null,"quiz":"asia","code":null,"archived":false,"percentageOfSessions":null}, {"name":"Арефьево","state":"Krasnoyarsk","territory":"","country":"Russia","latitude":57.028027,"longitude":90.674637,"population":390,"stateCapital":false,"nationalCapital":false,"pk":null,"quiz":"asia","code":null,"archived":false,"percentageOfSessions":null}, {"name":"Артемовск","state":"Krasnoyarsk","territory":"","country":"Russia","latitude":54.349564,"longitude":93.437813,"population":2179,"stateCapital":false,"nationalCapital":false,"pk":null,"quiz":"asia","code":null,"archived":false,"percentageOfSessions":null}, {"name":"Артюгино","state":"Krasnoyarsk","territory":"","country":"Russia","latitude":58.5033752,"longitude":96.7373664,"population":687,"stateCapital":false,"nationalCapital":false,"pk":null,"quiz":"asia","code":null,"archived":false,"percentageOfSessions":null}, {"name":"Архангельское","state":"Krasnoyarsk","territory":"","country":"Russia","latitude":56.5424566,"longitude":95.5524587,"population":267,"stateCapital":false,"nationalCapital":false,"pk":null,"quiz":"asia","code":null,"archived":false,"percentageOfSessions":null}, {"name":"Асанск","state":"Krasnoyarsk","territory":"","country":"Russia","latitude":57.0406931,"longitude":95.5631284,"population":9,"stateCapital":false,"nationalCapital":false,"pk":null,"quiz":"asia","code":null,"archived":false,"percentageOfSessions":null}, {"name":"Асафьевка","state":"Krasnoyarsk","territory":"","country":"Russia","latitude":55.3894254,"longitude":94.1973494,"population":33,"stateCapital":false,"nationalCapital":false,"pk":null,"quiz":"asia","code":null,"archived":false,"percentageOfSessions":null}, {"name":"Астафьевка","state":"Krasnoyarsk","territory":"","country":"Russia","latitude":56.3969159,"longitude":95.4719291,"population":976,"stateCapital":false,"nationalCapital":false,"pk":null,"quiz":"asia","code":null,"archived":false,"percentageOfSessions":null}, {"name":"Атаманово","state":"Krasnoyarsk","territory":"","country":"Russia","latitude":56.40303,"longitude":93.629463,"population":1968,"stateCapital":false,"nationalCapital":false,"pk":null,"quiz":"asia","code":null,"archived":false,"percentageOfSessions":null}, {"name":"Ачинск","state":"Krasnoyarsk","territory":"","country":"Russia","latitude":56.2694846,"longitude":90.4953964,"population":109155,"stateCapital":false,"nationalCapital":false,"pk":null,"quiz":"asia","code":null,"archived":false,"percentageOfSessions":null}, {"name":"Ашкаул","state":"Krasnoyarsk","territory":"","country":"Russia","latitude":56.1068137,"longitude":95.8211824,"population":598,"stateCapital":false,"nationalCapital":false,"pk":null,"quiz":"asia","code":null,"archived":false,"percentageOfSessions":null}, {"name":"Ашпан","state":"Krasnoyarsk","territory":"","country":"Russia","latitude":55.374088,"longitude":89.569847,"population":298,"stateCapital":false,"nationalCapital":false,"pk":null,"quiz":"asia","code":null,"archived":false,"percentageOfSessions":null}, {"name":"Ашпатск","state":"Krasnoyarsk","territory":"","country":"Russia","latitude":56.6847783,"longitude":95.5428327,"population":264,"stateCapital":false,"nationalCapital":false,"pk":null,"quiz":"asia","code":null,"archived":false,"percentageOfSessions":null}, {"name":"Бадаложная","state":"Krasnoyarsk","territory":"","country":"Russia","latitude":56.077538,"longitude":91.870941,"population":31,"stateCapital":false,"nationalCapital":false,"pk":null,"quiz":"asia","code":null,"archived":false,"percentageOfSessions":null}, {"name":"Баженовка","state":"Krasnoyarsk","territory":"","country":"Russia","latitude":56.6755485,"longitude":90.703817,"population":52,"stateCapital":false,"nationalCapital":false,"pk":null,"quiz":"asia","code":null,"archived":false,"percentageOfSessions":null}, {"name":"Базыр","state":"Krasnoyarsk","territory":"","country":"Russia","latitude":55.410969,"longitude":88.951172,"population":6,"stateCapital":false,"nationalCapital":false,"pk":null,"quiz":"asia","code":null,"archived":false,"percentageOfSessions":null}, {"name":"Байдово","state":"Krasnoyarsk","territory":"","country":"Russia","latitude":54.0097484,"longitude":92.5643256,"population":431,"stateCapital":false,"nationalCapital":false,"pk":null,"quiz":"asia","code":null,"archived":false,"percentageOfSessions":null}, {"name":"Байкал","state":"Krasnoyarsk","territory":"","country":"Russia","latitude":58.337994,"longitude":92.4383768,"population":175,"stateCapital":false,"nationalCapital":false,"pk":null,"quiz":"asia","code":null,"archived":false,"percentageOfSessions":null}, {"name":"Байкалово","state":"Krasnoyarsk","territory":"","country":"Russia","latitude":56.4543805,"longitude":96.4801823,"population":47,"stateCapital":false,"nationalCapital":false,"pk":null,"quiz":"asia","code":null,"archived":false,"percentageOfSessions":null}, {"name":"Байкаловск","state":"Krasnoyarsk","territory":"","country":"Russia","latitude":70.6957807,"longitude":83.6234772,"population":122,"stateCapital":false,"nationalCapital":false,"pk":null,"quiz":"asia","code":null,"archived":false,"percentageOfSessions":null}, {"name":"Байкит","state":"Krasnoyarsk","territory":"","country":"Russia","latitude":61.6808261,"longitude":96.3830221,"population":3513,"stateCapital":false,"nationalCapital":false,"pk":null,"quiz":"asia","code":null,"archived":false,"percentageOfSessions":null}, {"name":"Баит","state":"Krasnoyarsk","territory":"","country":"Russia","latitude":55.426765,"longitude":89.642395,"population":101,"stateCapital":false,"nationalCapital":false,"pk":null,"quiz":"asia","code":null,"archived":false,"percentageOfSessions":null}, {"name":"Бакланиха","state":"Krasnoyarsk","territory":"","country":"Russia","latitude":64.4452586,"longitude":87.5476117,"population":36,"stateCapital":false,"nationalCapital":false,"pk":null,"quiz":"asia","code":null,"archived":false,"percentageOfSessions":null}, {"name":"Бакчет","state":"Krasnoyarsk","territory":"","country":"Russia","latitude":57.0566245,"longitude":94.9899172,"population":243,"stateCapital":false,"nationalCapital":false,"pk":null,"quiz":"asia","code":null,"archived":false,"percentageOfSessions":null}, {"name":"Балай","state":"Krasnoyarsk","territory":"","country":"Russia","latitude":55.870255,"longitude":93.9854802,"population":1324,"stateCapital":false,"nationalCapital":false,"pk":null,"quiz":"asia","code":null,"archived":false,"percentageOfSessions":null}, {"name":"Балайский Косогор","state":"Krasnoyarsk","territory":"","country":"Russia","latitude":55.8311321,"longitude":94.110881,"population":9,"stateCapital":false,"nationalCapital":false,"pk":null,"quiz":"asia","code":null,"archived":false,"percentageOfSessions":null}, {"name":"Балахта","state":"Krasnoyarsk","territory":"","country":"Russia","latitude":55.383221,"longitude":91.615273,"population":7410,"stateCapital":false,"nationalCapital":false,"pk":null,"quiz":"asia","code":null,"archived":false,"percentageOfSessions":null}, {"name":"Балахтон","state":"Krasnoyarsk","territory":"","country":"Russia","latitude":55.983154,"longitude":91.233818,"population":602,"stateCapital":false,"nationalCapital":false,"pk":null,"quiz":"asia","code":null,"archived":false,"percentageOfSessions":null}, {"name":"Балдаштык","state":"Krasnoyarsk","territory":"","country":"Russia","latitude":55.405151,"longitude":90.993866,"population":35,"stateCapital":false,"nationalCapital":false,"pk":null,"quiz":"asia","code":null,"archived":false,"percentageOfSessions":null}, {"name":"Барабановка","state":"Krasnoyarsk","territory":"","country":"Russia","latitude":56.118301,"longitude":90.737671,"population":68,"stateCapital":false,"nationalCapital":false,"pk":null,"quiz":"asia","code":null,"archived":false,"percentageOfSessions":null}, {"name":"Барабаново","state":"Krasnoyarsk","territory":"","country":"Russia","latitude":56.286957,"longitude":93.423683,"population":125,"stateCapital":false,"nationalCapital":false,"pk":null,"quiz":"asia","code":null,"archived":false,"percentageOfSessions":null}, {"name":"Бараит","state":"Krasnoyarsk","territory":"","country":"Russia","latitude":55.158764,"longitude":90.758591,"population":450,"stateCapital":false,"nationalCapital":false,"pk":null,"quiz":"asia","code":null,"archived":false,"percentageOfSessions":null}, {"name":"Бартанас","state":"Krasnoyarsk","territory":"","country":"Russia","latitude":57.2575,"longitude":94.6611732,"population":68,"stateCapital":false,"nationalCapital":false,"pk":null,"quiz":"asia","code":null,"archived":false,"percentageOfSessions":null}, {"name":"Бартат","state":"Krasnoyarsk","territory":"","country":"Russia","latitude":56.721722,"longitude":93.139076,"population":728,"stateCapital":false,"nationalCapital":false,"pk":null,"quiz":"asia","code":null,"archived":false,"percentageOfSessions":null}, {"name":"Бархатово","state":"Krasnoyarsk","territory":"","country":"Russia","latitude":56.044079,"longitude":93.359413,"population":1513,"stateCapital":false,"nationalCapital":false,"pk":null,"quiz":"asia","code":null,"archived":false,"percentageOfSessions":null}, {"name":"Батов","state":"Krasnoyarsk","territory":"","country":"Russia","latitude":56.8347421,"longitude":94.5902188,"population":130,"stateCapital":false,"nationalCapital":false,"pk":null,"quiz":"asia","code":null,"archived":false,"percentageOfSessions":null}, {"name":"Бахта","state":"Krasnoyarsk","territory":"","country":"Russia","latitude":55.7393108,"longitude":92.4168302,"population":6,"stateCapital":false,"nationalCapital":false,"pk":null,"quiz":"asia","code":null,"archived":false,"percentageOfSessions":null}, {"name":"Бахта","state":"Krasnoyarsk","territory":"","country":"Russia","latitude":62.464687,"longitude":89.003975,"population":220,"stateCapital":false,"nationalCapital":false,"pk":null,"quiz":"asia","code":null,"archived":false,"percentageOfSessions":null}, {"name":"Бедоба","state":"Krasnoyarsk","territory":"","country":"Russia","latitude":58.8039324,"longitude":97.2031688,"population":30,"stateCapital":false,"nationalCapital":false,"pk":null,"quiz":"asia","code":null,"archived":false,"percentageOfSessions":null}, {"name":"Безручейка","state":"Krasnoyarsk","territory":"","country":"Russia","latitude":56.607788,"longitude":89.414299,"population":56,"stateCapital":false,"nationalCapital":false,"pk":null,"quiz":"asia","code":null,"archived":false,"percentageOfSessions":null}, {"name":"Безъязыково","state":"Krasnoyarsk","territory":"","country":"Russia","latitude":55.287468,"longitude":91.500626,"population":190,"stateCapital":false,"nationalCapital":false,"pk":null,"quiz":"asia","code":null,"archived":false,"percentageOfSessions":null}, {"name":"Безымянка","state":"Krasnoyarsk","territory":"","country":"Russia","latitude":59.305684,"longitude":89.0004938,"population":316,"stateCapital":false,"nationalCapital":false,"pk":null,"quiz":"asia","code":null,"archived":false,"percentageOfSessions":null}, {"name":"Белая Роща","state":"Krasnoyarsk","territory":"","country":"Russia","latitude":55.497066,"longitude":89.838203,"population":214,"stateCapital":false,"nationalCapital":false,"pk":null,"quiz":"asia","code":null,"archived":false,"percentageOfSessions":null}, {"name":"Белая Таежка","state":"Krasnoyarsk","territory":"","country":"Russia","latitude":56.908485,"longitude":96.229019,"population":6,"stateCapital":false,"nationalCapital":false,"pk":null,"quiz":"asia","code":null,"archived":false,"percentageOfSessions":null}, {"name":"Беллык","state":"Krasnoyarsk","territory":"","country":"Russia","latitude":54.5493081,"longitude":91.3348796,"population":1093,"stateCapital":false,"nationalCapital":false,"pk":null,"quiz":"asia","code":null,"archived":false,"percentageOfSessions":null}, {"name":"Беловка","state":"Krasnoyarsk","territory":"","country":"Russia","latitude":56.7834858,"longitude":91.1380558,"population":3,"stateCapital":false,"nationalCapital":false,"pk":null,"quiz":"asia","code":null,"archived":false,"percentageOfSessions":null}, {"name":"Белоглинная","state":"Krasnoyarsk","territory":"","country":"Russia","latitude":56.6266646,"longitude":96.1669716,"population":3,"stateCapital":false,"nationalCapital":false,"pk":null,"quiz":"asia","code":null,"archived":false,"percentageOfSessions":null}, {"name":"Белогорка","state":"Krasnoyarsk","territory":"","country":"Russia","latitude":55.714444,"longitude":93.918322,"population":22,"stateCapital":false,"nationalCapital":false,"pk":null,"quiz":"asia","code":null,"archived":false,"percentageOfSessions":null}, {"name":"Белогорка","state":"Krasnoyarsk","territory":"","country":"Russia","latitude":56.710186,"longitude":89.227203,"population":9,"stateCapital":false,"nationalCapital":false,"pk":null,"quiz":"asia","code":null,"archived":false,"percentageOfSessions":null}, {"name":"Белозеровка","state":"Krasnoyarsk","territory":"","country":"Russia","latitude":53.1002867,"longitude":91.7439925,"population":123,"stateCapital":false,"nationalCapital":false,"pk":null,"quiz":"asia","code":null,"archived":false,"percentageOfSessions":null}, {"name":"Белоозерка","state":"Krasnoyarsk","territory":"","country":"Russia","latitude":55.651161,"longitude":89.545105,"population":276,"stateCapital":false,"nationalCapital":false,"pk":null,"quiz":"asia","code":null,"archived":false,"percentageOfSessions":null}, {"name":"Белопольск","state":"Krasnoyarsk","territory":"","country":"Russia","latitude":55.144505,"longitude":90.350815,"population":212,"stateCapital":false,"nationalCapital":false,"pk":null,"quiz":"asia","code":null,"archived":false,"percentageOfSessions":null}, {"name":"Белоярск","state":"Krasnoyarsk","territory":"","country":"Russia","latitude":56.2567112,"longitude":95.4103377,"population":142,"stateCapital":false,"nationalCapital":false,"pk":null,"quiz":"asia","code":null,"archived":false,"percentageOfSessions":null}, {"name":"Белоярск","state":"Krasnoyarsk","territory":"","country":"Russia","latitude":54.3886449,"longitude":91.6770395,"population":314,"stateCapital":false,"nationalCapital":false,"pk":null,"quiz":"asia","code":null,"archived":false,"percentageOfSessions":null}, {"name":"Белый Яр","state":"Krasnoyarsk","territory":"","country":"Russia","latitude":53.8396028,"longitude":92.6691744,"population":399,"stateCapital":false,"nationalCapital":false,"pk":null,"quiz":"asia","code":null,"archived":false,"percentageOfSessions":null}, {"name":"Белый Яр","state":"Krasnoyarsk","territory":"","country":"Russia","latitude":56.287903,"longitude":90.316277,"population":300,"stateCapital":false,"nationalCapital":false,"pk":null,"quiz":"asia","code":null,"archived":false,"percentageOfSessions":null}, {"name":"Белый Яр","state":"Krasnoyarsk","territory":"","country":"Russia","latitude":56.287903,"longitude":90.316277,"population":948,"stateCapital":false,"nationalCapital":false,"pk":null,"quiz":"asia","code":null,"archived":false,"percentageOfSessions":null}, {"name":"Бельняки","state":"Krasnoyarsk","territory":"","country":"Russia","latitude":56.241349,"longitude":97.2395364,"population":455,"stateCapital":false,"nationalCapital":false,"pk":null,"quiz":"asia","code":null,"archived":false,"percentageOfSessions":null}, {"name":"Бельск","state":"Krasnoyarsk","territory":"","country":"Russia","latitude":58.1708145,"longitude":94.5216538,"population":283,"stateCapital":false,"nationalCapital":false,"pk":null,"quiz":"asia","code":null,"archived":false,"percentageOfSessions":null}, {"name":"Бельское","state":"Krasnoyarsk","territory":"","country":"Russia","latitude":57.8208784,"longitude":92.1677037,"population":128,"stateCapital":false,"nationalCapital":false,"pk":null,"quiz":"asia","code":null,"archived":false,"percentageOfSessions":null}, {"name":"Беляки","state":"Krasnoyarsk","territory":"","country":"Russia","latitude":58.8649503,"longitude":97.202237,"population":234,"stateCapital":false,"nationalCapital":false,"pk":null,"quiz":"asia","code":null,"archived":false,"percentageOfSessions":null}, {"name":"Берег Таскино","state":"Krasnoyarsk","territory":"","country":"Russia","latitude":56.7950731,"longitude":93.5233252,"population":133,"stateCapital":false,"nationalCapital":false,"pk":null,"quiz":"asia","code":null,"archived":false,"percentageOfSessions":null}, {"name":"Береговая - Подьемная","state":"Krasnoyarsk","territory":"","country":"Russia","latitude":56.9124075,"longitude":93.3767118,"population":45,"stateCapital":false,"nationalCapital":false,"pk":null,"quiz":"asia","code":null,"archived":false,"percentageOfSessions":null}, {"name":"Береж","state":"Krasnoyarsk","territory":"","country":"Russia","latitude":55.7898752,"longitude":96.0174287,"population":1,"stateCapital":false,"nationalCapital":false,"pk":null,"quiz":"asia","code":null,"archived":false,"percentageOfSessions":null}, {"name":"Бережки","state":"Krasnoyarsk","territory":"","country":"Russia","latitude":56.2311259,"longitude":95.6365629,"population":331,"stateCapital":false,"nationalCapital":false,"pk":null,"quiz":"asia","code":null,"archived":false,"percentageOfSessions":null}, {"name":"Березняки","state":"Krasnoyarsk","territory":"","country":"Russia","latitude":57.5587229,"longitude":93.1947043,"population":51,"stateCapital":false,"nationalCapital":false,"pk":null,"quiz":"asia","code":null,"archived":false,"percentageOfSessions":null}, {"name":"Березняки","state":"Krasnoyarsk","territory":"","country":"Russia","latitude":55.7243,"longitude":89.8442,"population":260,"stateCapital":false,"nationalCapital":false,"pk":null,"quiz":"asia","code":null,"archived":false,"percentageOfSessions":null}, {"name":"Березовая","state":"Krasnoyarsk","territory":"","country":"Russia","latitude":54.956154,"longitude":92.145218,"population":44,"stateCapital":false,"nationalCapital":false,"pk":null,"quiz":"asia","code":null,"archived":false,"percentageOfSessions":null}, {"name":"Березовая Роща","state":"Krasnoyarsk","territory":"","country":"Russia","latitude":55.722034,"longitude":90.016327,"population":95,"stateCapital":false,"nationalCapital":false,"pk":null,"quiz":"asia","code":null,"archived":false,"percentageOfSessions":null}, {"name":"Березовка","state":"Krasnoyarsk","territory":"","country":"Russia","latitude":56.390244,"longitude":89.217407,"population":110,"stateCapital":false,"nationalCapital":false,"pk":null,"quiz":"asia","code":null,"archived":false,"percentageOfSessions":null}, {"name":"Березовка","state":"Krasnoyarsk","territory":"","country":"Russia","latitude":55.445825,"longitude":95.5431059,"population":69,"stateCapital":false,"nationalCapital":false,"pk":null,"quiz":"asia","code":null,"archived":false,"percentageOfSessions":null}, {"name":"Березовка","state":"Krasnoyarsk","territory":"","country":"Russia","latitude":56.038422,"longitude":93.133194,"population":20887,"stateCapital":false,"nationalCapital":false,"pk":null,"quiz":"asia","code":null,"archived":false,"percentageOfSessions":null}, {"name":"Березовка","state":"Krasnoyarsk","territory":"","country":"Russia","latitude":56.617229,"longitude":95.629143,"population":609,"stateCapital":false,"nationalCapital":false,"pk":null,"quiz":"asia","code":null,"archived":false,"percentageOfSessions":null}, {"name":"Березовка","state":"Krasnoyarsk","territory":"","country":"Russia","latitude":56.7999154,"longitude":90.6737279,"population":359,"stateCapital":false,"nationalCapital":false,"pk":null,"quiz":"asia","code":null,"archived":false,"percentageOfSessions":null}, {"name":"Березовский","state":"Krasnoyarsk","territory":"","country":"Russia","latitude":55.8066885,"longitude":93.2823303,"population":1339,"stateCapital":false,"nationalCapital":false,"pk":null,"quiz":"asia","code":null,"archived":false,"percentageOfSessions":null}, {"name":"Березовское","state":"Krasnoyarsk","territory":"","country":"Russia","latitude":53.9346975,"longitude":92.801789,"population":1324,"stateCapital":false,"nationalCapital":false,"pk":null,"quiz":"asia","code":null,"archived":false,"percentageOfSessions":null}, {"name":"Березовское","state":"Krasnoyarsk","territory":"","country":"Russia","latitude":55.846169,"longitude":89.584602,"population":1658,"stateCapital":false,"nationalCapital":false,"pk":null,"quiz":"asia","code":null,"archived":false,"percentageOfSessions":null}, {"name":"Березовый","state":"Krasnoyarsk","territory":"","country":"Russia","latitude":56.242836,"longitude":90.679634,"population":377,"stateCapital":false,"nationalCapital":false,"pk":null,"quiz":"asia","code":null,"archived":false,"percentageOfSessions":null}, {"name":"Березовый","state":"Krasnoyarsk","territory":"","country":"Russia","latitude":55.189945,"longitude":91.20977,"population":159,"stateCapital":false,"nationalCapital":false,"pk":null,"quiz":"asia","code":null,"archived":false,"percentageOfSessions":null}, {"name":"Березовый Лог","state":"Krasnoyarsk","territory":"","country":"Russia","latitude":55.160599,"longitude":90.662605,"population":286,"stateCapital":false,"nationalCapital":false,"pk":null,"quiz":"asia","code":null,"archived":false,"percentageOfSessions":null}, {"name":"Береть","state":"Krasnoyarsk","territory":"","country":"Russia","latitude":55.691589,"longitude":93.00235,"population":142,"stateCapital":false,"nationalCapital":false,"pk":null,"quiz":"asia","code":null,"archived":false,"percentageOfSessions":null}, {"name":"Береш","state":"Krasnoyarsk","territory":"","country":"Russia","latitude":55.482769,"longitude":89.154678,"population":438,"stateCapital":false,"nationalCapital":false,"pk":null,"quiz":"asia","code":null,"archived":false,"percentageOfSessions":null}, {"name":"Бескиш","state":"Krasnoyarsk","territory":"","country":"Russia","latitude":54.901943,"longitude":91.315132,"population":36,"stateCapital":false,"nationalCapital":false,"pk":null,"quiz":"asia","code":null,"archived":false,"percentageOfSessions":null}, {"name":"Бидея","state":"Krasnoyarsk","territory":"","country":"Russia","latitude":57.9166861,"longitude":99.1964441,"population":14,"stateCapital":false,"nationalCapital":false,"pk":null,"quiz":"asia","code":null,"archived":false,"percentageOfSessions":null}, {"name":"Биктимировка","state":"Krasnoyarsk","territory":"","country":"Russia","latitude":57.201191,"longitude":90.235161,"population":33,"stateCapital":false,"nationalCapital":false,"pk":null,"quiz":"asia","code":null,"archived":false,"percentageOfSessions":null}, {"name":"Бирилюссы","state":"Krasnoyarsk","territory":"","country":"Russia","latitude":57.119896,"longitude":90.555061,"population":49,"stateCapital":false,"nationalCapital":false,"pk":null,"quiz":"asia","code":null,"archived":false,"percentageOfSessions":null}, {"name":"Бирюса","state":"Krasnoyarsk","territory":"","country":"Russia","latitude":57.1656066,"longitude":96.4945089,"population":176,"stateCapital":false,"nationalCapital":false,"pk":null,"quiz":"asia","code":null,"archived":false,"percentageOfSessions":null}, {"name":"Благовещенка","state":"Krasnoyarsk","territory":"","country":"Russia","latitude":55.4432606,"longitude":95.8085052,"population":304,"stateCapital":false,"nationalCapital":false,"pk":null,"quiz":"asia","code":null,"archived":false,"percentageOfSessions":null}, {"name":"Благодатка","state":"Krasnoyarsk","territory":"","country":"Russia","latitude":55.4907797,"longitude":94.8259704,"population":162,"stateCapital":false,"nationalCapital":false,"pk":null,"quiz":"asia","code":null,"archived":false,"percentageOfSessions":null}, {"name":"Бобровка","state":"Krasnoyarsk","territory":"","country":"Russia","latitude":57.3211077,"longitude":93.1422564,"population":155,"stateCapital":false,"nationalCapital":false,"pk":null,"quiz":"asia","code":null,"archived":false,"percentageOfSessions":null}, {"name":"Бобровка","state":"Krasnoyarsk","territory":"","country":"Russia","latitude":56.6209582,"longitude":90.8142908,"population":203,"stateCapital":false,"nationalCapital":false,"pk":null,"quiz":"asia","code":null,"archived":false,"percentageOfSessions":null}, {"name":"Богатое","state":"Krasnoyarsk","territory":"","country":"Russia","latitude":56.5544063,"longitude":90.157501,"population":5,"stateCapital":false,"nationalCapital":false,"pk":null,"quiz":"asia","code":null,"archived":false,"percentageOfSessions":null}, {"name":"Богачево","state":"Krasnoyarsk","territory":"","country":"Russia","latitude":55.38007,"longitude":95.7754368,"population":73,"stateCapital":false,"nationalCapital":false,"pk":null,"quiz":"asia","code":null,"archived":false,"percentageOfSessions":null}, {"name":"Богдановка","state":"Krasnoyarsk","territory":"","country":"Russia","latitude":56.4614938,"longitude":95.8900113,"population":112,"stateCapital":false,"nationalCapital":false,"pk":null,"quiz":"asia","code":null,"archived":false,"percentageOfSessions":null}, {"name":"Боготол","state":"Krasnoyarsk","territory":"","country":"Russia","latitude":56.211464,"longitude":89.531639,"population":21051,"stateCapital":false,"nationalCapital":false,"pk":null,"quiz":"asia","code":null,"archived":false,"percentageOfSessions":null}, {"name":"Боготол","state":"Krasnoyarsk","territory":"","country":"Russia","latitude":56.170795,"longitude":89.587463,"population":1992,"stateCapital":false,"nationalCapital":false,"pk":null,"quiz":"asia","code":null,"archived":false,"percentageOfSessions":null}, {"name":"Боготольский Завод","state":"Krasnoyarsk","territory":"","country":"Russia","latitude":56.120888,"longitude":89.560219,"population":1,"stateCapital":false,"nationalCapital":false,"pk":null,"quiz":"asia","code":null,"archived":false,"percentageOfSessions":null}, {"name":"Богуславка","state":"Krasnoyarsk","territory":"","country":"Russia","latitude":55.4833921,"longitude":94.637047,"population":376,"stateCapital":false,"nationalCapital":false,"pk":null,"quiz":"asia","code":null,"archived":false,"percentageOfSessions":null}, {"name":"Богучаны","state":"Krasnoyarsk","territory":"","country":"Russia","latitude":58.382816,"longitude":97.461578,"population":11232,"stateCapital":false,"nationalCapital":false,"pk":null,"quiz":"asia","code":null,"archived":false,"percentageOfSessions":null}, {"name":"Болтурино","state":"Krasnoyarsk","territory":"","country":"Russia","latitude":58.3340771,"longitude":100.0158371,"population":452,"stateCapital":false,"nationalCapital":false,"pk":null,"quiz":"asia","code":null,"archived":false,"percentageOfSessions":null}, {"name":"Большая Идра","state":"Krasnoyarsk","territory":"","country":"Russia","latitude":54.356093,"longitude":92.3618833,"population":48,"stateCapital":false,"nationalCapital":false,"pk":null,"quiz":"asia","code":null,"archived":false,"percentageOfSessions":null}, {"name":"Большая Иня","state":"Krasnoyarsk","territory":"","country":"Russia","latitude":53.7705357,"longitude":92.1157948,"population":1164,"stateCapital":false,"nationalCapital":false,"pk":null,"quiz":"asia","code":null,"archived":false,"percentageOfSessions":null}, {"name":"Большая Ирба","state":"Krasnoyarsk","territory":"","country":"Russia","latitude":54.080906,"longitude":92.932541,"population":4464,"stateCapital":false,"nationalCapital":false,"pk":null,"quiz":"asia","code":null,"archived":false,"percentageOfSessions":null}, {"name":"Большая Кеть","state":"Krasnoyarsk","territory":"","country":"Russia","latitude":57.593354,"longitude":91.8993536,"population":40,"stateCapital":false,"nationalCapital":false,"pk":null,"quiz":"asia","code":null,"archived":false,"percentageOfSessions":null}, {"name":"Большая Косуль","state":"Krasnoyarsk","territory":"","country":"Russia","latitude":56.133965,"longitude":89.349327,"population":1180,"stateCapital":false,"nationalCapital":false,"pk":null,"quiz":"asia","code":null,"archived":false,"percentageOfSessions":null}, {"name":"Большая Мурта","state":"Krasnoyarsk","territory":"","country":"Russia","latitude":56.909847,"longitude":93.138016,"population":7905,"stateCapital":false,"nationalCapital":false,"pk":null,"quiz":"asia","code":null,"archived":false,"percentageOfSessions":null}, {"name":"Большая Ничка","state":"Krasnoyarsk","territory":"","country":"Russia","latitude":53.6668742,"longitude":92.1333876,"population":853,"stateCapital":false,"nationalCapital":false,"pk":null,"quiz":"asia","code":null,"archived":false,"percentageOfSessions":null}, {"name":"Большая Речка","state":"Krasnoyarsk","territory":"","country":"Russia","latitude":53.0375733,"longitude":92.4166299,"population":184,"stateCapital":false,"nationalCapital":false,"pk":null,"quiz":"asia","code":null,"archived":false,"percentageOfSessions":null}, {"name":"Большая Салба","state":"Krasnoyarsk","territory":"","country":"Russia","latitude":54.2319987,"longitude":92.3268561,"population":158,"stateCapital":false,"nationalCapital":false,"pk":null,"quiz":"asia","code":null,"archived":false,"percentageOfSessions":null}, {"name":"Большая Салырь","state":"Krasnoyarsk","territory":"","country":"Russia","latitude":56.312057,"longitude":90.5228511,"population":1143,"stateCapital":false,"nationalCapital":false,"pk":null,"quiz":"asia","code":null,"archived":false,"percentageOfSessions":null}, {"name":"Большая Сосновка","state":"Krasnoyarsk","territory":"","country":"Russia","latitude":55.678028,"longitude":90.033401,"population":261,"stateCapital":false,"nationalCapital":false,"pk":null,"quiz":"asia","code":null,"archived":false,"percentageOfSessions":null}, {"name":"Большая Степь","state":"Krasnoyarsk","territory":"","country":"Russia","latitude":56.8832944,"longitude":94.7910913,"population":55,"stateCapital":false,"nationalCapital":false,"pk":null,"quiz":"asia","code":null,"archived":false,"percentageOfSessions":null}, {"name":"Большая Уря","state":"Krasnoyarsk","territory":"","country":"Russia","latitude":56.026051,"longitude":95.482086,"population":1223,"stateCapital":false,"nationalCapital":false,"pk":null,"quiz":"asia","code":null,"archived":false,"percentageOfSessions":null}, {"name":"Большие Ключи","state":"Krasnoyarsk","territory":"","country":"Russia","latitude":55.9508053,"longitude":95.1756416,"population":502,"stateCapital":false,"nationalCapital":false,"pk":null,"quiz":"asia","code":null,"archived":false,"percentageOfSessions":null}, {"name":"Большие Кныши","state":"Krasnoyarsk","territory":"","country":"Russia","latitude":54.2501936,"longitude":92.5716217,"population":511,"stateCapital":false,"nationalCapital":false,"pk":null,"quiz":"asia","code":null,"archived":false,"percentageOfSessions":null}, {"name":"Большие Пруды","state":"Krasnoyarsk","territory":"","country":"Russia","latitude":56.3937019,"longitude":93.4515587,"population":401,"stateCapital":false,"nationalCapital":false,"pk":null,"quiz":"asia","code":null,"archived":false,"percentageOfSessions":null}, {"name":"Большие Сыры","state":"Krasnoyarsk","territory":"","country":"Russia","latitude":55.5158,"longitude":91.549423,"population":657,"stateCapital":false,"nationalCapital":false,"pk":null,"quiz":"asia","code":null,"archived":false,"percentageOfSessions":null}, {"name":"Большое Озеро","state":"Krasnoyarsk","territory":"","country":"Russia","latitude":55.189583,"longitude":89.318443,"population":337,"stateCapital":false,"nationalCapital":false,"pk":null,"quiz":"asia","code":null,"archived":false,"percentageOfSessions":null}, {"name":"Большой Арбай","state":"Krasnoyarsk","territory":"","country":"Russia","latitude":55.1822616,"longitude":94.6946897,"population":349,"stateCapital":false,"nationalCapital":false,"pk":null,"quiz":"asia","code":null,"archived":false,"percentageOfSessions":null}, {"name":"Большой Балчуг","state":"Krasnoyarsk","territory":"","country":"Russia","latitude":56.4535723,"longitude":93.7133064,"population":128,"stateCapital":false,"nationalCapital":false,"pk":null,"quiz":"asia","code":null,"archived":false,"percentageOfSessions":null}, {"name":"Большой Ильбин","state":"Krasnoyarsk","territory":"","country":"Russia","latitude":55.1770361,"longitude":94.9436177,"population":94,"stateCapital":false,"nationalCapital":false,"pk":null,"quiz":"asia","code":null,"archived":false,"percentageOfSessions":null}, {"name":"Большой Имыш","state":"Krasnoyarsk","territory":"","country":"Russia","latitude":55.141556,"longitude":90.617104,"population":169,"stateCapital":false,"nationalCapital":false,"pk":null,"quiz":"asia","code":null,"archived":false,"percentageOfSessions":null}, {"name":"Большой Кантат","state":"Krasnoyarsk","territory":"","country":"Russia","latitude":57.0501731,"longitude":93.1313419,"population":285,"stateCapital":false,"nationalCapital":false,"pk":null,"quiz":"asia","code":null,"archived":false,"percentageOfSessions":null}, {"name":"Большой Кемчуг","state":"Krasnoyarsk","territory":"","country":"Russia","latitude":56.186325,"longitude":91.59021,"population":138,"stateCapital":false,"nationalCapital":false,"pk":null,"quiz":"asia","code":null,"archived":false,"percentageOfSessions":null}, {"name":"Большой Сереж","state":"Krasnoyarsk","territory":"","country":"Russia","latitude":56.000298,"longitude":90.671219,"population":524,"stateCapital":false,"nationalCapital":false,"pk":null,"quiz":"asia","code":null,"archived":false,"percentageOfSessions":null}, {"name":"Большой Телек","state":"Krasnoyarsk","territory":"","country":"Russia","latitude":54.2926693,"longitude":92.063203,"population":451,"stateCapital":false,"nationalCapital":false,"pk":null,"quiz":"asia","code":null,"archived":false,"percentageOfSessions":null}, {"name":"Большой Улуй","state":"Krasnoyarsk","territory":"","country":"Russia","latitude":56.656811,"longitude":90.57975,"population":3340,"stateCapital":false,"nationalCapital":false,"pk":null,"quiz":"asia","code":null,"archived":false,"percentageOfSessions":null}, {"name":"Большой Унгут","state":"Krasnoyarsk","territory":"","country":"Russia","latitude":55.421055,"longitude":93.404961,"population":463,"stateCapital":false,"nationalCapital":false,"pk":null,"quiz":"asia","code":null,"archived":false,"percentageOfSessions":null}, {"name":"Большой Хабык","state":"Krasnoyarsk","territory":"","country":"Russia","latitude":54.4254565,"longitude":91.9414139,"population":501,"stateCapital":false,"nationalCapital":false,"pk":null,"quiz":"asia","code":null,"archived":false,"percentageOfSessions":null}, {"name":"Бор","state":"Krasnoyarsk","territory":"","country":"Russia","latitude":57.4898261,"longitude":89.9439066,"population":3,"stateCapital":false,"nationalCapital":false,"pk":null,"quiz":"asia","code":null,"archived":false,"percentageOfSessions":null}, {"name":"Бор","state":"Krasnoyarsk","territory":"","country":"Russia","latitude":61.5956404,"longitude":90.0350193,"population":2496,"stateCapital":false,"nationalCapital":false,"pk":null,"quiz":"asia","code":null,"archived":false,"percentageOfSessions":null}, {"name":"Борзово","state":"Krasnoyarsk","territory":"","country":"Russia","latitude":57.1186593,"longitude":97.1357452,"population":220,"stateCapital":false,"nationalCapital":false,"pk":null,"quiz":"asia","code":null,"archived":false,"percentageOfSessions":null}, {"name":"Борки","state":"Krasnoyarsk","territory":"","country":"Russia","latitude":56.6503054,"longitude":96.2853144,"population":83,"stateCapital":false,"nationalCapital":false,"pk":null,"quiz":"asia","code":null,"archived":false,"percentageOfSessions":null}, {"name":"Борки","state":"Krasnoyarsk","territory":"","country":"Russia","latitude":56.9700347,"longitude":94.9596678,"population":39,"stateCapital":false,"nationalCapital":false,"pk":null,"quiz":"asia","code":null,"archived":false,"percentageOfSessions":null}, {"name":"Борки","state":"Krasnoyarsk","territory":"","country":"Russia","latitude":58.4842663,"longitude":92.1035689,"population":7,"stateCapital":false,"nationalCapital":false,"pk":null,"quiz":"asia","code":null,"archived":false,"percentageOfSessions":null}, {"name":"Борлок","state":"Krasnoyarsk","territory":"","country":"Russia","latitude":56.3465109,"longitude":92.6155599,"population":4,"stateCapital":false,"nationalCapital":false,"pk":null,"quiz":"asia","code":null,"archived":false,"percentageOfSessions":null}, {"name":"Боровка","state":"Krasnoyarsk","territory":"","country":"Russia","latitude":56.31879,"longitude":90.915634,"population":5,"stateCapital":false,"nationalCapital":false,"pk":null,"quiz":"asia","code":null,"archived":false,"percentageOfSessions":null}, {"name":"Бородино","state":"Krasnoyarsk","territory":"","country":"Russia","latitude":55.9,"longitude":94.89365,"population":17416,"stateCapital":false,"nationalCapital":false,"pk":null,"quiz":"asia","code":null,"archived":false,"percentageOfSessions":null}, {"name":"Бородино","state":"Krasnoyarsk","territory":"","country":"Russia","latitude":55.87086,"longitude":94.97,"population":877,"stateCapital":false,"nationalCapital":false,"pk":null,"quiz":"asia","code":null,"archived":false,"percentageOfSessions":null}, {"name":"Борск","state":"Krasnoyarsk","territory":"","country":"Russia","latitude":56.441799,"longitude":92.904335,"population":817,"stateCapital":false,"nationalCapital":false,"pk":null,"quiz":"asia","code":null,"archived":false,"percentageOfSessions":null}, {"name":"Борцы","state":"Krasnoyarsk","territory":"","country":"Russia","latitude":56.390678,"longitude":90.243172,"population":113,"stateCapital":false,"nationalCapital":false,"pk":null,"quiz":"asia","code":null,"archived":false,"percentageOfSessions":null}, {"name":"Бошняково","state":"Krasnoyarsk","territory":"","country":"Russia","latitude":56.1147684,"longitude":95.3282041,"population":414,"stateCapital":false,"nationalCapital":false,"pk":null,"quiz":"asia","code":null,"archived":false,"percentageOfSessions":null}, {"name":"Брагино","state":"Krasnoyarsk","territory":"","country":"Russia","latitude":54.1100989,"longitude":92.6039058,"population":659,"stateCapital":false,"nationalCapital":false,"pk":null,"quiz":"asia","code":null,"archived":false,"percentageOfSessions":null}, {"name":"Бражное","state":"Krasnoyarsk","territory":"","country":"Russia","latitude":56.063446,"longitude":95.859383,"population":1756,"stateCapital":false,"nationalCapital":false,"pk":null,"quiz":"asia","code":null,"archived":false,"percentageOfSessions":null}, {"name":"Брод","state":"Krasnoyarsk","territory":"","country":"Russia","latitude":55.662899,"longitude":93.071671,"population":47,"stateCapital":false,"nationalCapital":false,"pk":null,"quiz":"asia","code":null,"archived":false,"percentageOfSessions":null}, {"name":"Брянка","state":"Krasnoyarsk","territory":"","country":"Russia","latitude":59.107403,"longitude":93.47525,"population":651,"stateCapital":false,"nationalCapital":false,"pk":null,"quiz":"asia","code":null,"archived":false,"percentageOfSessions":null}, {"name":"Бугачево","state":"Krasnoyarsk","territory":"","country":"Russia","latitude":56.04184,"longitude":92.6506,"population":455,"stateCapital":false,"nationalCapital":false,"pk":null,"quiz":"asia","code":null,"archived":false,"percentageOfSessions":null}, {"name":"Бугуртак","state":"Krasnoyarsk","territory":"","country":"Russia","latitude":53.8106363,"longitude":92.8672675,"population":444,"stateCapital":false,"nationalCapital":false,"pk":null,"quiz":"asia","code":null,"archived":false,"percentageOfSessions":null}, {"name":"Бузим","state":"Krasnoyarsk","territory":"","country":"Russia","latitude":56.504944,"longitude":93.3579498,"population":483,"stateCapital":false,"nationalCapital":false,"pk":null,"quiz":"asia","code":null,"archived":false,"percentageOfSessions":null}, {"name":"Бузуново","state":"Krasnoyarsk","territory":"","country":"Russia","latitude":56.7012248,"longitude":93.3244412,"population":115,"stateCapital":false,"nationalCapital":false,"pk":null,"quiz":"asia","code":null,"archived":false,"percentageOfSessions":null}, {"name":"Буинка","state":"Krasnoyarsk","territory":"","country":"Russia","latitude":55.3054967,"longitude":95.4927718,"population":52,"stateCapital":false,"nationalCapital":false,"pk":null,"quiz":"asia","code":null,"archived":false,"percentageOfSessions":null}, {"name":"Булановка","state":"Krasnoyarsk","territory":"","country":"Russia","latitude":56.4798744,"longitude":92.8196699,"population":38,"stateCapital":false,"nationalCapital":false,"pk":null,"quiz":"asia","code":null,"archived":false,"percentageOfSessions":null}, {"name":"Булатновка","state":"Krasnoyarsk","territory":"","country":"Russia","latitude":55.435328,"longitude":94.0435981,"population":19,"stateCapital":false,"nationalCapital":false,"pk":null,"quiz":"asia","code":null,"archived":false,"percentageOfSessions":null}, {"name":"Булатово","state":"Krasnoyarsk","territory":"","country":"Russia","latitude":56.417549,"longitude":89.649681,"population":223,"stateCapital":false,"nationalCapital":false,"pk":null,"quiz":"asia","code":null,"archived":false,"percentageOfSessions":null}, {"name":"Бурмакино","state":"Krasnoyarsk","territory":"","country":"Russia","latitude":57.0118448,"longitude":94.7815851,"population":42,"stateCapital":false,"nationalCapital":false,"pk":null,"quiz":"asia","code":null,"archived":false,"percentageOfSessions":null}, {"name":"Бурный","state":"Krasnoyarsk","territory":"","country":"Russia","latitude":61.8153623,"longitude":92.6443074,"population":193,"stateCapital":false,"nationalCapital":false,"pk":null,"quiz":"asia","code":null,"archived":false,"percentageOfSessions":null}, {"name":"Буровой","state":"Krasnoyarsk","territory":"","country":"Russia","latitude":57.2791135,"longitude":94.8112305,"population":62,"stateCapital":false,"nationalCapital":false,"pk":null,"quiz":"asia","code":null,"archived":false,"percentageOfSessions":null}, {"name":"Бушуй","state":"Krasnoyarsk","territory":"","country":"Russia","latitude":57.4663114,"longitude":92.2100797,"population":148,"stateCapital":false,"nationalCapital":false,"pk":null,"quiz":"asia","code":null,"archived":false,"percentageOfSessions":null}, {"name":"Быстрая","state":"Krasnoyarsk","territory":"","country":"Russia","latitude":53.7282037,"longitude":91.5879932,"population":1033,"stateCapital":false,"nationalCapital":false,"pk":null,"quiz":"asia","code":null,"archived":false,"percentageOfSessions":null}, {"name":"Быстровка","state":"Krasnoyarsk","territory":"","country":"Russia","latitude":56.9769577,"longitude":95.6976627,"population":55,"stateCapital":false,"nationalCapital":false,"pk":null,"quiz":"asia","code":null,"archived":false,"percentageOfSessions":null}, {"name":"Бычки","state":"Krasnoyarsk","territory":"","country":"Russia","latitude":56.5574201,"longitude":90.2511358,"population":190,"stateCapital":false,"nationalCapital":false,"pk":null,"quiz":"asia","code":null,"archived":false,"percentageOfSessions":null}, {"name":"Бычковка","state":"Krasnoyarsk","territory":"","country":"Russia","latitude":55.6353431,"longitude":95.7714595,"population":289,"stateCapital":false,"nationalCapital":false,"pk":null,"quiz":"asia","code":null,"archived":false,"percentageOfSessions":null}, {"name":"Вагино","state":"Krasnoyarsk","territory":"","country":"Russia","latitude":56.208103,"longitude":89.772102,"population":138,"stateCapital":false,"nationalCapital":false,"pk":null,"quiz":"asia","code":null,"archived":false,"percentageOfSessions":null}, {"name":"Вагино","state":"Krasnoyarsk","territory":"","country":"Russia","latitude":56.208103,"longitude":89.772102,"population":678,"stateCapital":false,"nationalCapital":false,"pk":null,"quiz":"asia","code":null,"archived":false,"percentageOfSessions":null}, {"name":"Ванавара","state":"Krasnoyarsk","territory":"","country":"Russia","latitude":60.345203,"longitude":102.28093,"population":3153,"stateCapital":false,"nationalCapital":false,"pk":null,"quiz":"asia","code":null,"archived":false,"percentageOfSessions":null}, {"name":"Вангаш","state":"Krasnoyarsk","territory":"","country":"Russia","latitude":59.971928,"longitude":93.61451,"population":369,"stateCapital":false,"nationalCapital":false,"pk":null,"quiz":"asia","code":null,"archived":false,"percentageOfSessions":null}, {"name":"Васильевка","state":"Krasnoyarsk","territory":"","country":"Russia","latitude":54.5475255,"longitude":92.3348028,"population":65,"stateCapital":false,"nationalCapital":false,"pk":null,"quiz":"asia","code":null,"archived":false,"percentageOfSessions":null}, {"name":"Васильевка","state":"Krasnoyarsk","territory":"","country":"Russia","latitude":55.4875453,"longitude":95.7274849,"population":30,"stateCapital":false,"nationalCapital":false,"pk":null,"quiz":"asia","code":null,"archived":false,"percentageOfSessions":null}, {"name":"Васильевка","state":"Krasnoyarsk","territory":"","country":"Russia","latitude":56.52467,"longitude":89.553261,"population":150,"stateCapital":false,"nationalCapital":false,"pk":null,"quiz":"asia","code":null,"archived":false,"percentageOfSessions":null}, {"name":"Васильевка","state":"Krasnoyarsk","territory":"","country":"Russia","latitude":55.425472,"longitude":89.908745,"population":113,"stateCapital":false,"nationalCapital":false,"pk":null,"quiz":"asia","code":null,"archived":false,"percentageOfSessions":null}, {"name":"Вахрушево","state":"Krasnoyarsk","territory":"","country":"Russia","latitude":57.2255096,"longitude":94.5051885,"population":123,"stateCapital":false,"nationalCapital":false,"pk":null,"quiz":"asia","code":null,"archived":false,"percentageOfSessions":null}, {"name":"Вельмо","state":"Krasnoyarsk","territory":"","country":"Russia","latitude":61.0177997,"longitude":93.4258598,"population":55,"stateCapital":false,"nationalCapital":false,"pk":null,"quiz":"asia","code":null,"archived":false,"percentageOfSessions":null}, {"name":"Верещагино","state":"Krasnoyarsk","territory":"","country":"Russia","latitude":64.2390614,"longitude":87.5745921,"population":146,"stateCapital":false,"nationalCapital":false,"pk":null,"quiz":"asia","code":null,"archived":false,"percentageOfSessions":null}, {"name":"Верх-Амонаш","state":"Krasnoyarsk","territory":"","country":"Russia","latitude":55.9050721,"longitude":95.624789,"population":768,"stateCapital":false,"nationalCapital":false,"pk":null,"quiz":"asia","code":null,"archived":false,"percentageOfSessions":null}, {"name":"Верх-Атины","state":"Krasnoyarsk","territory":"","country":"Russia","latitude":55.9116381,"longitude":96.2973601,"population":65,"stateCapital":false,"nationalCapital":false,"pk":null,"quiz":"asia","code":null,"archived":false,"percentageOfSessions":null}, {"name":"Верх-Казанка","state":"Krasnoyarsk","territory":"","country":"Russia","latitude":57.0479328,"longitude":92.7904906,"population":609,"stateCapital":false,"nationalCapital":false,"pk":null,"quiz":"asia","code":null,"archived":false,"percentageOfSessions":null}, {"name":"Верх-Канарай","state":"Krasnoyarsk","territory":"","country":"Russia","latitude":56.9849557,"longitude":94.464039,"population":31,"stateCapital":false,"nationalCapital":false,"pk":null,"quiz":"asia","code":null,"archived":false,"percentageOfSessions":null}, {"name":"Верх-Кежма","state":"Krasnoyarsk","territory":"","country":"Russia","latitude":58.9839288,"longitude":101.3153438,"population":2,"stateCapital":false,"nationalCapital":false,"pk":null,"quiz":"asia","code":null,"archived":false,"percentageOfSessions":null}, {"name":"Верхнебельск","state":"Krasnoyarsk","territory":"","country":"Russia","latitude":58.1007,"longitude":92.3537362,"population":0,"stateCapital":false,"nationalCapital":false,"pk":null,"quiz":"asia","code":null,"archived":false,"percentageOfSessions":null}, {"name":"Верхнеимбатск","state":"Krasnoyarsk","territory":"","country":"Russia","latitude":63.1569728,"longitude":87.9639337,"population":545,"stateCapital":false,"nationalCapital":false,"pk":null,"quiz":"asia","code":null,"archived":false,"percentageOfSessions":null}, {"name":"Верхнекемское","state":"Krasnoyarsk","territory":"","country":"Russia","latitude":58.02021,"longitude":92.0213696,"population":0,"stateCapital":false,"nationalCapital":false,"pk":null,"quiz":"asia","code":null,"archived":false,"percentageOfSessions":null}, {"name":"Верхнемишкино","state":"Krasnoyarsk","territory":"","country":"Russia","latitude":54.0233722,"longitude":93.2407427,"population":0,"stateCapital":false,"nationalCapital":false,"pk":null,"quiz":"asia","code":null,"archived":false,"percentageOfSessions":null}, {"name":"Верхнепашино","state":"Krasnoyarsk","territory":"","country":"Russia","latitude":58.4124243,"longitude":92.2635944,"population":2870,"stateCapital":false,"nationalCapital":false,"pk":null,"quiz":"asia","code":null,"archived":false,"percentageOfSessions":null}, {"name":"Верхнеусинское","state":"Krasnoyarsk","territory":"","country":"Russia","latitude":52.240841,"longitude":93.025047,"population":1393,"stateCapital":false,"nationalCapital":false,"pk":null,"quiz":"asia","code":null,"archived":false,"percentageOfSessions":null}, {"name":"Верхнешалинское","state":"Krasnoyarsk","territory":"","country":"Russia","latitude":55.6889054,"longitude":93.5427043,"population":3,"stateCapital":false,"nationalCapital":false,"pk":null,"quiz":"asia","code":null,"archived":false,"percentageOfSessions":null}, {"name":"Верхние Куряты","state":"Krasnoyarsk","territory":"","country":"Russia","latitude":53.7337027,"longitude":93.1934687,"population":115,"stateCapital":false,"nationalCapital":false,"pk":null,"quiz":"asia","code":null,"archived":false,"percentageOfSessions":null}, {"name":"Верхний Агашул","state":"Krasnoyarsk","territory":"","country":"Russia","latitude":55.4503455,"longitude":94.6848458,"population":0,"stateCapital":false,"nationalCapital":false,"pk":null,"quiz":"asia","code":null,"archived":false,"percentageOfSessions":null}, {"name":"Верхний Ададым","state":"Krasnoyarsk","territory":"","country":"Russia","latitude":55.907665,"longitude":90.212006,"population":340,"stateCapital":false,"nationalCapital":false,"pk":null,"quiz":"asia","code":null,"archived":false,"percentageOfSessions":null}, {"name":"Верхний Ингаш","state":"Krasnoyarsk","territory":"","country":"Russia","latitude":56.2084252,"longitude":96.4455267,"population":725,"stateCapital":false,"nationalCapital":false,"pk":null,"quiz":"asia","code":null,"archived":false,"percentageOfSessions":null}, {"name":"Верхний Кебеж","state":"Krasnoyarsk","territory":"","country":"Russia","latitude":53.2434874,"longitude":92.8125188,"population":321,"stateCapital":false,"nationalCapital":false,"pk":null,"quiz":"asia","code":null,"archived":false,"percentageOfSessions":null}, {"name":"Верхний Кужебар","state":"Krasnoyarsk","territory":"","country":"Russia","latitude":53.3686118,"longitude":93.2415549,"population":956,"stateCapital":false,"nationalCapital":false,"pk":null,"quiz":"asia","code":null,"archived":false,"percentageOfSessions":null}, {"name":"Верхний Суэтук","state":"Krasnoyarsk","territory":"","country":"Russia","latitude":53.462536,"longitude":92.534996,"population":153,"stateCapital":false,"nationalCapital":false,"pk":null,"quiz":"asia","code":null,"archived":false,"percentageOfSessions":null}, {"name":"Верхний Танай","state":"Krasnoyarsk","territory":"","country":"Russia","latitude":56.7221812,"longitude":95.4325597,"population":12,"stateCapital":false,"nationalCapital":false,"pk":null,"quiz":"asia","code":null,"archived":false,"percentageOfSessions":null}, {"name":"Верхняя Базаиха","state":"Krasnoyarsk","territory":"","country":"Russia","latitude":55.689137,"longitude":93.386009,"population":209,"stateCapital":false,"nationalCapital":false,"pk":null,"quiz":"asia","code":null,"archived":false,"percentageOfSessions":null}, {"name":"Верхняя Березовка","state":"Krasnoyarsk","territory":"","country":"Russia","latitude":55.687668,"longitude":90.286591,"population":289,"stateCapital":false,"nationalCapital":false,"pk":null,"quiz":"asia","code":null,"archived":false,"percentageOfSessions":null}, {"name":"Верхняя Бирюса","state":"Krasnoyarsk","territory":"","country":"Russia","latitude":55.9235338,"longitude":91.9746279,"population":92,"stateCapital":false,"nationalCapital":false,"pk":null,"quiz":"asia","code":null,"archived":false,"percentageOfSessions":null}, {"name":"Верхняя Буланка","state":"Krasnoyarsk","territory":"","country":"Russia","latitude":53.377396,"longitude":92.779182,"population":40,"stateCapital":false,"nationalCapital":false,"pk":null,"quiz":"asia","code":null,"archived":false,"percentageOfSessions":null}, {"name":"Верхняя Есауловка","state":"Krasnoyarsk","territory":"","country":"Russia","latitude":55.676098,"longitude":93.7886919,"population":520,"stateCapital":false,"nationalCapital":false,"pk":null,"quiz":"asia","code":null,"archived":false,"percentageOfSessions":null}, {"name":"Верхняя Коя","state":"Krasnoyarsk","territory":"","country":"Russia","latitude":53.4968924,"longitude":92.1617626,"population":333,"stateCapital":false,"nationalCapital":false,"pk":null,"quiz":"asia","code":null,"archived":false,"percentageOfSessions":null}, {"name":"Верхняя Мульга","state":"Krasnoyarsk","territory":"","country":"Russia","latitude":54.1681759,"longitude":93.2657555,"population":38,"stateCapital":false,"nationalCapital":false,"pk":null,"quiz":"asia","code":null,"archived":false,"percentageOfSessions":null}, {"name":"Верхняя Уря","state":"Krasnoyarsk","territory":"","country":"Russia","latitude":55.6737235,"longitude":95.0822803,"population":586,"stateCapital":false,"nationalCapital":false,"pk":null,"quiz":"asia","code":null,"archived":false,"percentageOfSessions":null}, {"name":"Верхняя Чулымка","state":"Krasnoyarsk","territory":"","country":"Russia","latitude":56.06242,"longitude":90.248695,"population":71,"stateCapital":false,"nationalCapital":false,"pk":null,"quiz":"asia","code":null,"archived":false,"percentageOfSessions":null}, {"name":"Верхобродово","state":"Krasnoyarsk","territory":"","country":"Russia","latitude":56.830077,"longitude":93.0330108,"population":145,"stateCapital":false,"nationalCapital":false,"pk":null,"quiz":"asia","code":null,"archived":false,"percentageOfSessions":null}, {"name":"Верховая","state":"Krasnoyarsk","territory":"","country":"Russia","latitude":55.8945276,"longitude":95.1109842,"population":155,"stateCapital":false,"nationalCapital":false,"pk":null,"quiz":"asia","code":null,"archived":false,"percentageOfSessions":null}, {"name":"Верх-Подьемная","state":"Krasnoyarsk","territory":"","country":"Russia","latitude":56.780574,"longitude":93.1066536,"population":84,"stateCapital":false,"nationalCapital":false,"pk":null,"quiz":"asia","code":null,"archived":false,"percentageOfSessions":null}, {"name":"Верх-Тугуша","state":"Krasnoyarsk","territory":"","country":"Russia","latitude":55.8826899,"longitude":96.5958057,"population":0,"stateCapital":false,"nationalCapital":false,"pk":null,"quiz":"asia","code":null,"archived":false,"percentageOfSessions":null}, {"name":"Верх-Четск","state":"Krasnoyarsk","territory":"","country":"Russia","latitude":56.922562,"longitude":89.064262,"population":230,"stateCapital":false,"nationalCapital":false,"pk":null,"quiz":"asia","code":null,"archived":false,"percentageOfSessions":null}, {"name":"Вершино-Рыбное","state":"Krasnoyarsk","territory":"","country":"Russia","latitude":55.2849858,"longitude":94.3342563,"population":761,"stateCapital":false,"nationalCapital":false,"pk":null,"quiz":"asia","code":null,"archived":false,"percentageOfSessions":null}, {"name":"Весёлая Гора","state":"Krasnoyarsk","territory":"","country":"Russia","latitude":56.1894195,"longitude":92.6666123,"population":0,"stateCapital":false,"nationalCapital":false,"pk":null,"quiz":"asia","code":null,"archived":false,"percentageOfSessions":null}, {"name":"Веселое","state":"Krasnoyarsk","territory":"","country":"Russia","latitude":57.0816798,"longitude":95.1926728,"population":400,"stateCapital":false,"nationalCapital":false,"pk":null,"quiz":"asia","code":null,"archived":false,"percentageOfSessions":null}, {"name":"Веселые Ключи","state":"Krasnoyarsk","territory":"","country":"Russia","latitude":53.4485935,"longitude":92.3678409,"population":166,"stateCapital":false,"nationalCapital":false,"pk":null,"quiz":"asia","code":null,"archived":false,"percentageOfSessions":null}, {"name":"Ветвистый","state":"Krasnoyarsk","territory":"","country":"Russia","latitude":55.8931415,"longitude":93.59687,"population":294,"stateCapital":false,"nationalCapital":false,"pk":null,"quiz":"asia","code":null,"archived":false,"percentageOfSessions":null}, {"name":"Вечерницы","state":"Krasnoyarsk","territory":"","country":"Russia","latitude":56.3253933,"longitude":92.5327944,"population":53,"stateCapital":false,"nationalCapital":false,"pk":null,"quiz":"asia","code":null,"archived":false,"percentageOfSessions":null}, {"name":"Виленка","state":"Krasnoyarsk","territory":"","country":"Russia","latitude":55.598637,"longitude":91.565697,"population":32,"stateCapital":false,"nationalCapital":false,"pk":null,"quiz":"asia","code":null,"archived":false,"percentageOfSessions":null}, {"name":"Вишняково-Катеюл","state":"Krasnoyarsk","territory":"","country":"Russia","latitude":56.308685,"longitude":89.457848,"population":77,"stateCapital":false,"nationalCapital":false,"pk":null,"quiz":"asia","code":null,"archived":false,"percentageOfSessions":null}, {"name":"Владимировка","state":"Krasnoyarsk","territory":"","country":"Russia","latitude":56.171562,"longitude":89.842171,"population":339,"stateCapital":false,"nationalCapital":false,"pk":null,"quiz":"asia","code":null,"archived":false,"percentageOfSessions":null}, {"name":"Владимировка","state":"Krasnoyarsk","territory":"","country":"Russia","latitude":56.019482,"longitude":90.525528,"population":185,"stateCapital":false,"nationalCapital":false,"pk":null,"quiz":"asia","code":null,"archived":false,"percentageOfSessions":null}, {"name":"Власть Труда","state":"Krasnoyarsk","territory":"","country":"Russia","latitude":55.8805572,"longitude":94.6703014,"population":20,"stateCapital":false,"nationalCapital":false,"pk":null,"quiz":"asia","code":null,"archived":false,"percentageOfSessions":null}, {"name":"Водораздел","state":"Krasnoyarsk","territory":"","country":"Russia","latitude":56.1060258,"longitude":92.0798534,"population":0,"stateCapital":false,"nationalCapital":false,"pk":null,"quiz":"asia","code":null,"archived":false,"percentageOfSessions":null}, {"name":"Водорезово","state":"Krasnoyarsk","territory":"","country":"Russia","latitude":57.5874693,"longitude":93.233228,"population":25,"stateCapital":false,"nationalCapital":false,"pk":null,"quiz":"asia","code":null,"archived":false,"percentageOfSessions":null}, {"name":"Воздвиженка","state":"Krasnoyarsk","territory":"","country":"Russia","latitude":56.4819049,"longitude":96.3559196,"population":24,"stateCapital":false,"nationalCapital":false,"pk":null,"quiz":"asia","code":null,"archived":false,"percentageOfSessions":null}, {"name":"Вознесенка","state":"Krasnoyarsk","territory":"","country":"Russia","latitude":53.1048977,"longitude":92.0697261,"population":36,"stateCapital":false,"nationalCapital":false,"pk":null,"quiz":"asia","code":null,"archived":false,"percentageOfSessions":null}, {"name":"Вознесенка","state":"Krasnoyarsk","territory":"","country":"Russia","latitude":54.7693647,"longitude":92.105811,"population":0,"stateCapital":false,"nationalCapital":false,"pk":null,"quiz":"asia","code":null,"archived":false,"percentageOfSessions":null}, {"name":"Вознесенка","state":"Krasnoyarsk","territory":"","country":"Russia","latitude":56.971481,"longitude":96.9972948,"population":324,"stateCapital":false,"nationalCapital":false,"pk":null,"quiz":"asia","code":null,"archived":false,"percentageOfSessions":null}, {"name":"Вознесенка","state":"Krasnoyarsk","territory":"","country":"Russia","latitude":56.002419,"longitude":93.264992,"population":1236,"stateCapital":false,"nationalCapital":false,"pk":null,"quiz":"asia","code":null,"archived":false,"percentageOfSessions":null}, {"name":"Вознесенка","state":"Krasnoyarsk","territory":"","country":"Russia","latitude":56.656907,"longitude":95.058016,"population":74,"stateCapital":false,"nationalCapital":false,"pk":null,"quiz":"asia","code":null,"archived":false,"percentageOfSessions":null}, {"name":"Вознесенка","state":"Krasnoyarsk","territory":"","country":"Russia","latitude":55.0597832,"longitude":94.9453934,"population":394,"stateCapital":false,"nationalCapital":false,"pk":null,"quiz":"asia","code":null,"archived":false,"percentageOfSessions":null}, {"name":"Волоковое","state":"Krasnoyarsk","territory":"","country":"Russia","latitude":57.6579231,"longitude":92.4458731,"population":91,"stateCapital":false,"nationalCapital":false,"pk":null,"quiz":"asia","code":null,"archived":false,"percentageOfSessions":null}, {"name":"Волочанка","state":"Krasnoyarsk","territory":"","country":"Russia","latitude":70.9769481,"longitude":94.5394725,"population":530,"stateCapital":false,"nationalCapital":false,"pk":null,"quiz":"asia","code":null,"archived":false,"percentageOfSessions":null}, {"name":"Волынка","state":"Krasnoyarsk","territory":"","country":"Russia","latitude":56.3713,"longitude":89.157761,"population":37,"stateCapital":false,"nationalCapital":false,"pk":null,"quiz":"asia","code":null,"archived":false,"percentageOfSessions":null}, {"name":"Вольный","state":"Krasnoyarsk","territory":"","country":"Russia","latitude":55.269238,"longitude":91.040794,"population":97,"stateCapital":false,"nationalCapital":false,"pk":null,"quiz":"asia","code":null,"archived":false,"percentageOfSessions":null}, {"name":"Воробино","state":"Krasnoyarsk","territory":"","country":"Russia","latitude":56.499359,"longitude":93.195717,"population":184,"stateCapital":false,"nationalCapital":false,"pk":null,"quiz":"asia","code":null,"archived":false,"percentageOfSessions":null}, {"name":"Воробьевка","state":"Krasnoyarsk","territory":"","country":"Russia","latitude":56.7227839,"longitude":96.028271,"population":16,"stateCapital":false,"nationalCapital":false,"pk":null,"quiz":"asia","code":null,"archived":false,"percentageOfSessions":null}, {"name":"Ворогово","state":"Krasnoyarsk","territory":"","country":"Russia","latitude":61.0277303,"longitude":89.616098,"population":856,"stateCapital":false,"nationalCapital":false,"pk":null,"quiz":"asia","code":null,"archived":false,"percentageOfSessions":null}, {"name":"Ворожейка","state":"Krasnoyarsk","territory":"","country":"Russia","latitude":58.2144775,"longitude":90.2741232,"population":4,"stateCapital":false,"nationalCapital":false,"pk":null,"quiz":"asia","code":null,"archived":false,"percentageOfSessions":null}, {"name":"Вороковка","state":"Krasnoyarsk","territory":"","country":"Russia","latitude":57.595745,"longitude":92.853264,"population":429,"stateCapital":false,"nationalCapital":false,"pk":null,"quiz":"asia","code":null,"archived":false,"percentageOfSessions":null}, {"name":"Воронино","state":"Krasnoyarsk","territory":"","country":"Russia","latitude":55.6703674,"longitude":94.5451522,"population":130,"stateCapital":false,"nationalCapital":false,"pk":null,"quiz":"asia","code":null,"archived":false,"percentageOfSessions":null}, {"name":"Воронцово","state":"Krasnoyarsk","territory":"","country":"Russia","latitude":71.6974585,"longitude":83.5583993,"population":253,"stateCapital":false,"nationalCapital":false,"pk":null,"quiz":"asia","code":null,"archived":false,"percentageOfSessions":null}, {"name":"Воскресенка","state":"Krasnoyarsk","territory":"","country":"Russia","latitude":55.9456693,"longitude":94.9746731,"population":173,"stateCapital":false,"nationalCapital":false,"pk":null,"quiz":"asia","code":null,"archived":false,"percentageOfSessions":null}, {"name":"Восток","state":"Krasnoyarsk","territory":"","country":"Russia","latitude":56.9515545,"longitude":95.8229173,"population":88,"stateCapital":false,"nationalCapital":false,"pk":null,"quiz":"asia","code":null,"archived":false,"percentageOfSessions":null}, {"name":"Восточное","state":"Krasnoyarsk","territory":"","country":"Russia","latitude":54.0922647,"longitude":91.6588259,"population":826,"stateCapital":false,"nationalCapital":false,"pk":null,"quiz":"asia","code":null,"archived":false,"percentageOfSessions":null}, {"name":"Восточное","state":"Krasnoyarsk","territory":"","country":"Russia","latitude":53.5767904,"longitude":92.1358577,"population":534,"stateCapital":false,"nationalCapital":false,"pk":null,"quiz":"asia","code":null,"archived":false,"percentageOfSessions":null}, {"name":"Восточное","state":"Krasnoyarsk","territory":"","country":"Russia","latitude":55.6288742,"longitude":94.4864606,"population":287,"stateCapital":false,"nationalCapital":false,"pk":null,"quiz":"asia","code":null,"archived":false,"percentageOfSessions":null}, {"name":"Восточный","state":"Krasnoyarsk","territory":"","country":"Russia","latitude":54.3627466,"longitude":92.1799934,"population":64,"stateCapital":false,"nationalCapital":false,"pk":null,"quiz":"asia","code":null,"archived":false,"percentageOfSessions":null}, {"name":"Выезжий Лог","state":"Krasnoyarsk","territory":"","country":"Russia","latitude":54.975382,"longitude":93.9302261,"population":409,"stateCapital":false,"nationalCapital":false,"pk":null,"quiz":"asia","code":null,"archived":false,"percentageOfSessions":null}, {"name":"Высокогородецк","state":"Krasnoyarsk","territory":"","country":"Russia","latitude":56.7105125,"longitude":96.2932942,"population":169,"stateCapital":false,"nationalCapital":false,"pk":null,"quiz":"asia","code":null,"archived":false,"percentageOfSessions":null}, {"name":"Высокогорский","state":"Krasnoyarsk","territory":"","country":"Russia","latitude":58.1683266,"longitude":92.6213127,"population":1086,"stateCapital":false,"nationalCapital":false,"pk":null,"quiz":"asia","code":null,"archived":false,"percentageOfSessions":null}, {"name":"Высотино","state":"Krasnoyarsk","territory":"","country":"Russia","latitude":56.0340629,"longitude":94.6618989,"population":76,"stateCapital":false,"nationalCapital":false,"pk":null,"quiz":"asia","code":null,"archived":false,"percentageOfSessions":null}, {"name":"Высотино","state":"Krasnoyarsk","territory":"","country":"Russia","latitude":56.54974,"longitude":93.40844,"population":986,"stateCapital":false,"nationalCapital":false,"pk":null,"quiz":"asia","code":null,"archived":false,"percentageOfSessions":null}, {"name":"Вятка","state":"Krasnoyarsk","territory":"","country":"Russia","latitude":55.3473477,"longitude":94.8688614,"population":107,"stateCapital":false,"nationalCapital":false,"pk":null,"quiz":"asia","code":null,"archived":false,"percentageOfSessions":null}, {"name":"Гавань","state":"Krasnoyarsk","territory":"","country":"Russia","latitude":57.7576667,"longitude":93.2587793,"population":13,"stateCapital":false,"nationalCapital":false,"pk":null,"quiz":"asia","code":null,"archived":false,"percentageOfSessions":null}, {"name":"Гавриловка","state":"Krasnoyarsk","territory":"","country":"Russia","latitude":55.996408,"longitude":96.1833696,"population":91,"stateCapital":false,"nationalCapital":false,"pk":null,"quiz":"asia","code":null,"archived":false,"percentageOfSessions":null}, {"name":"Гагарина","state":"Krasnoyarsk","territory":"","country":"Russia","latitude":56.7288,"longitude":96.1125,"population":142,"stateCapital":false,"nationalCapital":false,"pk":null,"quiz":"asia","code":null,"archived":false,"percentageOfSessions":null}, {"name":"Галактионово","state":"Krasnoyarsk","territory":"","country":"Russia","latitude":54.1376661,"longitude":92.1122018,"population":314,"stateCapital":false,"nationalCapital":false,"pk":null,"quiz":"asia","code":null,"archived":false,"percentageOfSessions":null}, {"name":"Галанино","state":"Krasnoyarsk","territory":"","country":"Russia","latitude":57.6204506,"longitude":93.2707862,"population":1417,"stateCapital":false,"nationalCapital":false,"pk":null,"quiz":"asia","code":null,"archived":false,"percentageOfSessions":null}, {"name":"Галушка","state":"Krasnoyarsk","territory":"","country":"Russia","latitude":55.5647458,"longitude":95.6708031,"population":0,"stateCapital":false,"nationalCapital":false,"pk":null,"quiz":"asia","code":null,"archived":false,"percentageOfSessions":null}, {"name":"Гамурино","state":"Krasnoyarsk","territory":"","country":"Russia","latitude":57.3971962,"longitude":92.6557841,"population":102,"stateCapital":false,"nationalCapital":false,"pk":null,"quiz":"asia","code":null,"archived":false,"percentageOfSessions":null}, {"name":"Ганина Гарь","state":"Krasnoyarsk","territory":"","country":"Russia","latitude":57.065361,"longitude":91.500618,"population":9,"stateCapital":false,"nationalCapital":false,"pk":null,"quiz":"asia","code":null,"archived":false,"percentageOfSessions":null}, {"name":"Гаревое","state":"Krasnoyarsk","territory":"","country":"Russia","latitude":56.6445695,"longitude":92.6492811,"population":488,"stateCapital":false,"nationalCapital":false,"pk":null,"quiz":"asia","code":null,"archived":false,"percentageOfSessions":null}, {"name":"Георгиевка","state":"Krasnoyarsk","territory":"","country":"Russia","latitude":56.393684,"longitude":89.348022,"population":166,"stateCapital":false,"nationalCapital":false,"pk":null,"quiz":"asia","code":null,"archived":false,"percentageOfSessions":null}, {"name":"Георгиевка","state":"Krasnoyarsk","territory":"","country":"Russia","latitude":56.5130937,"longitude":95.4071936,"population":1120,"stateCapital":false,"nationalCapital":false,"pk":null,"quiz":"asia","code":null,"archived":false,"percentageOfSessions":null}, {"name":"Гладкий Мыс","state":"Krasnoyarsk","territory":"","country":"Russia","latitude":55.485416,"longitude":91.271881,"population":53,"stateCapital":false,"nationalCapital":false,"pk":null,"quiz":"asia","code":null,"archived":false,"percentageOfSessions":null}, {"name":"Гладково","state":"Krasnoyarsk","territory":"","country":"Russia","latitude":55.210724,"longitude":95.081596,"population":359,"stateCapital":false,"nationalCapital":false,"pk":null,"quiz":"asia","code":null,"archived":false,"percentageOfSessions":null}, {"name":"Гладкое","state":"Krasnoyarsk","territory":"","country":"Russia","latitude":56.3560154,"longitude":92.4278557,"population":17,"stateCapital":false,"nationalCapital":false,"pk":null,"quiz":"asia","code":null,"archived":false,"percentageOfSessions":null}, {"name":"Глинка","state":"Krasnoyarsk","territory":"","country":"Russia","latitude":55.769402,"longitude":89.522835,"population":165,"stateCapital":false,"nationalCapital":false,"pk":null,"quiz":"asia","code":null,"archived":false,"percentageOfSessions":null}, {"name":"Глинная","state":"Krasnoyarsk","territory":"","country":"Russia","latitude":57.2646487,"longitude":94.884105,"population":0,"stateCapital":false,"nationalCapital":false,"pk":null,"quiz":"asia","code":null,"archived":false,"percentageOfSessions":null}, {"name":"Глинный","state":"Krasnoyarsk","territory":"","country":"Russia","latitude":56.7816034,"longitude":97.708759,"population":68,"stateCapital":false,"nationalCapital":false,"pk":null,"quiz":"asia","code":null,"archived":false,"percentageOfSessions":null}, {"name":"Глубоково","state":"Krasnoyarsk","territory":"","country":"Russia","latitude":55.8586778,"longitude":94.7602573,"population":206,"stateCapital":false,"nationalCapital":false,"pk":null,"quiz":"asia","code":null,"archived":false,"percentageOfSessions":null}, {"name":"Глушково","state":"Krasnoyarsk","territory":"","country":"Russia","latitude":56.04604,"longitude":91.12825,"population":32,"stateCapital":false,"nationalCapital":false,"pk":null,"quiz":"asia","code":null,"archived":false,"percentageOfSessions":null}, {"name":"Гляден","state":"Krasnoyarsk","territory":"","country":"Russia","latitude":55.496422,"longitude":89.297432,"population":647,"stateCapital":false,"nationalCapital":false,"pk":null,"quiz":"asia","code":null,"archived":false,"percentageOfSessions":null}, {"name":"Гляден","state":"Krasnoyarsk","territory":"","country":"Russia","latitude":56.3670087,"longitude":92.7325995,"population":167,"stateCapital":false,"nationalCapital":false,"pk":null,"quiz":"asia","code":null,"archived":false,"percentageOfSessions":null}, {"name":"Глядень","state":"Krasnoyarsk","territory":"","country":"Russia","latitude":55.775406,"longitude":90.140793,"population":145,"stateCapital":false,"nationalCapital":false,"pk":null,"quiz":"asia","code":null,"archived":false,"percentageOfSessions":null}, {"name":"Глядень","state":"Krasnoyarsk","territory":"","country":"Russia","latitude":55.775406,"longitude":90.140793,"population":1138,"stateCapital":false,"nationalCapital":false,"pk":null,"quiz":"asia","code":null,"archived":false,"percentageOfSessions":null}, {"name":"Гмирянка","state":"Krasnoyarsk","territory":"","country":"Russia","latitude":56.0057522,"longitude":94.8792647,"population":261,"stateCapital":false,"nationalCapital":false,"pk":null,"quiz":"asia","code":null,"archived":false,"percentageOfSessions":null}, {"name":"Гнетово","state":"Krasnoyarsk","territory":"","country":"Russia","latitude":56.283981,"longitude":89.882271,"population":108,"stateCapital":false,"nationalCapital":false,"pk":null,"quiz":"asia","code":null,"archived":false,"percentageOfSessions":null}, {"name":"Говорково","state":"Krasnoyarsk","territory":"","country":"Russia","latitude":58.6016648,"longitude":98.7227975,"population":769,"stateCapital":false,"nationalCapital":false,"pk":null,"quiz":"asia","code":null,"archived":false,"percentageOfSessions":null}, {"name":"Голубая","state":"Krasnoyarsk","territory":"","country":"Russia","latitude":52.9773072,"longitude":91.5079806,"population":261,"stateCapital":false,"nationalCapital":false,"pk":null,"quiz":"asia","code":null,"archived":false,"percentageOfSessions":null}, {"name":"Голубевка","state":"Krasnoyarsk","territory":"","country":"Russia","latitude":55.4021286,"longitude":93.8649364,"population":1,"stateCapital":false,"nationalCapital":false,"pk":null,"quiz":"asia","code":null,"archived":false,"percentageOfSessions":null}, {"name":"Голубки","state":"Krasnoyarsk","territory":"","country":"Russia","latitude":55.787117,"longitude":90.196167,"population":128,"stateCapital":false,"nationalCapital":false,"pk":null,"quiz":"asia","code":null,"archived":false,"percentageOfSessions":null}, {"name":"Гольтявино","state":"Krasnoyarsk","territory":"","country":"Russia","latitude":58.4331467,"longitude":98.4366053,"population":47,"stateCapital":false,"nationalCapital":false,"pk":null,"quiz":"asia","code":null,"archived":false,"percentageOfSessions":null}, {"name":"Горбы","state":"Krasnoyarsk","territory":"","country":"Russia","latitude":55.765022,"longitude":89.730804,"population":243,"stateCapital":false,"nationalCapital":false,"pk":null,"quiz":"asia","code":null,"archived":false,"percentageOfSessions":null}, {"name":"Горелый Борок","state":"Krasnoyarsk","territory":"","country":"Russia","latitude":56.3495734,"longitude":96.538365,"population":80,"stateCapital":false,"nationalCapital":false,"pk":null,"quiz":"asia","code":null,"archived":false,"percentageOfSessions":null}, {"name":"Горный","state":"Krasnoyarsk","territory":"","country":"Russia","latitude":56.2416486,"longitude":90.5554882,"population":1503,"stateCapital":false,"nationalCapital":false,"pk":null,"quiz":"asia","code":null,"archived":false,"percentageOfSessions":null}, {"name":"Городище","state":"Krasnoyarsk","territory":"","country":"Russia","latitude":58.2929738,"longitude":92.4372362,"population":263,"stateCapital":false,"nationalCapital":false,"pk":null,"quiz":"asia","code":null,"archived":false,"percentageOfSessions":null}, {"name":"Городок","state":"Krasnoyarsk","territory":"","country":"Russia","latitude":56.947063,"longitude":96.0812,"population":0,"stateCapital":false,"nationalCapital":false,"pk":null,"quiz":"asia","code":null,"archived":false,"percentageOfSessions":null}, {"name":"Городок","state":"Krasnoyarsk","territory":"","country":"Russia","latitude":53.9270199,"longitude":91.8024015,"population":2127,"stateCapital":false,"nationalCapital":false,"pk":null,"quiz":"asia","code":null,"archived":false,"percentageOfSessions":null}, {"name":"Горошиха","state":"Krasnoyarsk","territory":"","country":"Russia","latitude":66.3944162,"longitude":87.5046351,"population":106,"stateCapital":false,"nationalCapital":false,"pk":null,"quiz":"asia","code":null,"archived":false,"percentageOfSessions":null}, {"name":"Горская","state":"Krasnoyarsk","territory":"","country":"Russia","latitude":58.4123378,"longitude":92.1477062,"population":117,"stateCapital":false,"nationalCapital":false,"pk":null,"quiz":"asia","code":null,"archived":false,"percentageOfSessions":null}, {"name":"Горячегорск","state":"Krasnoyarsk","territory":"","country":"Russia","latitude":55.405281,"longitude":88.915428,"population":756,"stateCapital":false,"nationalCapital":false,"pk":null,"quiz":"asia","code":null,"archived":false,"percentageOfSessions":null}, {"name":"Гремучая Падь","state":"Krasnoyarsk","territory":"","country":"Russia","latitude":56.4408079,"longitude":95.7803034,"population":53,"stateCapital":false,"nationalCapital":false,"pk":null,"quiz":"asia","code":null,"archived":false,"percentageOfSessions":null}, {"name":"Гремучий","state":"Krasnoyarsk","territory":"","country":"Russia","latitude":58.406101,"longitude":97.442589,"population":1881,"stateCapital":false,"nationalCapital":false,"pk":null,"quiz":"asia","code":null,"archived":false,"percentageOfSessions":null}, {"name":"Грибной","state":"Krasnoyarsk","territory":"","country":"Russia","latitude":56.325001,"longitude":90.696899,"population":20,"stateCapital":false,"nationalCapital":false,"pk":null,"quiz":"asia","code":null,"archived":false,"percentageOfSessions":null}, {"name":"Григорьевка","state":"Krasnoyarsk","territory":"","country":"Russia","latitude":53.2242739,"longitude":92.8449585,"population":454,"stateCapital":false,"nationalCapital":false,"pk":null,"quiz":"asia","code":null,"archived":false,"percentageOfSessions":null}, {"name":"Громадск","state":"Krasnoyarsk","territory":"","country":"Russia","latitude":55.9004671,"longitude":94.398573,"population":2049,"stateCapital":false,"nationalCapital":false,"pk":null,"quiz":"asia","code":null,"archived":false,"percentageOfSessions":null}, {"name":"Грузенка","state":"Krasnoyarsk","territory":"","country":"Russia","latitude":55.480099,"longitude":90.959686,"population":389,"stateCapital":false,"nationalCapital":false,"pk":null,"quiz":"asia","code":null,"archived":false,"percentageOfSessions":null}, {"name":"Гудково","state":"Krasnoyarsk","territory":"","country":"Russia","latitude":55.893585,"longitude":89.610802,"population":177,"stateCapital":false,"nationalCapital":false,"pk":null,"quiz":"asia","code":null,"archived":false,"percentageOfSessions":null}, {"name":"Гуляевка","state":"Krasnoyarsk","territory":"","country":"Russia","latitude":53.84256,"longitude":93.7700088,"population":287,"stateCapital":false,"nationalCapital":false,"pk":null,"quiz":"asia","code":null,"archived":false,"percentageOfSessions":null}, {"name":"Далай","state":"Krasnoyarsk","territory":"","country":"Russia","latitude":56.2947426,"longitude":95.9022088,"population":476,"stateCapital":false,"nationalCapital":false,"pk":null,"quiz":"asia","code":null,"archived":false,"percentageOfSessions":null}, {"name":"Далай-Отрез","state":"Krasnoyarsk","territory":"","country":"Russia","latitude":56.3068176,"longitude":96.0610379,"population":88,"stateCapital":false,"nationalCapital":false,"pk":null,"quiz":"asia","code":null,"archived":false,"percentageOfSessions":null}, {"name":"Дальний","state":"Krasnoyarsk","territory":"","country":"Russia","latitude":56.1806873,"longitude":94.0576922,"population":0,"stateCapital":false,"nationalCapital":false,"pk":null,"quiz":"asia","code":null,"archived":false,"percentageOfSessions":null}, {"name":"Данилки","state":"Krasnoyarsk","territory":"","country":"Russia","latitude":57.3009739,"longitude":94.5339839,"population":39,"stateCapital":false,"nationalCapital":false,"pk":null,"quiz":"asia","code":null,"archived":false,"percentageOfSessions":null}, {"name":"Даурское","state":"Krasnoyarsk","territory":"","country":"Russia","latitude":55.224712,"longitude":91.966011,"population":230,"stateCapital":false,"nationalCapital":false,"pk":null,"quiz":"asia","code":null,"archived":false,"percentageOfSessions":null}, {"name":"Двинка","state":"Krasnoyarsk","territory":"","country":"Russia","latitude":56.483829,"longitude":88.971016,"population":346,"stateCapital":false,"nationalCapital":false,"pk":null,"quiz":"asia","code":null,"archived":false,"percentageOfSessions":null}, {"name":"Двуречное","state":"Krasnoyarsk","territory":"","country":"Russia","latitude":55.7097174,"longitude":94.7701486,"population":715,"stateCapital":false,"nationalCapital":false,"pk":null,"quiz":"asia","code":null,"archived":false,"percentageOfSessions":null}, {"name":"Дементьевка","state":"Krasnoyarsk","territory":"","country":"Russia","latitude":57.6186492,"longitude":93.6186758,"population":54,"stateCapital":false,"nationalCapital":false,"pk":null,"quiz":"asia","code":null,"archived":false,"percentageOfSessions":null}, {"name":"Денисовка","state":"Krasnoyarsk","territory":"","country":"Russia","latitude":56.5795079,"longitude":96.064444,"population":343,"stateCapital":false,"nationalCapital":false,"pk":null,"quiz":"asia","code":null,"archived":false,"percentageOfSessions":null}, {"name":"Денисово","state":"Krasnoyarsk","territory":"","country":"Russia","latitude":56.8530522,"longitude":95.094667,"population":972,"stateCapital":false,"nationalCapital":false,"pk":null,"quiz":"asia","code":null,"archived":false,"percentageOfSessions":null}, {"name":"Детлово","state":"Krasnoyarsk","territory":"","country":"Russia","latitude":54.0910988,"longitude":92.4521105,"population":310,"stateCapital":false,"nationalCapital":false,"pk":null,"quiz":"asia","code":null,"archived":false,"percentageOfSessions":null}, {"name":"Джебь","state":"Krasnoyarsk","territory":"","country":"Russia","latitude":54.4866885,"longitude":93.4313816,"population":5,"stateCapital":false,"nationalCapital":false,"pk":null,"quiz":"asia","code":null,"archived":false,"percentageOfSessions":null}, {"name":"Джирим","state":"Krasnoyarsk","territory":"","country":"Russia","latitude":54.0184604,"longitude":92.1268642,"population":253,"stateCapital":false,"nationalCapital":false,"pk":null,"quiz":"asia","code":null,"archived":false,"percentageOfSessions":null}, {"name":"Джотка","state":"Krasnoyarsk","territory":"","country":"Russia","latitude":54.6708157,"longitude":93.3550968,"population":0,"stateCapital":false,"nationalCapital":false,"pk":null,"quiz":"asia","code":null,"archived":false,"percentageOfSessions":null}, {"name":"Джотка","state":"Krasnoyarsk","territory":"","country":"Russia","latitude":54.6708157,"longitude":93.3550968,"population":6,"stateCapital":false,"nationalCapital":false,"pk":null,"quiz":"asia","code":null,"archived":false,"percentageOfSessions":null}, {"name":"Дзержинское","state":"Krasnoyarsk","territory":"","country":"Russia","latitude":56.838005,"longitude":95.22139,"population":7374,"stateCapital":false,"nationalCapital":false,"pk":null,"quiz":"asia","code":null,"archived":false,"percentageOfSessions":null},