{"cities":[{"name":"114 км","state":"Novosibirsk","territory":"","country":"Russia","latitude":54.4502809,"longitude":77.0654012,"population":0,"stateCapital":false,"nationalCapital":false,"pk":null,"quiz":"asia","code":null,"archived":false,"percentageOfSessions":null}, {"name":"151 км","state":"Novosibirsk","territory":"","country":"Russia","latitude":54.223598,"longitude":77.4644118,"population":10,"stateCapital":false,"nationalCapital":false,"pk":null,"quiz":"asia","code":null,"archived":false,"percentageOfSessions":null}, {"name":"8 Марта","state":"Novosibirsk","territory":"","country":"Russia","latitude":54.9150847,"longitude":82.8067234,"population":334,"stateCapital":false,"nationalCapital":false,"pk":null,"quiz":"asia","code":null,"archived":false,"percentageOfSessions":null}, {"name":"III Интернационал","state":"Novosibirsk","territory":"","country":"Russia","latitude":53.7533102,"longitude":77.3035323,"population":44,"stateCapital":false,"nationalCapital":false,"pk":null,"quiz":"asia","code":null,"archived":false,"percentageOfSessions":null}, {"name":"Абакумово","state":"Novosibirsk","territory":"","country":"Russia","latitude":55.191761,"longitude":78.645348,"population":103,"stateCapital":false,"nationalCapital":false,"pk":null,"quiz":"asia","code":null,"archived":false,"percentageOfSessions":null}, {"name":"Абрамовка","state":"Novosibirsk","territory":"","country":"Russia","latitude":55.657127,"longitude":83.888756,"population":0,"stateCapital":false,"nationalCapital":false,"pk":null,"quiz":"asia","code":null,"archived":false,"percentageOfSessions":null}, {"name":"Абрамово","state":"Novosibirsk","territory":"","country":"Russia","latitude":55.437435,"longitude":78.22184,"population":1222,"stateCapital":false,"nationalCapital":false,"pk":null,"quiz":"asia","code":null,"archived":false,"percentageOfSessions":null}, {"name":"Абрашино","state":"Novosibirsk","territory":"","country":"Russia","latitude":54.238159,"longitude":81.71566,"population":37,"stateCapital":false,"nationalCapital":false,"pk":null,"quiz":"asia","code":null,"archived":false,"percentageOfSessions":null}, {"name":"Агачаулово","state":"Novosibirsk","territory":"","country":"Russia","latitude":56.54158,"longitude":76.665619,"population":59,"stateCapital":false,"nationalCapital":false,"pk":null,"quiz":"asia","code":null,"archived":false,"percentageOfSessions":null}, {"name":"Агролес","state":"Novosibirsk","territory":"","country":"Russia","latitude":54.7566809,"longitude":83.1344161,"population":1378,"stateCapital":false,"nationalCapital":false,"pk":null,"quiz":"asia","code":null,"archived":false,"percentageOfSessions":null}, {"name":"Аккуль","state":"Novosibirsk","territory":"","country":"Russia","latitude":55.6335186,"longitude":78.5880853,"population":20,"stateCapital":false,"nationalCapital":false,"pk":null,"quiz":"asia","code":null,"archived":false,"percentageOfSessions":null}, {"name":"Аксениха","state":"Novosibirsk","territory":"","country":"Russia","latitude":53.715843,"longitude":78.942459,"population":586,"stateCapital":false,"nationalCapital":false,"pk":null,"quiz":"asia","code":null,"archived":false,"percentageOfSessions":null}, {"name":"Алабуга","state":"Novosibirsk","territory":"","country":"Russia","latitude":54.670513,"longitude":80.465996,"population":376,"stateCapital":false,"nationalCapital":false,"pk":null,"quiz":"asia","code":null,"archived":false,"percentageOfSessions":null}, {"name":"Александровка","state":"Novosibirsk","territory":"","country":"Russia","latitude":55.529449,"longitude":84.476234,"population":97,"stateCapital":false,"nationalCapital":false,"pk":null,"quiz":"asia","code":null,"archived":false,"percentageOfSessions":null}, {"name":"Александровка","state":"Novosibirsk","territory":"","country":"Russia","latitude":54.435261,"longitude":84.364975,"population":381,"stateCapital":false,"nationalCapital":false,"pk":null,"quiz":"asia","code":null,"archived":false,"percentageOfSessions":null}, {"name":"Александровский","state":"Novosibirsk","territory":"","country":"Russia","latitude":54.5830618,"longitude":83.166752,"population":316,"stateCapital":false,"nationalCapital":false,"pk":null,"quiz":"asia","code":null,"archived":false,"percentageOfSessions":null}, {"name":"Александровский","state":"Novosibirsk","territory":"","country":"Russia","latitude":53.702694,"longitude":78.212799,"population":489,"stateCapital":false,"nationalCapital":false,"pk":null,"quiz":"asia","code":null,"archived":false,"percentageOfSessions":null}, {"name":"Александровский","state":"Novosibirsk","territory":"","country":"Russia","latitude":55.124928,"longitude":81.775055,"population":6,"stateCapital":false,"nationalCapital":false,"pk":null,"quiz":"asia","code":null,"archived":false,"percentageOfSessions":null}, {"name":"Александровский","state":"Novosibirsk","territory":"","country":"Russia","latitude":54.56879,"longitude":80.853195,"population":55,"stateCapital":false,"nationalCapital":false,"pk":null,"quiz":"asia","code":null,"archived":false,"percentageOfSessions":null}, {"name":"Александро-Невский","state":"Novosibirsk","territory":"","country":"Russia","latitude":54.020546,"longitude":77.392738,"population":217,"stateCapital":false,"nationalCapital":false,"pk":null,"quiz":"asia","code":null,"archived":false,"percentageOfSessions":null}, {"name":"Александро-Невское","state":"Novosibirsk","territory":"","country":"Russia","latitude":55.261948,"longitude":79.176933,"population":429,"stateCapital":false,"nationalCapital":false,"pk":null,"quiz":"asia","code":null,"archived":false,"percentageOfSessions":null}, {"name":"Алексеевка","state":"Novosibirsk","territory":"","country":"Russia","latitude":54.886375,"longitude":78.513062,"population":463,"stateCapital":false,"nationalCapital":false,"pk":null,"quiz":"asia","code":null,"archived":false,"percentageOfSessions":null}, {"name":"Алексеевка","state":"Novosibirsk","territory":"","country":"Russia","latitude":54.440311,"longitude":77.179436,"population":84,"stateCapital":false,"nationalCapital":false,"pk":null,"quiz":"asia","code":null,"archived":false,"percentageOfSessions":null}, {"name":"Алексеевка","state":"Novosibirsk","territory":"","country":"Russia","latitude":56.581299,"longitude":77.044189,"population":0,"stateCapital":false,"nationalCapital":false,"pk":null,"quiz":"asia","code":null,"archived":false,"percentageOfSessions":null}, {"name":"Алексеевка","state":"Novosibirsk","territory":"","country":"Russia","latitude":54.9343119,"longitude":82.5847296,"population":343,"stateCapital":false,"nationalCapital":false,"pk":null,"quiz":"asia","code":null,"archived":false,"percentageOfSessions":null}, {"name":"Алексеевка","state":"Novosibirsk","territory":"","country":"Russia","latitude":56.315224,"longitude":77.730072,"population":89,"stateCapital":false,"nationalCapital":false,"pk":null,"quiz":"asia","code":null,"archived":false,"percentageOfSessions":null}, {"name":"Алексеевка","state":"Novosibirsk","territory":"","country":"Russia","latitude":54.509335,"longitude":81.145386,"population":465,"stateCapital":false,"nationalCapital":false,"pk":null,"quiz":"asia","code":null,"archived":false,"percentageOfSessions":null}, {"name":"Алексеевский","state":"Novosibirsk","territory":"","country":"Russia","latitude":54.305016,"longitude":82.73555,"population":174,"stateCapital":false,"nationalCapital":false,"pk":null,"quiz":"asia","code":null,"archived":false,"percentageOfSessions":null}, {"name":"Алексотово","state":"Novosibirsk","territory":"","country":"Russia","latitude":54.551765,"longitude":78.810822,"population":53,"stateCapital":false,"nationalCapital":false,"pk":null,"quiz":"asia","code":null,"archived":false,"percentageOfSessions":null}, {"name":"Алешинский","state":"Novosibirsk","territory":"","country":"Russia","latitude":56.339302,"longitude":78.943741,"population":60,"stateCapital":false,"nationalCapital":false,"pk":null,"quiz":"asia","code":null,"archived":false,"percentageOfSessions":null}, {"name":"Алферовка","state":"Novosibirsk","territory":"","country":"Russia","latitude":54.115234,"longitude":76.516861,"population":109,"stateCapital":false,"nationalCapital":false,"pk":null,"quiz":"asia","code":null,"archived":false,"percentageOfSessions":null}, {"name":"Альменево","state":"Novosibirsk","territory":"","country":"Russia","latitude":56.458202,"longitude":76.230881,"population":115,"stateCapital":false,"nationalCapital":false,"pk":null,"quiz":"asia","code":null,"archived":false,"percentageOfSessions":null}, {"name":"Амба","state":"Novosibirsk","territory":"","country":"Russia","latitude":55.437855,"longitude":82.772499,"population":385,"stateCapital":false,"nationalCapital":false,"pk":null,"quiz":"asia","code":null,"archived":false,"percentageOfSessions":null}, {"name":"Анган","state":"Novosibirsk","territory":"","country":"Russia","latitude":55.64389,"longitude":78.45118,"population":67,"stateCapital":false,"nationalCapital":false,"pk":null,"quiz":"asia","code":null,"archived":false,"percentageOfSessions":null}, {"name":"Андреевка","state":"Novosibirsk","territory":"","country":"Russia","latitude":53.843163,"longitude":77.445992,"population":613,"stateCapital":false,"nationalCapital":false,"pk":null,"quiz":"asia","code":null,"archived":false,"percentageOfSessions":null}, {"name":"Андреевка","state":"Novosibirsk","territory":"","country":"Russia","latitude":55.709122,"longitude":79.148392,"population":160,"stateCapital":false,"nationalCapital":false,"pk":null,"quiz":"asia","code":null,"archived":false,"percentageOfSessions":null}, {"name":"Аникино","state":"Novosibirsk","territory":"","country":"Russia","latitude":56.805183,"longitude":77.083511,"population":35,"stateCapital":false,"nationalCapital":false,"pk":null,"quiz":"asia","code":null,"archived":false,"percentageOfSessions":null}, {"name":"Анисимовка","state":"Novosibirsk","territory":"","country":"Russia","latitude":53.41354,"longitude":77.859779,"population":164,"stateCapital":false,"nationalCapital":false,"pk":null,"quiz":"asia","code":null,"archived":false,"percentageOfSessions":null}, {"name":"Антипинский","state":"Novosibirsk","territory":"","country":"Russia","latitude":54.970196,"longitude":81.623398,"population":19,"stateCapital":false,"nationalCapital":false,"pk":null,"quiz":"asia","code":null,"archived":false,"percentageOfSessions":null}, {"name":"Антоновка","state":"Novosibirsk","territory":"","country":"Russia","latitude":54.827515,"longitude":82.298119,"population":92,"stateCapital":false,"nationalCapital":false,"pk":null,"quiz":"asia","code":null,"archived":false,"percentageOfSessions":null}, {"name":"Антоново","state":"Novosibirsk","territory":"","country":"Russia","latitude":54.094025,"longitude":81.412224,"population":182,"stateCapital":false,"nationalCapital":false,"pk":null,"quiz":"asia","code":null,"archived":false,"percentageOfSessions":null}, {"name":"Антошкино","state":"Novosibirsk","territory":"","country":"Russia","latitude":55.54488,"longitude":77.558159,"population":13,"stateCapital":false,"nationalCapital":false,"pk":null,"quiz":"asia","code":null,"archived":false,"percentageOfSessions":null}, {"name":"Аплаксино","state":"Novosibirsk","territory":"","country":"Russia","latitude":54.941048,"longitude":83.741875,"population":134,"stateCapital":false,"nationalCapital":false,"pk":null,"quiz":"asia","code":null,"archived":false,"percentageOfSessions":null}, {"name":"Аполиха","state":"Novosibirsk","territory":"","country":"Russia","latitude":54.069885,"longitude":77.181961,"population":125,"stateCapital":false,"nationalCapital":false,"pk":null,"quiz":"asia","code":null,"archived":false,"percentageOfSessions":null}, {"name":"Арисово","state":"Novosibirsk","territory":"","country":"Russia","latitude":55.273441,"longitude":78.627556,"population":216,"stateCapital":false,"nationalCapital":false,"pk":null,"quiz":"asia","code":null,"archived":false,"percentageOfSessions":null}, {"name":"Артамоново","state":"Novosibirsk","territory":"","country":"Russia","latitude":54.186726,"longitude":82.131783,"population":73,"stateCapital":false,"nationalCapital":false,"pk":null,"quiz":"asia","code":null,"archived":false,"percentageOfSessions":null}, {"name":"Асенкритово","state":"Novosibirsk","territory":"","country":"Russia","latitude":55.239681,"longitude":79.58094,"population":234,"stateCapital":false,"nationalCapital":false,"pk":null,"quiz":"asia","code":null,"archived":false,"percentageOfSessions":null}, {"name":"Астродым","state":"Novosibirsk","territory":"","country":"Russia","latitude":53.644268,"longitude":77.76664,"population":350,"stateCapital":false,"nationalCapital":false,"pk":null,"quiz":"asia","code":null,"archived":false,"percentageOfSessions":null}, {"name":"Аткуль","state":"Novosibirsk","territory":"","country":"Russia","latitude":54.971306,"longitude":79.655182,"population":172,"stateCapital":false,"nationalCapital":false,"pk":null,"quiz":"asia","code":null,"archived":false,"percentageOfSessions":null}, {"name":"Аул-Бергуль","state":"Novosibirsk","territory":"","country":"Russia","latitude":55.6065417,"longitude":78.3561943,"population":540,"stateCapital":false,"nationalCapital":false,"pk":null,"quiz":"asia","code":null,"archived":false,"percentageOfSessions":null}, {"name":"Ахтырка","state":"Novosibirsk","territory":"","country":"Russia","latitude":55.710896,"longitude":76.402939,"population":64,"stateCapital":false,"nationalCapital":false,"pk":null,"quiz":"asia","code":null,"archived":false,"percentageOfSessions":null}, {"name":"Ача","state":"Novosibirsk","territory":"","country":"Russia","latitude":55.642166,"longitude":84.617424,"population":492,"stateCapital":false,"nationalCapital":false,"pk":null,"quiz":"asia","code":null,"archived":false,"percentageOfSessions":null}, {"name":"Ачеканка","state":"Novosibirsk","territory":"","country":"Russia","latitude":55.519703,"longitude":79.795174,"population":40,"stateCapital":false,"nationalCapital":false,"pk":null,"quiz":"asia","code":null,"archived":false,"percentageOfSessions":null}, {"name":"Аялу","state":"Novosibirsk","territory":"","country":"Russia","latitude":55.170204,"longitude":77.301895,"population":76,"stateCapital":false,"nationalCapital":false,"pk":null,"quiz":"asia","code":null,"archived":false,"percentageOfSessions":null}, {"name":"Баган","state":"Novosibirsk","territory":"","country":"Russia","latitude":54.0968728,"longitude":77.6718776,"population":5510,"stateCapital":false,"nationalCapital":false,"pk":null,"quiz":"asia","code":null,"archived":false,"percentageOfSessions":null}, {"name":"Баган","state":"Novosibirsk","territory":"","country":"Russia","latitude":54.511185,"longitude":79.7743,"population":260,"stateCapital":false,"nationalCapital":false,"pk":null,"quiz":"asia","code":null,"archived":false,"percentageOfSessions":null}, {"name":"Бадажки","state":"Novosibirsk","territory":"","country":"Russia","latitude":55.1877526,"longitude":78.1247259,"population":322,"stateCapital":false,"nationalCapital":false,"pk":null,"quiz":"asia","code":null,"archived":false,"percentageOfSessions":null}, {"name":"Бажинск","state":"Novosibirsk","territory":"","country":"Russia","latitude":54.372646,"longitude":84.276398,"population":538,"stateCapital":false,"nationalCapital":false,"pk":null,"quiz":"asia","code":null,"archived":false,"percentageOfSessions":null}, {"name":"Базово","state":"Novosibirsk","territory":"","country":"Russia","latitude":54.536777,"longitude":81.230156,"population":726,"stateCapital":false,"nationalCapital":false,"pk":null,"quiz":"asia","code":null,"archived":false,"percentageOfSessions":null}, {"name":"Байкал","state":"Novosibirsk","territory":"","country":"Russia","latitude":55.637905,"longitude":83.887138,"population":546,"stateCapital":false,"nationalCapital":false,"pk":null,"quiz":"asia","code":null,"archived":false,"percentageOfSessions":null}, {"name":"Бакейка","state":"Novosibirsk","territory":"","country":"Russia","latitude":56.469975,"longitude":76.199715,"population":69,"stateCapital":false,"nationalCapital":false,"pk":null,"quiz":"asia","code":null,"archived":false,"percentageOfSessions":null}, {"name":"Баклуши","state":"Novosibirsk","territory":"","country":"Russia","latitude":54.3788251,"longitude":79.119644,"population":794,"stateCapital":false,"nationalCapital":false,"pk":null,"quiz":"asia","code":null,"archived":false,"percentageOfSessions":null}, {"name":"Бакмасиха","state":"Novosibirsk","territory":"","country":"Russia","latitude":55.152081,"longitude":78.835938,"population":425,"stateCapital":false,"nationalCapital":false,"pk":null,"quiz":"asia","code":null,"archived":false,"percentageOfSessions":null}, {"name":"Балман","state":"Novosibirsk","territory":"","country":"Russia","latitude":55.803299,"longitude":79.424332,"population":300,"stateCapital":false,"nationalCapital":false,"pk":null,"quiz":"asia","code":null,"archived":false,"percentageOfSessions":null}, {"name":"Балта","state":"Novosibirsk","territory":"","country":"Russia","latitude":55.5158779,"longitude":83.8707201,"population":626,"stateCapital":false,"nationalCapital":false,"pk":null,"quiz":"asia","code":null,"archived":false,"percentageOfSessions":null}, {"name":"Барабинск","state":"Novosibirsk","territory":"","country":"Russia","latitude":55.3567611,"longitude":78.350348,"population":30394,"stateCapital":false,"nationalCapital":false,"pk":null,"quiz":"asia","code":null,"archived":false,"percentageOfSessions":null}, {"name":"Барабка","state":"Novosibirsk","territory":"","country":"Russia","latitude":54.659492,"longitude":83.430481,"population":294,"stateCapital":false,"nationalCapital":false,"pk":null,"quiz":"asia","code":null,"archived":false,"percentageOfSessions":null}, {"name":"Барабо-Юдино","state":"Novosibirsk","territory":"","country":"Russia","latitude":54.54348,"longitude":76.728958,"population":335,"stateCapital":false,"nationalCapital":false,"pk":null,"quiz":"asia","code":null,"archived":false,"percentageOfSessions":null}, {"name":"Барановский","state":"Novosibirsk","territory":"","country":"Russia","latitude":54.928192,"longitude":80.175125,"population":0,"stateCapital":false,"nationalCapital":false,"pk":null,"quiz":"asia","code":null,"archived":false,"percentageOfSessions":null}, {"name":"Баратаевка","state":"Novosibirsk","territory":"","country":"Russia","latitude":55.618763,"longitude":84.449059,"population":520,"stateCapital":false,"nationalCapital":false,"pk":null,"quiz":"asia","code":null,"archived":false,"percentageOfSessions":null}, {"name":"Бариново","state":"Novosibirsk","territory":"","country":"Russia","latitude":54.174141,"longitude":83.301201,"population":184,"stateCapital":false,"nationalCapital":false,"pk":null,"quiz":"asia","code":null,"archived":false,"percentageOfSessions":null}, {"name":"Барлак","state":"Novosibirsk","territory":"","country":"Russia","latitude":55.212267,"longitude":83.2197282,"population":387,"stateCapital":false,"nationalCapital":false,"pk":null,"quiz":"asia","code":null,"archived":false,"percentageOfSessions":null}, {"name":"Барлакский","state":"Novosibirsk","territory":"","country":"Russia","latitude":55.168276,"longitude":83.2407183,"population":419,"stateCapital":false,"nationalCapital":false,"pk":null,"quiz":"asia","code":null,"archived":false,"percentageOfSessions":null}, {"name":"Барлакуль","state":"Novosibirsk","territory":"","country":"Russia","latitude":54.306973,"longitude":78.668205,"population":170,"stateCapital":false,"nationalCapital":false,"pk":null,"quiz":"asia","code":null,"archived":false,"percentageOfSessions":null}, {"name":"Бармашево","state":"Novosibirsk","territory":"","country":"Russia","latitude":55.008022,"longitude":82.069046,"population":58,"stateCapital":false,"nationalCapital":false,"pk":null,"quiz":"asia","code":null,"archived":false,"percentageOfSessions":null}, {"name":"Барсуково","state":"Novosibirsk","territory":"","country":"Russia","latitude":54.389957,"longitude":83.936424,"population":105,"stateCapital":false,"nationalCapital":false,"pk":null,"quiz":"asia","code":null,"archived":false,"percentageOfSessions":null}, {"name":"Барышево","state":"Novosibirsk","territory":"","country":"Russia","latitude":54.9622004,"longitude":83.1882987,"population":5195,"stateCapital":false,"nationalCapital":false,"pk":null,"quiz":"asia","code":null,"archived":false,"percentageOfSessions":null}, {"name":"Басково","state":"Novosibirsk","territory":"","country":"Russia","latitude":54.463062,"longitude":77.654884,"population":125,"stateCapital":false,"nationalCapital":false,"pk":null,"quiz":"asia","code":null,"archived":false,"percentageOfSessions":null}, {"name":"Бедрино","state":"Novosibirsk","territory":"","country":"Russia","latitude":53.987228,"longitude":82.267639,"population":299,"stateCapital":false,"nationalCapital":false,"pk":null,"quiz":"asia","code":null,"archived":false,"percentageOfSessions":null}, {"name":"Безбожник","state":"Novosibirsk","territory":"","country":"Russia","latitude":55.179325,"longitude":75.527618,"population":53,"stateCapital":false,"nationalCapital":false,"pk":null,"quiz":"asia","code":null,"archived":false,"percentageOfSessions":null}, {"name":"Безлюдный","state":"Novosibirsk","territory":"","country":"Russia","latitude":55.2293953,"longitude":80.0662008,"population":175,"stateCapital":false,"nationalCapital":false,"pk":null,"quiz":"asia","code":null,"archived":false,"percentageOfSessions":null}, {"name":"Безменово","state":"Novosibirsk","territory":"","country":"Russia","latitude":54.076656,"longitude":83.388893,"population":2114,"stateCapital":false,"nationalCapital":false,"pk":null,"quiz":"asia","code":null,"archived":false,"percentageOfSessions":null}, {"name":"Безменово","state":"Novosibirsk","territory":"","country":"Russia","latitude":54.076656,"longitude":83.388893,"population":155,"stateCapital":false,"nationalCapital":false,"pk":null,"quiz":"asia","code":null,"archived":false,"percentageOfSessions":null}, {"name":"Безногое","state":"Novosibirsk","territory":"","country":"Russia","latitude":54.404057,"longitude":80.039284,"population":45,"stateCapital":false,"nationalCapital":false,"pk":null,"quiz":"asia","code":null,"archived":false,"percentageOfSessions":null}, {"name":"Безымянный","state":"Novosibirsk","territory":"","country":"Russia","latitude":55.366535,"longitude":78.136124,"population":0,"stateCapital":false,"nationalCapital":false,"pk":null,"quiz":"asia","code":null,"archived":false,"percentageOfSessions":null}, {"name":"Бекташ","state":"Novosibirsk","territory":"","country":"Russia","latitude":55.7953241,"longitude":77.8050191,"population":23,"stateCapital":false,"nationalCapital":false,"pk":null,"quiz":"asia","code":null,"archived":false,"percentageOfSessions":null}, {"name":"Белехта","state":"Novosibirsk","territory":"","country":"Russia","latitude":55.261093,"longitude":76.817131,"population":235,"stateCapital":false,"nationalCapital":false,"pk":null,"quiz":"asia","code":null,"archived":false,"percentageOfSessions":null}, {"name":"Белобородово","state":"Novosibirsk","territory":"","country":"Russia","latitude":55.065739,"longitude":82.054642,"population":314,"stateCapital":false,"nationalCapital":false,"pk":null,"quiz":"asia","code":null,"archived":false,"percentageOfSessions":null}, {"name":"Белово","state":"Novosibirsk","territory":"","country":"Russia","latitude":55.04546,"longitude":77.517822,"population":370,"stateCapital":false,"nationalCapital":false,"pk":null,"quiz":"asia","code":null,"archived":false,"percentageOfSessions":null}, {"name":"Белово","state":"Novosibirsk","territory":"","country":"Russia","latitude":54.538097,"longitude":83.632385,"population":746,"stateCapital":false,"nationalCapital":false,"pk":null,"quiz":"asia","code":null,"archived":false,"percentageOfSessions":null}, {"name":"Белое","state":"Novosibirsk","territory":"","country":"Russia","latitude":53.935505,"longitude":78.471031,"population":850,"stateCapital":false,"nationalCapital":false,"pk":null,"quiz":"asia","code":null,"archived":false,"percentageOfSessions":null}, {"name":"Белолебяжий","state":"Novosibirsk","territory":"","country":"Russia","latitude":54.981464,"longitude":79.289856,"population":51,"stateCapital":false,"nationalCapital":false,"pk":null,"quiz":"asia","code":null,"archived":false,"percentageOfSessions":null}, {"name":"Белоозерный","state":"Novosibirsk","territory":"","country":"Russia","latitude":55.155941,"longitude":79.183792,"population":109,"stateCapital":false,"nationalCapital":false,"pk":null,"quiz":"asia","code":null,"archived":false,"percentageOfSessions":null}, {"name":"Белоярка","state":"Novosibirsk","territory":"","country":"Russia","latitude":55.415203,"longitude":83.199577,"population":975,"stateCapital":false,"nationalCapital":false,"pk":null,"quiz":"asia","code":null,"archived":false,"percentageOfSessions":null}, {"name":"Бергуль","state":"Novosibirsk","territory":"","country":"Russia","latitude":55.607029,"longitude":78.258331,"population":112,"stateCapital":false,"nationalCapital":false,"pk":null,"quiz":"asia","code":null,"archived":false,"percentageOfSessions":null}, {"name":"Бергуль","state":"Novosibirsk","territory":"","country":"Russia","latitude":56.607479,"longitude":78.495499,"population":407,"stateCapital":false,"nationalCapital":false,"pk":null,"quiz":"asia","code":null,"archived":false,"percentageOfSessions":null}, {"name":"Бердск","state":"Novosibirsk","territory":"","country":"Russia","latitude":54.75795,"longitude":83.1068095,"population":97296,"stateCapital":false,"nationalCapital":false,"pk":null,"quiz":"asia","code":null,"archived":false,"percentageOfSessions":null}, {"name":"Бердь","state":"Novosibirsk","territory":"","country":"Russia","latitude":54.742,"longitude":83.182,"population":535,"stateCapital":false,"nationalCapital":false,"pk":null,"quiz":"asia","code":null,"archived":false,"percentageOfSessions":null}, {"name":"Береговое","state":"Novosibirsk","territory":"","country":"Russia","latitude":54.655838,"longitude":82.509918,"population":438,"stateCapital":false,"nationalCapital":false,"pk":null,"quiz":"asia","code":null,"archived":false,"percentageOfSessions":null}, {"name":"Бережки","state":"Novosibirsk","territory":"","country":"Russia","latitude":54.756916,"longitude":78.979401,"population":107,"stateCapital":false,"nationalCapital":false,"pk":null,"quiz":"asia","code":null,"archived":false,"percentageOfSessions":null}, {"name":"Березиково","state":"Novosibirsk","territory":"","country":"Russia","latitude":55.041721,"longitude":84.814629,"population":983,"stateCapital":false,"nationalCapital":false,"pk":null,"quiz":"asia","code":null,"archived":false,"percentageOfSessions":null}, {"name":"Березовка","state":"Novosibirsk","territory":"","country":"Russia","latitude":55.581833,"longitude":84.633545,"population":10,"stateCapital":false,"nationalCapital":false,"pk":null,"quiz":"asia","code":null,"archived":false,"percentageOfSessions":null}, {"name":"Березовка","state":"Novosibirsk","territory":"","country":"Russia","latitude":54.898087,"longitude":79.076385,"population":351,"stateCapital":false,"nationalCapital":false,"pk":null,"quiz":"asia","code":null,"archived":false,"percentageOfSessions":null}, {"name":"Березовка","state":"Novosibirsk","territory":"","country":"Russia","latitude":54.482376,"longitude":82.990913,"population":208,"stateCapital":false,"nationalCapital":false,"pk":null,"quiz":"asia","code":null,"archived":false,"percentageOfSessions":null}, {"name":"Березовка","state":"Novosibirsk","territory":"","country":"Russia","latitude":54.029724,"longitude":76.572517,"population":195,"stateCapital":false,"nationalCapital":false,"pk":null,"quiz":"asia","code":null,"archived":false,"percentageOfSessions":null}, {"name":"Березовка","state":"Novosibirsk","territory":"","country":"Russia","latitude":56.794441,"longitude":76.930824,"population":169,"stateCapital":false,"nationalCapital":false,"pk":null,"quiz":"asia","code":null,"archived":false,"percentageOfSessions":null}, {"name":"Березовка","state":"Novosibirsk","territory":"","country":"Russia","latitude":54.9941162,"longitude":83.3433466,"population":1465,"stateCapital":false,"nationalCapital":false,"pk":null,"quiz":"asia","code":null,"archived":false,"percentageOfSessions":null}, {"name":"Березовка","state":"Novosibirsk","territory":"","country":"Russia","latitude":54.609203,"longitude":82.057228,"population":689,"stateCapital":false,"nationalCapital":false,"pk":null,"quiz":"asia","code":null,"archived":false,"percentageOfSessions":null}, {"name":"Березово","state":"Novosibirsk","territory":"","country":"Russia","latitude":54.513268,"longitude":83.98011,"population":502,"stateCapital":false,"nationalCapital":false,"pk":null,"quiz":"asia","code":null,"archived":false,"percentageOfSessions":null}, {"name":"Березовский","state":"Novosibirsk","territory":"","country":"Russia","latitude":54.7239738,"longitude":81.7414439,"population":0,"stateCapital":false,"nationalCapital":false,"pk":null,"quiz":"asia","code":null,"archived":false,"percentageOfSessions":null}, {"name":"Берестянка","state":"Novosibirsk","territory":"","country":"Russia","latitude":56.656303,"longitude":77.109833,"population":10,"stateCapital":false,"nationalCapital":false,"pk":null,"quiz":"asia","code":null,"archived":false,"percentageOfSessions":null}, {"name":"Беркуты","state":"Novosibirsk","territory":"","country":"Russia","latitude":55.182129,"longitude":79.99929,"population":115,"stateCapital":false,"nationalCapital":false,"pk":null,"quiz":"asia","code":null,"archived":false,"percentageOfSessions":null}, {"name":"Беспаловка","state":"Novosibirsk","territory":"","country":"Russia","latitude":56.779259,"longitude":76.933937,"population":48,"stateCapital":false,"nationalCapital":false,"pk":null,"quiz":"asia","code":null,"archived":false,"percentageOfSessions":null}, {"name":"Беспятый","state":"Novosibirsk","territory":"","country":"Russia","latitude":54.185463,"longitude":79.696709,"population":100,"stateCapital":false,"nationalCapital":false,"pk":null,"quiz":"asia","code":null,"archived":false,"percentageOfSessions":null}, {"name":"Бехтень","state":"Novosibirsk","territory":"","country":"Russia","latitude":54.849083,"longitude":77.814507,"population":5,"stateCapital":false,"nationalCapital":false,"pk":null,"quiz":"asia","code":null,"archived":false,"percentageOfSessions":null}, {"name":"Биаза","state":"Novosibirsk","territory":"","country":"Russia","latitude":56.594597,"longitude":78.302055,"population":519,"stateCapital":false,"nationalCapital":false,"pk":null,"quiz":"asia","code":null,"archived":false,"percentageOfSessions":null}, {"name":"Бибиха","state":"Novosibirsk","territory":"","country":"Russia","latitude":55.325504,"longitude":82.865425,"population":65,"stateCapital":false,"nationalCapital":false,"pk":null,"quiz":"asia","code":null,"archived":false,"percentageOfSessions":null}, {"name":"Битки","state":"Novosibirsk","territory":"","country":"Russia","latitude":54.204201,"longitude":82.27327,"population":1184,"stateCapital":false,"nationalCapital":false,"pk":null,"quiz":"asia","code":null,"archived":false,"percentageOfSessions":null}, {"name":"Бишбуга","state":"Novosibirsk","territory":"","country":"Russia","latitude":55.231308,"longitude":77.103439,"population":0,"stateCapital":false,"nationalCapital":false,"pk":null,"quiz":"asia","code":null,"archived":false,"percentageOfSessions":null}, {"name":"Благовещенка","state":"Novosibirsk","territory":"","country":"Russia","latitude":53.925667,"longitude":76.944069,"population":467,"stateCapital":false,"nationalCapital":false,"pk":null,"quiz":"asia","code":null,"archived":false,"percentageOfSessions":null}, {"name":"Благодатное","state":"Novosibirsk","territory":"","country":"Russia","latitude":53.844585,"longitude":78.050858,"population":777,"stateCapital":false,"nationalCapital":false,"pk":null,"quiz":"asia","code":null,"archived":false,"percentageOfSessions":null}, {"name":"Блиновский","state":"Novosibirsk","territory":"","country":"Russia","latitude":55.4679949,"longitude":79.090459,"population":0,"stateCapital":false,"nationalCapital":false,"pk":null,"quiz":"asia","code":null,"archived":false,"percentageOfSessions":null}, {"name":"Блокпост Капралово","state":"Novosibirsk","territory":"","country":"Russia","latitude":55.1627817,"longitude":80.4540446,"population":17,"stateCapital":false,"nationalCapital":false,"pk":null,"quiz":"asia","code":null,"archived":false,"percentageOfSessions":null}, {"name":"Блюдцы","state":"Novosibirsk","territory":"","country":"Russia","latitude":54.948029,"longitude":76.994354,"population":148,"stateCapital":false,"nationalCapital":false,"pk":null,"quiz":"asia","code":null,"archived":false,"percentageOfSessions":null}, {"name":"Блюдчанское","state":"Novosibirsk","territory":"","country":"Russia","latitude":55.112907,"longitude":76.891884,"population":714,"stateCapital":false,"nationalCapital":false,"pk":null,"quiz":"asia","code":null,"archived":false,"percentageOfSessions":null}, {"name":"Бобровицкий","state":"Novosibirsk","territory":"","country":"Russia","latitude":54.2664096,"longitude":82.9304122,"population":8,"stateCapital":false,"nationalCapital":false,"pk":null,"quiz":"asia","code":null,"archived":false,"percentageOfSessions":null}, {"name":"Бобровичинск","state":"Novosibirsk","territory":"","country":"Russia","latitude":55.974319,"longitude":83.137207,"population":41,"stateCapital":false,"nationalCapital":false,"pk":null,"quiz":"asia","code":null,"archived":false,"percentageOfSessions":null}, {"name":"Бобровка","state":"Novosibirsk","territory":"","country":"Russia","latitude":53.92474,"longitude":82.135208,"population":1700,"stateCapital":false,"nationalCapital":false,"pk":null,"quiz":"asia","code":null,"archived":false,"percentageOfSessions":null}, {"name":"Богатиха","state":"Novosibirsk","territory":"","country":"Russia","latitude":54.711185,"longitude":77.822441,"population":228,"stateCapital":false,"nationalCapital":false,"pk":null,"quiz":"asia","code":null,"archived":false,"percentageOfSessions":null}, {"name":"Богдановка","state":"Novosibirsk","territory":"","country":"Russia","latitude":55.317509,"longitude":76.216637,"population":112,"stateCapital":false,"nationalCapital":false,"pk":null,"quiz":"asia","code":null,"archived":false,"percentageOfSessions":null}, {"name":"Богословка","state":"Novosibirsk","territory":"","country":"Russia","latitude":53.686256,"longitude":77.30188,"population":227,"stateCapital":false,"nationalCapital":false,"pk":null,"quiz":"asia","code":null,"archived":false,"percentageOfSessions":null}, {"name":"Богословка","state":"Novosibirsk","territory":"","country":"Russia","latitude":55.516739,"longitude":75.840401,"population":315,"stateCapital":false,"nationalCapital":false,"pk":null,"quiz":"asia","code":null,"archived":false,"percentageOfSessions":null}, {"name":"Боготольский","state":"Novosibirsk","territory":"","country":"Russia","latitude":54.731052,"longitude":81.4012045,"population":9,"stateCapital":false,"nationalCapital":false,"pk":null,"quiz":"asia","code":null,"archived":false,"percentageOfSessions":null}, {"name":"Болотное","state":"Novosibirsk","territory":"","country":"Russia","latitude":55.6715707,"longitude":84.388557,"population":16570,"stateCapital":false,"nationalCapital":false,"pk":null,"quiz":"asia","code":null,"archived":false,"percentageOfSessions":null}, {"name":"Болтово","state":"Novosibirsk","territory":"","country":"Russia","latitude":54.026859,"longitude":82.265205,"population":995,"stateCapital":false,"nationalCapital":false,"pk":null,"quiz":"asia","code":null,"archived":false,"percentageOfSessions":null}, {"name":"Большая Поляна","state":"Novosibirsk","territory":"","country":"Russia","latitude":55.184643,"longitude":81.535187,"population":21,"stateCapital":false,"nationalCapital":false,"pk":null,"quiz":"asia","code":null,"archived":false,"percentageOfSessions":null}, {"name":"Большая Тахта","state":"Novosibirsk","territory":"","country":"Russia","latitude":54.7002236,"longitude":76.0703801,"population":94,"stateCapital":false,"nationalCapital":false,"pk":null,"quiz":"asia","code":null,"archived":false,"percentageOfSessions":null}, {"name":"Большая Черемшанка","state":"Novosibirsk","territory":"","country":"Russia","latitude":55.303704,"longitude":82.4993704,"population":30,"stateCapital":false,"nationalCapital":false,"pk":null,"quiz":"asia","code":null,"archived":false,"percentageOfSessions":null}, {"name":"Большая Черная","state":"Novosibirsk","territory":"","country":"Russia","latitude":55.964317,"longitude":84.421837,"population":350,"stateCapital":false,"nationalCapital":false,"pk":null,"quiz":"asia","code":null,"archived":false,"percentageOfSessions":null}, {"name":"Большеникольское","state":"Novosibirsk","territory":"","country":"Russia","latitude":54.602081,"longitude":81.468613,"population":567,"stateCapital":false,"nationalCapital":false,"pk":null,"quiz":"asia","code":null,"archived":false,"percentageOfSessions":null}, {"name":"Большеречка","state":"Novosibirsk","territory":"","country":"Russia","latitude":55.56694,"longitude":84.530533,"population":283,"stateCapital":false,"nationalCapital":false,"pk":null,"quiz":"asia","code":null,"archived":false,"percentageOfSessions":null}, {"name":"Большеречье","state":"Novosibirsk","territory":"","country":"Russia","latitude":56.566631,"longitude":76.232895,"population":441,"stateCapital":false,"nationalCapital":false,"pk":null,"quiz":"asia","code":null,"archived":false,"percentageOfSessions":null}, {"name":"Большие Кулики","state":"Novosibirsk","territory":"","country":"Russia","latitude":56.28093,"longitude":77.71698,"population":151,"stateCapital":false,"nationalCapital":false,"pk":null,"quiz":"asia","code":null,"archived":false,"percentageOfSessions":null}, {"name":"Большие Луки","state":"Novosibirsk","territory":"","country":"Russia","latitude":54.0394966,"longitude":78.2045029,"population":206,"stateCapital":false,"nationalCapital":false,"pk":null,"quiz":"asia","code":null,"archived":false,"percentageOfSessions":null}, {"name":"Большой Изырак","state":"Novosibirsk","territory":"","country":"Russia","latitude":54.514095,"longitude":84.270218,"population":594,"stateCapital":false,"nationalCapital":false,"pk":null,"quiz":"asia","code":null,"archived":false,"percentageOfSessions":null}, {"name":"Большой Оеш","state":"Novosibirsk","territory":"","country":"Russia","latitude":55.2894615,"longitude":82.715936,"population":669,"stateCapital":false,"nationalCapital":false,"pk":null,"quiz":"asia","code":null,"archived":false,"percentageOfSessions":null}, {"name":"Бор","state":"Novosibirsk","territory":"","country":"Russia","latitude":55.669182,"longitude":84.309021,"population":663,"stateCapital":false,"nationalCapital":false,"pk":null,"quiz":"asia","code":null,"archived":false,"percentageOfSessions":null}, {"name":"Борисовский","state":"Novosibirsk","territory":"","country":"Russia","latitude":54.532993,"longitude":81.615097,"population":50,"stateCapital":false,"nationalCapital":false,"pk":null,"quiz":"asia","code":null,"archived":false,"percentageOfSessions":null}, {"name":"Борисоглебка","state":"Novosibirsk","territory":"","country":"Russia","latitude":55.270214,"longitude":79.313156,"population":372,"stateCapital":false,"nationalCapital":false,"pk":null,"quiz":"asia","code":null,"archived":false,"percentageOfSessions":null}, {"name":"Борково","state":"Novosibirsk","territory":"","country":"Russia","latitude":54.224659,"longitude":84.058327,"population":658,"stateCapital":false,"nationalCapital":false,"pk":null,"quiz":"asia","code":null,"archived":false,"percentageOfSessions":null}, {"name":"Боровая","state":"Novosibirsk","territory":"","country":"Russia","latitude":55.240841,"longitude":84.721504,"population":94,"stateCapital":false,"nationalCapital":false,"pk":null,"quiz":"asia","code":null,"archived":false,"percentageOfSessions":null}, {"name":"Боровлянка","state":"Novosibirsk","territory":"","country":"Russia","latitude":55.018082,"longitude":84.112122,"population":254,"stateCapital":false,"nationalCapital":false,"pk":null,"quiz":"asia","code":null,"archived":false,"percentageOfSessions":null}, {"name":"Боровое","state":"Novosibirsk","territory":"","country":"Russia","latitude":54.692944,"longitude":82.634216,"population":1694,"stateCapital":false,"nationalCapital":false,"pk":null,"quiz":"asia","code":null,"archived":false,"percentageOfSessions":null}, {"name":"Боровушка","state":"Novosibirsk","territory":"","country":"Russia","latitude":55.121128,"longitude":83.676964,"population":21,"stateCapital":false,"nationalCapital":false,"pk":null,"quiz":"asia","code":null,"archived":false,"percentageOfSessions":null}, {"name":"Бородавкино","state":"Novosibirsk","territory":"","country":"Russia","latitude":54.488159,"longitude":82.908249,"population":242,"stateCapital":false,"nationalCapital":false,"pk":null,"quiz":"asia","code":null,"archived":false,"percentageOfSessions":null}, {"name":"Борцово","state":"Novosibirsk","territory":"","country":"Russia","latitude":55.150513,"longitude":84.087227,"population":776,"stateCapital":false,"nationalCapital":false,"pk":null,"quiz":"asia","code":null,"archived":false,"percentageOfSessions":null}, {"name":"Бочаниха","state":"Novosibirsk","territory":"","country":"Russia","latitude":54.1844039,"longitude":77.6722508,"population":164,"stateCapital":false,"nationalCapital":false,"pk":null,"quiz":"asia","code":null,"archived":false,"percentageOfSessions":null}, {"name":"Бочино","state":"Novosibirsk","territory":"","country":"Russia","latitude":55.286251,"longitude":81.004303,"population":18,"stateCapital":false,"nationalCapital":false,"pk":null,"quiz":"asia","code":null,"archived":false,"percentageOfSessions":null}, {"name":"Бочкаревка","state":"Novosibirsk","territory":"","country":"Russia","latitude":56.933842,"longitude":76.865082,"population":112,"stateCapital":false,"nationalCapital":false,"pk":null,"quiz":"asia","code":null,"archived":false,"percentageOfSessions":null}, {"name":"Бочкарево","state":"Novosibirsk","territory":"","country":"Russia","latitude":54.2492351,"longitude":83.4617279,"population":641,"stateCapital":false,"nationalCapital":false,"pk":null,"quiz":"asia","code":null,"archived":false,"percentageOfSessions":null}, {"name":"Боярка","state":"Novosibirsk","territory":"","country":"Russia","latitude":55.617168,"longitude":82.74057,"population":596,"stateCapital":false,"nationalCapital":false,"pk":null,"quiz":"asia","code":null,"archived":false,"percentageOfSessions":null}, {"name":"Бровничи","state":"Novosibirsk","territory":"","country":"Russia","latitude":55.92498,"longitude":77.00341,"population":85,"stateCapital":false,"nationalCapital":false,"pk":null,"quiz":"asia","code":null,"archived":false,"percentageOfSessions":null}, {"name":"Бронзовка","state":"Novosibirsk","territory":"","country":"Russia","latitude":53.950466,"longitude":78.107613,"population":118,"stateCapital":false,"nationalCapital":false,"pk":null,"quiz":"asia","code":null,"archived":false,"percentageOfSessions":null}, {"name":"Брусянка","state":"Novosibirsk","territory":"","country":"Russia","latitude":55.207188,"longitude":84.19574,"population":147,"stateCapital":false,"nationalCapital":false,"pk":null,"quiz":"asia","code":null,"archived":false,"percentageOfSessions":null}, {"name":"Брянский","state":"Novosibirsk","territory":"","country":"Russia","latitude":54.208271,"longitude":79.745583,"population":133,"stateCapital":false,"nationalCapital":false,"pk":null,"quiz":"asia","code":null,"archived":false,"percentageOfSessions":null}, {"name":"Буготак","state":"Novosibirsk","territory":"","country":"Russia","latitude":55.147881,"longitude":83.808083,"population":799,"stateCapital":false,"nationalCapital":false,"pk":null,"quiz":"asia","code":null,"archived":false,"percentageOfSessions":null}, {"name":"Буготак","state":"Novosibirsk","territory":"","country":"Russia","latitude":55.147881,"longitude":83.808083,"population":522,"stateCapital":false,"nationalCapital":false,"pk":null,"quiz":"asia","code":null,"archived":false,"percentageOfSessions":null}, {"name":"Бугриновка","state":"Novosibirsk","territory":"","country":"Russia","latitude":54.395412,"longitude":76.664383,"population":49,"stateCapital":false,"nationalCapital":false,"pk":null,"quiz":"asia","code":null,"archived":false,"percentageOfSessions":null}, {"name":"Бугринская Роща","state":"Novosibirsk","territory":"","country":"Russia","latitude":54.472813,"longitude":81.702301,"population":33,"stateCapital":false,"nationalCapital":false,"pk":null,"quiz":"asia","code":null,"archived":false,"percentageOfSessions":null}, {"name":"Букреево Плесо","state":"Novosibirsk","territory":"","country":"Russia","latitude":54.136028,"longitude":79.939095,"population":601,"stateCapital":false,"nationalCapital":false,"pk":null,"quiz":"asia","code":null,"archived":false,"percentageOfSessions":null}, {"name":"Булатово","state":"Novosibirsk","territory":"","country":"Russia","latitude":55.5205034,"longitude":77.8016855,"population":487,"stateCapital":false,"nationalCapital":false,"pk":null,"quiz":"asia","code":null,"archived":false,"percentageOfSessions":null}, {"name":"Буньково","state":"Novosibirsk","territory":"","country":"Russia","latitude":55.0629392,"longitude":82.4844871,"population":300,"stateCapital":false,"nationalCapital":false,"pk":null,"quiz":"asia","code":null,"archived":false,"percentageOfSessions":null}, {"name":"Бураново","state":"Novosibirsk","territory":"","country":"Russia","latitude":54.204353,"longitude":83.894394,"population":312,"stateCapital":false,"nationalCapital":false,"pk":null,"quiz":"asia","code":null,"archived":false,"percentageOfSessions":null}, {"name":"Бурлиха","state":"Novosibirsk","territory":"","country":"Russia","latitude":55.532059,"longitude":83.945679,"population":64,"stateCapital":false,"nationalCapital":false,"pk":null,"quiz":"asia","code":null,"archived":false,"percentageOfSessions":null}, {"name":"Бурмистрово","state":"Novosibirsk","territory":"","country":"Russia","latitude":54.6345591,"longitude":82.8328767,"population":1416,"stateCapital":false,"nationalCapital":false,"pk":null,"quiz":"asia","code":null,"archived":false,"percentageOfSessions":null}, {"name":"Бурсянино","state":"Novosibirsk","territory":"","country":"Russia","latitude":55.883488,"longitude":76.954742,"population":67,"stateCapital":false,"nationalCapital":false,"pk":null,"quiz":"asia","code":null,"archived":false,"percentageOfSessions":null}, {"name":"Бурундуково","state":"Novosibirsk","territory":"","country":"Russia","latitude":55.4958018,"longitude":78.579514,"population":79,"stateCapital":false,"nationalCapital":false,"pk":null,"quiz":"asia","code":null,"archived":false,"percentageOfSessions":null}, {"name":"Быково","state":"Novosibirsk","territory":"","country":"Russia","latitude":54.9336508,"longitude":83.2943001,"population":325,"stateCapital":false,"nationalCapital":false,"pk":null,"quiz":"asia","code":null,"archived":false,"percentageOfSessions":null}, {"name":"Быстровка","state":"Novosibirsk","territory":"","country":"Russia","latitude":54.536373,"longitude":82.578629,"population":1029,"stateCapital":false,"nationalCapital":false,"pk":null,"quiz":"asia","code":null,"archived":false,"percentageOfSessions":null}, {"name":"Быструха","state":"Novosibirsk","territory":"","country":"Russia","latitude":54.436958,"longitude":80.879433,"population":1233,"stateCapital":false,"nationalCapital":false,"pk":null,"quiz":"asia","code":null,"archived":false,"percentageOfSessions":null}, {"name":"Вагайцево","state":"Novosibirsk","territory":"","country":"Russia","latitude":54.364994,"longitude":81.862457,"population":2067,"stateCapital":false,"nationalCapital":false,"pk":null,"quiz":"asia","code":null,"archived":false,"percentageOfSessions":null}, {"name":"Ваганово","state":"Novosibirsk","territory":"","country":"Russia","latitude":55.8714204,"longitude":78.3993629,"population":7,"stateCapital":false,"nationalCapital":false,"pk":null,"quiz":"asia","code":null,"archived":false,"percentageOfSessions":null}, {"name":"Ваничкино","state":"Novosibirsk","territory":"","country":"Russia","latitude":54.917686,"longitude":80.850349,"population":88,"stateCapital":false,"nationalCapital":false,"pk":null,"quiz":"asia","code":null,"archived":false,"percentageOfSessions":null}, {"name":"Вараксино","state":"Novosibirsk","territory":"","country":"Russia","latitude":56.510044,"longitude":76.522682,"population":197,"stateCapital":false,"nationalCapital":false,"pk":null,"quiz":"asia","code":null,"archived":false,"percentageOfSessions":null}, {"name":"Варваровка","state":"Novosibirsk","territory":"","country":"Russia","latitude":54.958565,"longitude":75.521095,"population":75,"stateCapital":false,"nationalCapital":false,"pk":null,"quiz":"asia","code":null,"archived":false,"percentageOfSessions":null}, {"name":"Варваровка","state":"Novosibirsk","territory":"","country":"Russia","latitude":54.3956522,"longitude":76.2576421,"population":534,"stateCapital":false,"nationalCapital":false,"pk":null,"quiz":"asia","code":null,"archived":false,"percentageOfSessions":null}, {"name":"Варламово","state":"Novosibirsk","territory":"","country":"Russia","latitude":55.808899,"longitude":84.361465,"population":436,"stateCapital":false,"nationalCapital":false,"pk":null,"quiz":"asia","code":null,"archived":false,"percentageOfSessions":null}, {"name":"Васильевка","state":"Novosibirsk","territory":"","country":"Russia","latitude":54.039989,"longitude":76.924164,"population":126,"stateCapital":false,"nationalCapital":false,"pk":null,"quiz":"asia","code":null,"archived":false,"percentageOfSessions":null}, {"name":"Васильевка","state":"Novosibirsk","territory":"","country":"Russia","latitude":55.340252,"longitude":76.434738,"population":252,"stateCapital":false,"nationalCapital":false,"pk":null,"quiz":"asia","code":null,"archived":false,"percentageOfSessions":null}, {"name":"Васильевский","state":"Novosibirsk","territory":"","country":"Russia","latitude":55.2777965,"longitude":80.9616547,"population":108,"stateCapital":false,"nationalCapital":false,"pk":null,"quiz":"asia","code":null,"archived":false,"percentageOfSessions":null}, {"name":"Вассино","state":"Novosibirsk","territory":"","country":"Russia","latitude":55.056667,"longitude":84.375412,"population":477,"stateCapital":false,"nationalCapital":false,"pk":null,"quiz":"asia","code":null,"archived":false,"percentageOfSessions":null}, {"name":"Ваховский","state":"Novosibirsk","territory":"","country":"Russia","latitude":55.0853,"longitude":75.911827,"population":69,"stateCapital":false,"nationalCapital":false,"pk":null,"quiz":"asia","code":null,"archived":false,"percentageOfSessions":null}, {"name":"Вахрушево","state":"Novosibirsk","territory":"","country":"Russia","latitude":55.250351,"longitude":82.155624,"population":269,"stateCapital":false,"nationalCapital":false,"pk":null,"quiz":"asia","code":null,"archived":false,"percentageOfSessions":null}, {"name":"Вдовино","state":"Novosibirsk","territory":"","country":"Russia","latitude":56.0509807,"longitude":82.0880142,"population":9,"stateCapital":false,"nationalCapital":false,"pk":null,"quiz":"asia","code":null,"archived":false,"percentageOfSessions":null}, {"name":"Венгерово","state":"Novosibirsk","territory":"","country":"Russia","latitude":55.681034,"longitude":76.739029,"population":7035,"stateCapital":false,"nationalCapital":false,"pk":null,"quiz":"asia","code":null,"archived":false,"percentageOfSessions":null}, {"name":"Верх-Алеус","state":"Novosibirsk","territory":"","country":"Russia","latitude":54.1756905,"longitude":81.2680748,"population":679,"stateCapital":false,"nationalCapital":false,"pk":null,"quiz":"asia","code":null,"archived":false,"percentageOfSessions":null}, {"name":"Верх-Ачино","state":"Novosibirsk","territory":"","country":"Russia","latitude":55.444454,"longitude":84.620308,"population":37,"stateCapital":false,"nationalCapital":false,"pk":null,"quiz":"asia","code":null,"archived":false,"percentageOfSessions":null}, {"name":"Верх-Балта","state":"Novosibirsk","territory":"","country":"Russia","latitude":55.335285,"longitude":83.761444,"population":177,"stateCapital":false,"nationalCapital":false,"pk":null,"quiz":"asia","code":null,"archived":false,"percentageOfSessions":null}, {"name":"Верх-Ики","state":"Novosibirsk","territory":"","country":"Russia","latitude":54.603889,"longitude":84.1332887,"population":211,"stateCapital":false,"nationalCapital":false,"pk":null,"quiz":"asia","code":null,"archived":false,"percentageOfSessions":null}, {"name":"Верх-Ирмень","state":"Novosibirsk","territory":"","country":"Russia","latitude":54.566437,"longitude":82.244164,"population":3123,"stateCapital":false,"nationalCapital":false,"pk":null,"quiz":"asia","code":null,"archived":false,"percentageOfSessions":null}, {"name":"Верх-Ича","state":"Novosibirsk","territory":"","country":"Russia","latitude":55.727604,"longitude":78.018295,"population":396,"stateCapital":false,"nationalCapital":false,"pk":null,"quiz":"asia","code":null,"archived":false,"percentageOfSessions":null}, {"name":"Верх-Каргат","state":"Novosibirsk","territory":"","country":"Russia","latitude":54.79694,"longitude":79.091942,"population":828,"stateCapital":false,"nationalCapital":false,"pk":null,"quiz":"asia","code":null,"archived":false,"percentageOfSessions":null}, {"name":"Верх-Каргат","state":"Novosibirsk","territory":"","country":"Russia","latitude":55.370548,"longitude":80.65448,"population":420,"stateCapital":false,"nationalCapital":false,"pk":null,"quiz":"asia","code":null,"archived":false,"percentageOfSessions":null}, {"name":"Верх-Коен","state":"Novosibirsk","territory":"","country":"Russia","latitude":54.868355,"longitude":83.507347,"population":596,"stateCapital":false,"nationalCapital":false,"pk":null,"quiz":"asia","code":null,"archived":false,"percentageOfSessions":null}, {"name":"Верх-Красноярка","state":"Novosibirsk","territory":"","country":"Russia","latitude":56.367542,"longitude":77.923141,"population":627,"stateCapital":false,"nationalCapital":false,"pk":null,"quiz":"asia","code":null,"archived":false,"percentageOfSessions":null}, {"name":"Верх-Майзас","state":"Novosibirsk","territory":"","country":"Russia","latitude":56.684181,"longitude":76.889801,"population":187,"stateCapital":false,"nationalCapital":false,"pk":null,"quiz":"asia","code":null,"archived":false,"percentageOfSessions":null}, {"name":"Верх-Мильтюши","state":"Novosibirsk","territory":"","country":"Russia","latitude":54.303646,"longitude":82.909431,"population":995,"stateCapital":false,"nationalCapital":false,"pk":null,"quiz":"asia","code":null,"archived":false,"percentageOfSessions":null}, {"name":"Верхнеомка","state":"Novosibirsk","territory":"","country":"Russia","latitude":55.504742,"longitude":76.006737,"population":185,"stateCapital":false,"nationalCapital":false,"pk":null,"quiz":"asia","code":null,"archived":false,"percentageOfSessions":null}, {"name":"Верхний Елбак","state":"Novosibirsk","territory":"","country":"Russia","latitude":55.709202,"longitude":84.144577,"population":146,"stateCapital":false,"nationalCapital":false,"pk":null,"quiz":"asia","code":null,"archived":false,"percentageOfSessions":null}, {"name":"Верхотуровка","state":"Novosibirsk","territory":"","country":"Russia","latitude":55.5106549,"longitude":84.4051986,"population":0,"stateCapital":false,"nationalCapital":false,"pk":null,"quiz":"asia","code":null,"archived":false,"percentageOfSessions":null}, {"name":"Верх-Сузун","state":"Novosibirsk","territory":"","country":"Russia","latitude":53.681107,"longitude":82.294952,"population":829,"stateCapital":false,"nationalCapital":false,"pk":null,"quiz":"asia","code":null,"archived":false,"percentageOfSessions":null}, {"name":"Верх-Тарка","state":"Novosibirsk","territory":"","country":"Russia","latitude":56.6221781,"longitude":77.4950934,"population":391,"stateCapital":false,"nationalCapital":false,"pk":null,"quiz":"asia","code":null,"archived":false,"percentageOfSessions":null}, {"name":"Верх-Тоя","state":"Novosibirsk","territory":"","country":"Russia","latitude":55.882481,"longitude":83.200302,"population":0,"stateCapital":false,"nationalCapital":false,"pk":null,"quiz":"asia","code":null,"archived":false,"percentageOfSessions":null}, {"name":"Верх-Тула","state":"Novosibirsk","territory":"","country":"Russia","latitude":54.8824491,"longitude":82.7739688,"population":6020,"stateCapital":false,"nationalCapital":false,"pk":null,"quiz":"asia","code":null,"archived":false,"percentageOfSessions":null}, {"name":"Верх-Урюм","state":"Novosibirsk","territory":"","country":"Russia","latitude":54.492649,"longitude":78.587952,"population":805,"stateCapital":false,"nationalCapital":false,"pk":null,"quiz":"asia","code":null,"archived":false,"percentageOfSessions":null}, {"name":"Верх-Чекино","state":"Novosibirsk","territory":"","country":"Russia","latitude":56.688965,"longitude":76.508545,"population":47,"stateCapital":false,"nationalCapital":false,"pk":null,"quiz":"asia","code":null,"archived":false,"percentageOfSessions":null}, {"name":"Верх-Чемской","state":"Novosibirsk","territory":"","country":"Russia","latitude":54.866344,"longitude":84.245827,"population":7,"stateCapital":false,"nationalCapital":false,"pk":null,"quiz":"asia","code":null,"archived":false,"percentageOfSessions":null}, {"name":"Верх-Чик","state":"Novosibirsk","territory":"","country":"Russia","latitude":54.649696,"longitude":81.942657,"population":650,"stateCapital":false,"nationalCapital":false,"pk":null,"quiz":"asia","code":null,"archived":false,"percentageOfSessions":null}, {"name":"Веселая","state":"Novosibirsk","territory":"","country":"Russia","latitude":56.606434,"longitude":78.224602,"population":107,"stateCapital":false,"nationalCapital":false,"pk":null,"quiz":"asia","code":null,"archived":false,"percentageOfSessions":null}, {"name":"Веселовское","state":"Novosibirsk","territory":"","country":"Russia","latitude":53.99081,"longitude":78.7050286,"population":1650,"stateCapital":false,"nationalCapital":false,"pk":null,"quiz":"asia","code":null,"archived":false,"percentageOfSessions":null}, {"name":"Веселый Кут","state":"Novosibirsk","territory":"","country":"Russia","latitude":54.176548,"longitude":77.211929,"population":232,"stateCapital":false,"nationalCapital":false,"pk":null,"quiz":"asia","code":null,"archived":false,"percentageOfSessions":null}, {"name":"Веснянка","state":"Novosibirsk","territory":"","country":"Russia","latitude":55.546314,"longitude":78.125664,"population":188,"stateCapital":false,"nationalCapital":false,"pk":null,"quiz":"asia","code":null,"archived":false,"percentageOfSessions":null}, {"name":"Виноград","state":"Novosibirsk","territory":"","country":"Russia","latitude":54.017254,"longitude":82.876114,"population":242,"stateCapital":false,"nationalCapital":false,"pk":null,"quiz":"asia","code":null,"archived":false,"percentageOfSessions":null}, {"name":"Витаминка","state":"Novosibirsk","territory":"","country":"Russia","latitude":55.1347155,"longitude":83.1066378,"population":371,"stateCapital":false,"nationalCapital":false,"pk":null,"quiz":"asia","code":null,"archived":false,"percentageOfSessions":null}, {"name":"Витебск","state":"Novosibirsk","territory":"","country":"Russia","latitude":55.739655,"longitude":84.356964,"population":257,"stateCapital":false,"nationalCapital":false,"pk":null,"quiz":"asia","code":null,"archived":false,"percentageOfSessions":null}, {"name":"Витинск","state":"Novosibirsk","territory":"","country":"Russia","latitude":56.297817,"longitude":78.412582,"population":306,"stateCapital":false,"nationalCapital":false,"pk":null,"quiz":"asia","code":null,"archived":false,"percentageOfSessions":null}, {"name":"Вишневка","state":"Novosibirsk","territory":"","country":"Russia","latitude":53.982479,"longitude":76.843376,"population":278,"stateCapital":false,"nationalCapital":false,"pk":null,"quiz":"asia","code":null,"archived":false,"percentageOfSessions":null}, {"name":"Вишняки","state":"Novosibirsk","territory":"","country":"Russia","latitude":55.531284,"longitude":78.829483,"population":32,"stateCapital":false,"nationalCapital":false,"pk":null,"quiz":"asia","code":null,"archived":false,"percentageOfSessions":null}, {"name":"Владимировка","state":"Novosibirsk","territory":"","country":"Russia","latitude":54.163395,"longitude":77.948326,"population":199,"stateCapital":false,"nationalCapital":false,"pk":null,"quiz":"asia","code":null,"archived":false,"percentageOfSessions":null}, {"name":"Владимировка","state":"Novosibirsk","territory":"","country":"Russia","latitude":54.963802,"longitude":83.999741,"population":515,"stateCapital":false,"nationalCapital":false,"pk":null,"quiz":"asia","code":null,"archived":false,"percentageOfSessions":null}, {"name":"Владимировское","state":"Novosibirsk","territory":"","country":"Russia","latitude":55.373367,"longitude":79.595558,"population":359,"stateCapital":false,"nationalCapital":false,"pk":null,"quiz":"asia","code":null,"archived":false,"percentageOfSessions":null}, {"name":"Владиславский","state":"Novosibirsk","territory":"","country":"Russia","latitude":55.257309,"longitude":81.786766,"population":1,"stateCapital":false,"nationalCapital":false,"pk":null,"quiz":"asia","code":null,"archived":false,"percentageOfSessions":null}, {"name":"Водино","state":"Novosibirsk","territory":"","country":"Russia","latitude":54.020096,"longitude":77.512711,"population":198,"stateCapital":false,"nationalCapital":false,"pk":null,"quiz":"asia","code":null,"archived":false,"percentageOfSessions":null}, {"name":"Воздвиженка","state":"Novosibirsk","territory":"","country":"Russia","latitude":55.283173,"longitude":75.283012,"population":49,"stateCapital":false,"nationalCapital":false,"pk":null,"quiz":"asia","code":null,"archived":false,"percentageOfSessions":null}, {"name":"Воздвиженский","state":"Novosibirsk","territory":"","country":"Russia","latitude":54.647243,"longitude":80.732483,"population":680,"stateCapital":false,"nationalCapital":false,"pk":null,"quiz":"asia","code":null,"archived":false,"percentageOfSessions":null}, {"name":"Вознесенка","state":"Novosibirsk","territory":"","country":"Russia","latitude":54.1409693,"longitude":77.546144,"population":727,"stateCapital":false,"nationalCapital":false,"pk":null,"quiz":"asia","code":null,"archived":false,"percentageOfSessions":null}, {"name":"Вознесенка","state":"Novosibirsk","territory":"","country":"Russia","latitude":55.621494,"longitude":83.926765,"population":64,"stateCapital":false,"nationalCapital":false,"pk":null,"quiz":"asia","code":null,"archived":false,"percentageOfSessions":null}, {"name":"Вознесенка","state":"Novosibirsk","territory":"","country":"Russia","latitude":55.61211,"longitude":76.385101,"population":902,"stateCapital":false,"nationalCapital":false,"pk":null,"quiz":"asia","code":null,"archived":false,"percentageOfSessions":null}, {"name":"Волковский","state":"Novosibirsk","territory":"","country":"Russia","latitude":54.88467,"longitude":81.041374,"population":13,"stateCapital":false,"nationalCapital":false,"pk":null,"quiz":"asia","code":null,"archived":false,"percentageOfSessions":null}, {"name":"Волово","state":"Novosibirsk","territory":"","country":"Russia","latitude":54.833294,"longitude":75.91111,"population":94,"stateCapital":false,"nationalCapital":false,"pk":null,"quiz":"asia","code":null,"archived":false,"percentageOfSessions":null}, {"name":"Волчанка","state":"Novosibirsk","territory":"","country":"Russia","latitude":54.431187,"longitude":79.401978,"population":455,"stateCapital":false,"nationalCapital":false,"pk":null,"quiz":"asia","code":null,"archived":false,"percentageOfSessions":null}, {"name":"Воробьева Заимка","state":"Novosibirsk","territory":"","country":"Russia","latitude":54.230888,"longitude":84.511086,"population":2,"stateCapital":false,"nationalCapital":false,"pk":null,"quiz":"asia","code":null,"archived":false,"percentageOfSessions":null}, {"name":"Воробьево","state":"Novosibirsk","territory":"","country":"Russia","latitude":56.125954,"longitude":76.534836,"population":586,"stateCapital":false,"nationalCapital":false,"pk":null,"quiz":"asia","code":null,"archived":false,"percentageOfSessions":null}, {"name":"Воробьево","state":"Novosibirsk","territory":"","country":"Russia","latitude":55.311062,"longitude":82.568306,"population":460,"stateCapital":false,"nationalCapital":false,"pk":null,"quiz":"asia","code":null,"archived":false,"percentageOfSessions":null}, {"name":"Воробьево","state":"Novosibirsk","territory":"","country":"Russia","latitude":55.964359,"longitude":75.528259,"population":72,"stateCapital":false,"nationalCapital":false,"pk":null,"quiz":"asia","code":null,"archived":false,"percentageOfSessions":null}, {"name":"Воробьевский","state":"Novosibirsk","territory":"","country":"Russia","latitude":55.164444,"longitude":82.7736398,"population":19,"stateCapital":false,"nationalCapital":false,"pk":null,"quiz":"asia","code":null,"archived":false,"percentageOfSessions":null}, {"name":"Воробьи","state":"Novosibirsk","territory":"","country":"Russia","latitude":55.909027,"longitude":83.239182,"population":0,"stateCapital":false,"nationalCapital":false,"pk":null,"quiz":"asia","code":null,"archived":false,"percentageOfSessions":null}, {"name":"Вороновка","state":"Novosibirsk","territory":"","country":"Russia","latitude":54.345104,"longitude":77.751717,"population":277,"stateCapital":false,"nationalCapital":false,"pk":null,"quiz":"asia","code":null,"archived":false,"percentageOfSessions":null}, {"name":"Вороново","state":"Novosibirsk","territory":"","country":"Russia","latitude":56.1624897,"longitude":77.2680167,"population":57,"stateCapital":false,"nationalCapital":false,"pk":null,"quiz":"asia","code":null,"archived":false,"percentageOfSessions":null}, {"name":"Вороново","state":"Novosibirsk","territory":"","country":"Russia","latitude":55.4788741,"longitude":83.7921813,"population":233,"stateCapital":false,"nationalCapital":false,"pk":null,"quiz":"asia","code":null,"archived":false,"percentageOfSessions":null}, {"name":"Воскресенка","state":"Novosibirsk","territory":"","country":"Russia","latitude":53.90657,"longitude":77.762703,"population":270,"stateCapital":false,"nationalCapital":false,"pk":null,"quiz":"asia","code":null,"archived":false,"percentageOfSessions":null}, {"name":"Воскресенка","state":"Novosibirsk","territory":"","country":"Russia","latitude":56.437092,"longitude":76.157265,"population":112,"stateCapital":false,"nationalCapital":false,"pk":null,"quiz":"asia","code":null,"archived":false,"percentageOfSessions":null}, {"name":"Восточная","state":"Novosibirsk","territory":"","country":"Russia","latitude":55.035954,"longitude":83.430832,"population":278,"stateCapital":false,"nationalCapital":false,"pk":null,"quiz":"asia","code":null,"archived":false,"percentageOfSessions":null}, {"name":"Восход","state":"Novosibirsk","territory":"","country":"Russia","latitude":56.012108,"longitude":82.699501,"population":33,"stateCapital":false,"nationalCapital":false,"pk":null,"quiz":"asia","code":null,"archived":false,"percentageOfSessions":null}, {"name":"Восход","state":"Novosibirsk","territory":"","country":"Russia","latitude":55.0817897,"longitude":83.0531315,"population":1794,"stateCapital":false,"nationalCapital":false,"pk":null,"quiz":"asia","code":null,"archived":false,"percentageOfSessions":null}, {"name":"Выпаса-Вечерка","state":"Novosibirsk","territory":"","country":"Russia","latitude":55.39312,"longitude":82.606522,"population":0,"stateCapital":false,"nationalCapital":false,"pk":null,"quiz":"asia","code":null,"archived":false,"percentageOfSessions":null}, {"name":"Высокая Грива","state":"Novosibirsk","territory":"","country":"Russia","latitude":55.118587,"longitude":84.457436,"population":69,"stateCapital":false,"nationalCapital":false,"pk":null,"quiz":"asia","code":null,"archived":false,"percentageOfSessions":null}, {"name":"Высокая Поляна","state":"Novosibirsk","territory":"","country":"Russia","latitude":54.331814,"longitude":83.526718,"population":112,"stateCapital":false,"nationalCapital":false,"pk":null,"quiz":"asia","code":null,"archived":false,"percentageOfSessions":null}, {"name":"Вьюны","state":"Novosibirsk","territory":"","country":"Russia","latitude":55.516602,"longitude":82.917862,"population":1025,"stateCapital":false,"nationalCapital":false,"pk":null,"quiz":"asia","code":null,"archived":false,"percentageOfSessions":null}, {"name":"Вятка","state":"Novosibirsk","territory":"","country":"Russia","latitude":56.545013,"longitude":76.714569,"population":86,"stateCapital":false,"nationalCapital":false,"pk":null,"quiz":"asia","code":null,"archived":false,"percentageOfSessions":null}, {"name":"Гавриловка","state":"Novosibirsk","territory":"","country":"Russia","latitude":55.1635131,"longitude":80.1456975,"population":292,"stateCapital":false,"nationalCapital":false,"pk":null,"quiz":"asia","code":null,"archived":false,"percentageOfSessions":null}, {"name":"Гавриловка","state":"Novosibirsk","territory":"","country":"Russia","latitude":56.656994,"longitude":76.510399,"population":78,"stateCapital":false,"nationalCapital":false,"pk":null,"quiz":"asia","code":null,"archived":false,"percentageOfSessions":null}, {"name":"Гандичи","state":"Novosibirsk","territory":"","country":"Russia","latitude":55.040562,"longitude":79.174881,"population":98,"stateCapital":false,"nationalCapital":false,"pk":null,"quiz":"asia","code":null,"archived":false,"percentageOfSessions":null}, {"name":"Ганино","state":"Novosibirsk","territory":"","country":"Russia","latitude":53.759064,"longitude":79.020302,"population":84,"stateCapital":false,"nationalCapital":false,"pk":null,"quiz":"asia","code":null,"archived":false,"percentageOfSessions":null}, {"name":"Гаревка","state":"Novosibirsk","territory":"","country":"Russia","latitude":55.118771,"longitude":84.538177,"population":150,"stateCapital":false,"nationalCapital":false,"pk":null,"quiz":"asia","code":null,"archived":false,"percentageOfSessions":null}, {"name":"Георгиевка","state":"Novosibirsk","territory":"","country":"Russia","latitude":56.006912,"longitude":77.092056,"population":116,"stateCapital":false,"nationalCapital":false,"pk":null,"quiz":"asia","code":null,"archived":false,"percentageOfSessions":null}, {"name":"Георгиевка","state":"Novosibirsk","territory":"","country":"Russia","latitude":54.758839,"longitude":75.941765,"population":0,"stateCapital":false,"nationalCapital":false,"pk":null,"quiz":"asia","code":null,"archived":false,"percentageOfSessions":null}, {"name":"Гербаево","state":"Novosibirsk","territory":"","country":"Russia","latitude":53.985466,"longitude":79.415321,"population":385,"stateCapital":false,"nationalCapital":false,"pk":null,"quiz":"asia","code":null,"archived":false,"percentageOfSessions":null}, {"name":"Гжатск","state":"Novosibirsk","territory":"","country":"Russia","latitude":55.702034,"longitude":78.179413,"population":585,"stateCapital":false,"nationalCapital":false,"pk":null,"quiz":"asia","code":null,"archived":false,"percentageOfSessions":null}, {"name":"Гилево","state":"Novosibirsk","territory":"","country":"Russia","latitude":54.348763,"longitude":82.937126,"population":108,"stateCapital":false,"nationalCapital":false,"pk":null,"quiz":"asia","code":null,"archived":false,"percentageOfSessions":null}, {"name":"Глядень","state":"Novosibirsk","territory":"","country":"Russia","latitude":55.262276,"longitude":84.009361,"population":54,"stateCapital":false,"nationalCapital":false,"pk":null,"quiz":"asia","code":null,"archived":false,"percentageOfSessions":null}, {"name":"Гнедухино","state":"Novosibirsk","territory":"","country":"Russia","latitude":54.163223,"longitude":77.699135,"population":172,"stateCapital":false,"nationalCapital":false,"pk":null,"quiz":"asia","code":null,"archived":false,"percentageOfSessions":null}, {"name":"Голованово","state":"Novosibirsk","territory":"","country":"Russia","latitude":54.985821,"longitude":78.270508,"population":145,"stateCapital":false,"nationalCapital":false,"pk":null,"quiz":"asia","code":null,"archived":false,"percentageOfSessions":null}, {"name":"Голомыскино","state":"Novosibirsk","territory":"","country":"Russia","latitude":55.031071,"longitude":84.642738,"population":98,"stateCapital":false,"nationalCapital":false,"pk":null,"quiz":"asia","code":null,"archived":false,"percentageOfSessions":null}, {"name":"Голубинский","state":"Novosibirsk","territory":"","country":"Russia","latitude":53.703159,"longitude":79.272072,"population":229,"stateCapital":false,"nationalCapital":false,"pk":null,"quiz":"asia","code":null,"archived":false,"percentageOfSessions":null}, {"name":"Голубовский","state":"Novosibirsk","territory":"","country":"Russia","latitude":54.993038,"longitude":80.4087043,"population":16,"stateCapital":false,"nationalCapital":false,"pk":null,"quiz":"asia","code":null,"archived":false,"percentageOfSessions":null}, {"name":"Голубой Залив","state":"Novosibirsk","territory":"","country":"Russia","latitude":54.8421088,"longitude":82.9191027,"population":238,"stateCapital":false,"nationalCapital":false,"pk":null,"quiz":"asia","code":null,"archived":false,"percentageOfSessions":null}, {"name":"Горбуново","state":"Novosibirsk","territory":"","country":"Russia","latitude":55.512699,"longitude":78.720894,"population":623,"stateCapital":false,"nationalCapital":false,"pk":null,"quiz":"asia","code":null,"archived":false,"percentageOfSessions":null}, {"name":"Горевка","state":"Novosibirsk","territory":"","country":"Russia","latitude":54.424938,"longitude":82.811096,"population":284,"stateCapital":false,"nationalCapital":false,"pk":null,"quiz":"asia","code":null,"archived":false,"percentageOfSessions":null}, {"name":"Горка","state":"Novosibirsk","territory":"","country":"Russia","latitude":55.406998,"longitude":78.356316,"population":148,"stateCapital":false,"nationalCapital":false,"pk":null,"quiz":"asia","code":null,"archived":false,"percentageOfSessions":null}, {"name":"Горн","state":"Novosibirsk","territory":"","country":"Russia","latitude":55.5468062,"longitude":84.0220914,"population":115,"stateCapital":false,"nationalCapital":false,"pk":null,"quiz":"asia","code":null,"archived":false,"percentageOfSessions":null}, {"name":"Горносталиха","state":"Novosibirsk","territory":"","country":"Russia","latitude":54.468975,"longitude":77.976143,"population":14,"stateCapital":false,"nationalCapital":false,"pk":null,"quiz":"asia","code":null,"archived":false,"percentageOfSessions":null}, {"name":"Горный","state":"Novosibirsk","territory":"","country":"Russia","latitude":55.327282,"longitude":83.543968,"population":309,"stateCapital":false,"nationalCapital":false,"pk":null,"quiz":"asia","code":null,"archived":false,"percentageOfSessions":null}, {"name":"Горный","state":"Novosibirsk","territory":"","country":"Russia","latitude":55.118286,"longitude":83.878761,"population":9403,"stateCapital":false,"nationalCapital":false,"pk":null,"quiz":"asia","code":null,"archived":false,"percentageOfSessions":null}, {"name":"Городенка","state":"Novosibirsk","territory":"","country":"Russia","latitude":54.952015,"longitude":75.811104,"population":228,"stateCapital":false,"nationalCapital":false,"pk":null,"quiz":"asia","code":null,"archived":false,"percentageOfSessions":null}, {"name":"Городище","state":"Novosibirsk","territory":"","country":"Russia","latitude":54.637531,"longitude":78.047958,"population":232,"stateCapital":false,"nationalCapital":false,"pk":null,"quiz":"asia","code":null,"archived":false,"percentageOfSessions":null}, {"name":"Горькое Озеро","state":"Novosibirsk","territory":"","country":"Russia","latitude":54.879601,"longitude":78.815598,"population":81,"stateCapital":false,"nationalCapital":false,"pk":null,"quiz":"asia","code":null,"archived":false,"percentageOfSessions":null}, {"name":"Гражданцево","state":"Novosibirsk","territory":"","country":"Russia","latitude":56.357346,"longitude":78.165695,"population":344,"stateCapital":false,"nationalCapital":false,"pk":null,"quiz":"asia","code":null,"archived":false,"percentageOfSessions":null}, {"name":"Грамотино","state":"Novosibirsk","territory":"","country":"Russia","latitude":53.745838,"longitude":78.35257,"population":133,"stateCapital":false,"nationalCapital":false,"pk":null,"quiz":"asia","code":null,"archived":false,"percentageOfSessions":null}, {"name":"Гранит","state":"Novosibirsk","territory":"","country":"Russia","latitude":55.144867,"longitude":84.607079,"population":179,"stateCapital":false,"nationalCapital":false,"pk":null,"quiz":"asia","code":null,"archived":false,"percentageOfSessions":null}, {"name":"Гремячинский","state":"Novosibirsk","territory":"","country":"Russia","latitude":54.960495,"longitude":84.833778,"population":285,"stateCapital":false,"nationalCapital":false,"pk":null,"quiz":"asia","code":null,"archived":false,"percentageOfSessions":null}, {"name":"Грибной","state":"Novosibirsk","territory":"","country":"Russia","latitude":54.286129,"longitude":83.248863,"population":332,"stateCapital":false,"nationalCapital":false,"pk":null,"quiz":"asia","code":null,"archived":false,"percentageOfSessions":null}, {"name":"Гривенский","state":"Novosibirsk","territory":"","country":"Russia","latitude":54.955467,"longitude":79.032288,"population":2,"stateCapital":false,"nationalCapital":false,"pk":null,"quiz":"asia","code":null,"archived":false,"percentageOfSessions":null}, {"name":"Григорьевка","state":"Novosibirsk","territory":"","country":"Russia","latitude":55.85043,"longitude":77.001144,"population":108,"stateCapital":false,"nationalCapital":false,"pk":null,"quiz":"asia","code":null,"archived":false,"percentageOfSessions":null}, {"name":"Груздевка","state":"Novosibirsk","territory":"","country":"Russia","latitude":55.253067,"longitude":80.0038739,"population":87,"stateCapital":false,"nationalCapital":false,"pk":null,"quiz":"asia","code":null,"archived":false,"percentageOfSessions":null}, {"name":"Грушевка","state":"Novosibirsk","territory":"","country":"Russia","latitude":53.91843,"longitude":77.176933,"population":126,"stateCapital":false,"nationalCapital":false,"pk":null,"quiz":"asia","code":null,"archived":false,"percentageOfSessions":null}, {"name":"Гусельниково","state":"Novosibirsk","territory":"","country":"Russia","latitude":54.519867,"longitude":83.692986,"population":864,"stateCapital":false,"nationalCapital":false,"pk":null,"quiz":"asia","code":null,"archived":false,"percentageOfSessions":null}, {"name":"Гусиный Брод","state":"Novosibirsk","territory":"","country":"Russia","latitude":55.0658463,"longitude":83.2388845,"population":571,"stateCapital":false,"nationalCapital":false,"pk":null,"quiz":"asia","code":null,"archived":false,"percentageOfSessions":null}, {"name":"Гутово","state":"Novosibirsk","territory":"","country":"Russia","latitude":55.273827,"longitude":84.296738,"population":273,"stateCapital":false,"nationalCapital":false,"pk":null,"quiz":"asia","code":null,"archived":false,"percentageOfSessions":null}, {"name":"Дальняя Поляна","state":"Novosibirsk","territory":"","country":"Russia","latitude":56.039837,"longitude":82.578308,"population":0,"stateCapital":false,"nationalCapital":false,"pk":null,"quiz":"asia","code":null,"archived":false,"percentageOfSessions":null}, {"name":"Даниловская Ферма","state":"Novosibirsk","territory":"","country":"Russia","latitude":54.717278,"longitude":80.117798,"population":225,"stateCapital":false,"nationalCapital":false,"pk":null,"quiz":"asia","code":null,"archived":false,"percentageOfSessions":null}, {"name":"Двуозерный","state":"Novosibirsk","territory":"","country":"Russia","latitude":55.090893,"longitude":77.212151,"population":81,"stateCapital":false,"nationalCapital":false,"pk":null,"quiz":"asia","code":null,"archived":false,"percentageOfSessions":null}, {"name":"Двуречье","state":"Novosibirsk","territory":"","country":"Russia","latitude":54.9576118,"longitude":83.2069002,"population":2957,"stateCapital":false,"nationalCapital":false,"pk":null,"quiz":"asia","code":null,"archived":false,"percentageOfSessions":null}, {"name":"Девино","state":"Novosibirsk","territory":"","country":"Russia","latitude":55.181267,"longitude":84.488197,"population":33,"stateCapital":false,"nationalCapital":false,"pk":null,"quiz":"asia","code":null,"archived":false,"percentageOfSessions":null}, {"name":"Девкино","state":"Novosibirsk","territory":"","country":"Russia","latitude":54.615974,"longitude":83.696487,"population":110,"stateCapital":false,"nationalCapital":false,"pk":null,"quiz":"asia","code":null,"archived":false,"percentageOfSessions":null}, {"name":"Демидовка","state":"Novosibirsk","territory":"","country":"Russia","latitude":53.535912,"longitude":77.519371,"population":25,"stateCapital":false,"nationalCapital":false,"pk":null,"quiz":"asia","code":null,"archived":false,"percentageOfSessions":null}, {"name":"Дергаусово","state":"Novosibirsk","territory":"","country":"Russia","latitude":54.872314,"longitude":84.182976,"population":469,"stateCapital":false,"nationalCapital":false,"pk":null,"quiz":"asia","code":null,"archived":false,"percentageOfSessions":null}, {"name":"Дзержинский","state":"Novosibirsk","territory":"","country":"Russia","latitude":54.914063,"longitude":83.481567,"population":57,"stateCapital":false,"nationalCapital":false,"pk":null,"quiz":"asia","code":null,"archived":false,"percentageOfSessions":null}, {"name":"Дивинка","state":"Novosibirsk","territory":"","country":"Russia","latitude":55.696388,"longitude":84.473923,"population":763,"stateCapital":false,"nationalCapital":false,"pk":null,"quiz":"asia","code":null,"archived":false,"percentageOfSessions":null}, {"name":"Дмитриевка","state":"Novosibirsk","territory":"","country":"Russia","latitude":55.163612,"longitude":75.606956,"population":893,"stateCapital":false,"nationalCapital":false,"pk":null,"quiz":"asia","code":null,"archived":false,"percentageOfSessions":null}, {"name":"Дмитриевка","state":"Novosibirsk","territory":"","country":"Russia","latitude":55.708115,"longitude":75.405731,"population":58,"stateCapital":false,"nationalCapital":false,"pk":null,"quiz":"asia","code":null,"archived":false,"percentageOfSessions":null}, {"name":"Дмитриевский","state":"Novosibirsk","territory":"","country":"Russia","latitude":55.406418,"longitude":78.850739,"population":71,"stateCapital":false,"nationalCapital":false,"pk":null,"quiz":"asia","code":null,"archived":false,"percentageOfSessions":null}, {"name":"Добринка","state":"Novosibirsk","territory":"","country":"Russia","latitude":55.48941,"longitude":76.474136,"population":69,"stateCapital":false,"nationalCapital":false,"pk":null,"quiz":"asia","code":null,"archived":false,"percentageOfSessions":null}, {"name":"Довольное","state":"Novosibirsk","territory":"","country":"Russia","latitude":54.495785,"longitude":79.667091,"population":6774,"stateCapital":false,"nationalCapital":false,"pk":null,"quiz":"asia","code":null,"archived":false,"percentageOfSessions":null}, {"name":"Долгово","state":"Novosibirsk","territory":"","country":"Russia","latitude":55.440716,"longitude":84.453659,"population":211,"stateCapital":false,"nationalCapital":false,"pk":null,"quiz":"asia","code":null,"archived":false,"percentageOfSessions":null}, {"name":"Дорогина Заимка","state":"Novosibirsk","territory":"","country":"Russia","latitude":54.344009,"longitude":83.181229,"population":366,"stateCapital":false,"nationalCapital":false,"pk":null,"quiz":"asia","code":null,"archived":false,"percentageOfSessions":null}, {"name":"Дорогино","state":"Novosibirsk","territory":"","country":"Russia","latitude":54.362015,"longitude":83.317009,"population":3829,"stateCapital":false,"nationalCapital":false,"pk":null,"quiz":"asia","code":null,"archived":false,"percentageOfSessions":null}, {"name":"Доронино","state":"Novosibirsk","territory":"","country":"Russia","latitude":54.97813,"longitude":84.622658,"population":235,"stateCapital":false,"nationalCapital":false,"pk":null,"quiz":"asia","code":null,"archived":false,"percentageOfSessions":null}, {"name":"Дресвянка","state":"Novosibirsk","territory":"","country":"Russia","latitude":54.198959,"longitude":84.543533,"population":258,"stateCapital":false,"nationalCapital":false,"pk":null,"quiz":"asia","code":null,"archived":false,"percentageOfSessions":null}, {"name":"Дружинино","state":"Novosibirsk","territory":"","country":"Russia","latitude":54.61832,"longitude":77.248703,"population":95,"stateCapital":false,"nationalCapital":false,"pk":null,"quiz":"asia","code":null,"archived":false,"percentageOfSessions":null}, {"name":"Дружный","state":"Novosibirsk","territory":"","country":"Russia","latitude":54.43375,"longitude":79.095459,"population":193,"stateCapital":false,"nationalCapital":false,"pk":null,"quiz":"asia","code":null,"archived":false,"percentageOfSessions":null}, {"name":"Дружный","state":"Novosibirsk","territory":"","country":"Russia","latitude":54.97438,"longitude":82.15918,"population":260,"stateCapital":false,"nationalCapital":false,"pk":null,"quiz":"asia","code":null,"archived":false,"percentageOfSessions":null}, {"name":"Дубинский","state":"Novosibirsk","territory":"","country":"Russia","latitude":54.836926,"longitude":83.544426,"population":20,"stateCapital":false,"nationalCapital":false,"pk":null,"quiz":"asia","code":null,"archived":false,"percentageOfSessions":null}, {"name":"Дубрава","state":"Novosibirsk","territory":"","country":"Russia","latitude":55.3263534,"longitude":81.0498103,"population":31,"stateCapital":false,"nationalCapital":false,"pk":null,"quiz":"asia","code":null,"archived":false,"percentageOfSessions":null}, {"name":"Дубровино","state":"Novosibirsk","territory":"","country":"Russia","latitude":55.471161,"longitude":83.292892,"population":1062,"stateCapital":false,"nationalCapital":false,"pk":null,"quiz":"asia","code":null,"archived":false,"percentageOfSessions":null}, {"name":"Дубровино","state":"Novosibirsk","territory":"","country":"Russia","latitude":55.111233,"longitude":76.231003,"population":54,"stateCapital":false,"nationalCapital":false,"pk":null,"quiz":"asia","code":null,"archived":false,"percentageOfSessions":null}, {"name":"Дубровино","state":"Novosibirsk","territory":"","country":"Russia","latitude":55.948261,"longitude":76.261375,"population":94,"stateCapital":false,"nationalCapital":false,"pk":null,"quiz":"asia","code":null,"archived":false,"percentageOfSessions":null}, {"name":"Дубровка","state":"Novosibirsk","territory":"","country":"Russia","latitude":54.464409,"longitude":84.721375,"population":626,"stateCapital":false,"nationalCapital":false,"pk":null,"quiz":"asia","code":null,"archived":false,"percentageOfSessions":null}, {"name":"Дунаевка","state":"Novosibirsk","territory":"","country":"Russia","latitude":55.220062,"longitude":78.225616,"population":192,"stateCapital":false,"nationalCapital":false,"pk":null,"quiz":"asia","code":null,"archived":false,"percentageOfSessions":null}, {"name":"Дупленская","state":"Novosibirsk","territory":"","country":"Russia","latitude":55.0859557,"longitude":81.6208178,"population":1025,"stateCapital":false,"nationalCapital":false,"pk":null,"quiz":"asia","code":null,"archived":false,"percentageOfSessions":null}, {"name":"Евгеньевка","state":"Novosibirsk","territory":"","country":"Russia","latitude":55.085754,"longitude":75.691528,"population":151,"stateCapital":false,"nationalCapital":false,"pk":null,"quiz":"asia","code":null,"archived":false,"percentageOfSessions":null}, {"name":"Евсино","state":"Novosibirsk","territory":"","country":"Russia","latitude":54.417175,"longitude":83.322159,"population":5369,"stateCapital":false,"nationalCapital":false,"pk":null,"quiz":"asia","code":null,"archived":false,"percentageOfSessions":null}, {"name":"Евсино","state":"Novosibirsk","territory":"","country":"Russia","latitude":54.417175,"longitude":83.322159,"population":602,"stateCapital":false,"nationalCapital":false,"pk":null,"quiz":"asia","code":null,"archived":false,"percentageOfSessions":null}, {"name":"Егоровка","state":"Novosibirsk","territory":"","country":"Russia","latitude":55.62146,"longitude":84.217545,"population":675,"stateCapital":false,"nationalCapital":false,"pk":null,"quiz":"asia","code":null,"archived":false,"percentageOfSessions":null}, {"name":"Егорьевское","state":"Novosibirsk","territory":"","country":"Russia","latitude":54.498913,"longitude":84.597885,"population":584,"stateCapital":false,"nationalCapital":false,"pk":null,"quiz":"asia","code":null,"archived":false,"percentageOfSessions":null}, {"name":"Ежула","state":"Novosibirsk","territory":"","country":"Russia","latitude":55.699974,"longitude":79.50882,"population":37,"stateCapital":false,"nationalCapital":false,"pk":null,"quiz":"asia","code":null,"archived":false,"percentageOfSessions":null}, {"name":"Еланка","state":"Novosibirsk","territory":"","country":"Russia","latitude":55.82782,"longitude":79.49588,"population":33,"stateCapital":false,"nationalCapital":false,"pk":null,"quiz":"asia","code":null,"archived":false,"percentageOfSessions":null}, {"name":"Еланка","state":"Novosibirsk","territory":"","country":"Russia","latitude":55.625153,"longitude":75.294067,"population":676,"stateCapital":false,"nationalCapital":false,"pk":null,"quiz":"asia","code":null,"archived":false,"percentageOfSessions":null}, {"name":"Елбань","state":"Novosibirsk","territory":"","country":"Russia","latitude":54.318886,"longitude":84.593826,"population":839,"stateCapital":false,"nationalCapital":false,"pk":null,"quiz":"asia","code":null,"archived":false,"percentageOfSessions":null}, {"name":"Елбаши","state":"Novosibirsk","territory":"","country":"Russia","latitude":54.736195,"longitude":83.597435,"population":270,"stateCapital":false,"nationalCapital":false,"pk":null,"quiz":"asia","code":null,"archived":false,"percentageOfSessions":null}, {"name":"Елизаветинка","state":"Novosibirsk","territory":"","country":"Russia","latitude":55.654449,"longitude":78.973412,"population":70,"stateCapital":false,"nationalCapital":false,"pk":null,"quiz":"asia","code":null,"archived":false,"percentageOfSessions":null}, {"name":"Елизаветинка","state":"Novosibirsk","territory":"","country":"Russia","latitude":54.7477584,"longitude":76.4827407,"population":472,"stateCapital":false,"nationalCapital":false,"pk":null,"quiz":"asia","code":null,"archived":false,"percentageOfSessions":null}, {"name":"Еловкино","state":"Novosibirsk","territory":"","country":"Russia","latitude":54.099228,"longitude":83.295723,"population":200,"stateCapital":false,"nationalCapital":false,"pk":null,"quiz":"asia","code":null,"archived":false,"percentageOfSessions":null}, {"name":"Елтышево","state":"Novosibirsk","territory":"","country":"Russia","latitude":55.364685,"longitude":84.091187,"population":213,"stateCapital":false,"nationalCapital":false,"pk":null,"quiz":"asia","code":null,"archived":false,"percentageOfSessions":null}, {"name":"Елфимово","state":"Novosibirsk","territory":"","country":"Russia","latitude":55.630417,"longitude":84.68219,"population":154,"stateCapital":false,"nationalCapital":false,"pk":null,"quiz":"asia","code":null,"archived":false,"percentageOfSessions":null}, {"name":"Емельяновский","state":"Novosibirsk","territory":"","country":"Russia","latitude":55.2517228,"longitude":83.3402358,"population":446,"stateCapital":false,"nationalCapital":false,"pk":null,"quiz":"asia","code":null,"archived":false,"percentageOfSessions":null}, {"name":"Епанешниково","state":"Novosibirsk","territory":"","country":"Russia","latitude":55.643097,"longitude":78.918709,"population":20,"stateCapital":false,"nationalCapital":false,"pk":null,"quiz":"asia","code":null,"archived":false,"percentageOfSessions":null}, {"name":"Еремино","state":"Novosibirsk","territory":"","country":"Russia","latitude":56.610477,"longitude":76.39872,"population":300,"stateCapital":false,"nationalCapital":false,"pk":null,"quiz":"asia","code":null,"archived":false,"percentageOfSessions":null}, {"name":"Ерестная","state":"Novosibirsk","territory":"","country":"Russia","latitude":54.380486,"longitude":82.131348,"population":25,"stateCapital":false,"nationalCapital":false,"pk":null,"quiz":"asia","code":null,"archived":false,"percentageOfSessions":null}, {"name":"Ермаковский","state":"Novosibirsk","territory":"","country":"Russia","latitude":54.1281593,"longitude":80.3113566,"population":359,"stateCapital":false,"nationalCapital":false,"pk":null,"quiz":"asia","code":null,"archived":false,"percentageOfSessions":null}, {"name":"Ермачиха","state":"Novosibirsk","territory":"","country":"Russia","latitude":55.109436,"longitude":83.865929,"population":79,"stateCapital":false,"nationalCapital":false,"pk":null,"quiz":"asia","code":null,"archived":false,"percentageOfSessions":null}, {"name":"Ермиловка","state":"Novosibirsk","territory":"","country":"Russia","latitude":55.307846,"longitude":81.937386,"population":94,"stateCapital":false,"nationalCapital":false,"pk":null,"quiz":"asia","code":null,"archived":false,"percentageOfSessions":null}, {"name":"Ермолаевка","state":"Novosibirsk","territory":"","country":"Russia","latitude":55.318672,"longitude":79.907204,"population":267,"stateCapital":false,"nationalCapital":false,"pk":null,"quiz":"asia","code":null,"archived":false,"percentageOfSessions":null}, {"name":"Ершовка","state":"Novosibirsk","territory":"","country":"Russia","latitude":55.8374847,"longitude":82.4823957,"population":32,"stateCapital":false,"nationalCapital":false,"pk":null,"quiz":"asia","code":null,"archived":false,"percentageOfSessions":null}, {"name":"Ефремовка","state":"Novosibirsk","territory":"","country":"Russia","latitude":55.959249,"longitude":77.9590049,"population":1,"stateCapital":false,"nationalCapital":false,"pk":null,"quiz":"asia","code":null,"archived":false,"percentageOfSessions":null}, {"name":"Жданковский","state":"Novosibirsk","territory":"","country":"Russia","latitude":55.378922,"longitude":79.143188,"population":47,"stateCapital":false,"nationalCapital":false,"pk":null,"quiz":"asia","code":null,"archived":false,"percentageOfSessions":null}, {"name":"Железнодорожный","state":"Novosibirsk","territory":"","country":"Russia","latitude":54.9865994,"longitude":83.2837292,"population":1338,"stateCapital":false,"nationalCapital":false,"pk":null,"quiz":"asia","code":null,"archived":false,"percentageOfSessions":null}, {"name":"Жеребцово","state":"Novosibirsk","territory":"","country":"Russia","latitude":55.1145037,"longitude":83.2770201,"population":330,"stateCapital":false,"nationalCapital":false,"pk":null,"quiz":"asia","code":null,"archived":false,"percentageOfSessions":null}, {"name":"Жеребцово","state":"Novosibirsk","territory":"","country":"Russia","latitude":55.1145037,"longitude":83.2770201,"population":215,"stateCapital":false,"nationalCapital":false,"pk":null,"quiz":"asia","code":null,"archived":false,"percentageOfSessions":null}, {"name":"Жерновка","state":"Novosibirsk","territory":"","country":"Russia","latitude":54.333786,"longitude":84.68914,"population":206,"stateCapital":false,"nationalCapital":false,"pk":null,"quiz":"asia","code":null,"archived":false,"percentageOfSessions":null}, {"name":"Жуланка","state":"Novosibirsk","territory":"","country":"Russia","latitude":54.366016,"longitude":80.604317,"population":1222,"stateCapital":false,"nationalCapital":false,"pk":null,"quiz":"asia","code":null,"archived":false,"percentageOfSessions":null}, {"name":"Журавка","state":"Novosibirsk","territory":"","country":"Russia","latitude":54.622936,"longitude":76.57132,"population":958,"stateCapital":false,"nationalCapital":false,"pk":null,"quiz":"asia","code":null,"archived":false,"percentageOfSessions":null}, {"name":"Журавлевка","state":"Novosibirsk","territory":"","country":"Russia","latitude":55.6032327,"longitude":78.1820476,"population":34,"stateCapital":false,"nationalCapital":false,"pk":null,"quiz":"asia","code":null,"archived":false,"percentageOfSessions":null}, {"name":"Забоевка","state":"Novosibirsk","territory":"","country":"Russia","latitude":56.333271,"longitude":77.838127,"population":0,"stateCapital":false,"nationalCapital":false,"pk":null,"quiz":"asia","code":null,"archived":false,"percentageOfSessions":null}, {"name":"Завьялово","state":"Novosibirsk","territory":"","country":"Russia","latitude":54.505348,"longitude":82.448395,"population":1124,"stateCapital":false,"nationalCapital":false,"pk":null,"quiz":"asia","code":null,"archived":false,"percentageOfSessions":null}, {"name":"Завьялово","state":"Novosibirsk","territory":"","country":"Russia","latitude":55.068684,"longitude":84.728462,"population":764,"stateCapital":false,"nationalCapital":false,"pk":null,"quiz":"asia","code":null,"archived":false,"percentageOfSessions":null}, {"name":"Загора","state":"Novosibirsk","territory":"","country":"Russia","latitude":54.302391,"longitude":84.604095,"population":179,"stateCapital":false,"nationalCapital":false,"pk":null,"quiz":"asia","code":null,"archived":false,"percentageOfSessions":null}, {"name":"Заковряжино","state":"Novosibirsk","territory":"","country":"Russia","latitude":54.03175,"longitude":82.424141,"population":1296,"stateCapital":false,"nationalCapital":false,"pk":null,"quiz":"asia","code":null,"archived":false,"percentageOfSessions":null}, {"name":"Залесный","state":"Novosibirsk","territory":"","country":"Russia","latitude":55.011929,"longitude":81.092453,"population":150,"stateCapital":false,"nationalCapital":false,"pk":null,"quiz":"asia","code":null,"archived":false,"percentageOfSessions":null}, {"name":"Заливино","state":"Novosibirsk","territory":"","country":"Russia","latitude":56.453327,"longitude":76.33252,"population":318,"stateCapital":false,"nationalCapital":false,"pk":null,"quiz":"asia","code":null,"archived":false,"percentageOfSessions":null}, {"name":"Заливной Луг","state":"Novosibirsk","territory":"","country":"Russia","latitude":55.6529428,"longitude":77.5081238,"population":57,"stateCapital":false,"nationalCapital":false,"pk":null,"quiz":"asia","code":null,"archived":false,"percentageOfSessions":null}, {"name":"Запрудный","state":"Novosibirsk","territory":"","country":"Russia","latitude":54.369205,"longitude":83.450089,"population":118,"stateCapital":false,"nationalCapital":false,"pk":null,"quiz":"asia","code":null,"archived":false,"percentageOfSessions":null}, {"name":"Заречное","state":"Novosibirsk","territory":"","country":"Russia","latitude":55.155621,"longitude":84.621788,"population":452,"stateCapital":false,"nationalCapital":false,"pk":null,"quiz":"asia","code":null,"archived":false,"percentageOfSessions":null}, {"name":"Заречноубинская","state":"Novosibirsk","territory":"","country":"Russia","latitude":55.529381,"longitude":79.89006,"population":8,"stateCapital":false,"nationalCapital":false,"pk":null,"quiz":"asia","code":null,"archived":false,"percentageOfSessions":null}, {"name":"Заречный","state":"Novosibirsk","territory":"","country":"Russia","latitude":55.4709493,"longitude":78.289137,"population":244,"stateCapital":false,"nationalCapital":false,"pk":null,"quiz":"asia","code":null,"archived":false,"percentageOfSessions":null}, {"name":"Заречье","state":"Novosibirsk","territory":"","country":"Russia","latitude":55.706982,"longitude":76.72908,"population":984,"stateCapital":false,"nationalCapital":false,"pk":null,"quiz":"asia","code":null,"archived":false,"percentageOfSessions":null}, {"name":"Затонский","state":"Novosibirsk","territory":"","country":"Russia","latitude":55.1394918,"longitude":82.7763662,"population":0,"stateCapital":false,"nationalCapital":false,"pk":null,"quiz":"asia","code":null,"archived":false,"percentageOfSessions":null}, {"name":"Зверобойка","state":"Novosibirsk","territory":"","country":"Russia","latitude":55.162365,"longitude":84.278397,"population":68,"stateCapital":false,"nationalCapital":false,"pk":null,"quiz":"asia","code":null,"archived":false,"percentageOfSessions":null},