{"cities":[{"name":"Авыйган","state":"Tuva","territory":"","country":"Russia","latitude":51.3204989,"longitude":95.5926481,"population":427,"stateCapital":false,"nationalCapital":false,"pk":null,"quiz":"asia","code":null,"archived":false,"percentageOfSessions":null}, {"name":"Адыр-Кежиг","state":"Tuva","territory":"","country":"Russia","latitude":52.449673,"longitude":96.2442043,"population":1202,"stateCapital":false,"nationalCapital":false,"pk":null,"quiz":"asia","code":null,"archived":false,"percentageOfSessions":null}, {"name":"Ак-Даш","state":"Tuva","territory":"","country":"Russia","latitude":51.3410954,"longitude":91.1281674,"population":563,"stateCapital":false,"nationalCapital":false,"pk":null,"quiz":"asia","code":null,"archived":false,"percentageOfSessions":null}, {"name":"Ак-Довурак","state":"Tuva","territory":"","country":"Russia","latitude":51.173087,"longitude":90.5934434,"population":13468,"stateCapital":false,"nationalCapital":false,"pk":null,"quiz":"asia","code":null,"archived":false,"percentageOfSessions":null}, {"name":"Ак-Дуруг","state":"Tuva","territory":"","country":"Russia","latitude":51.3995087,"longitude":92.2074823,"population":1408,"stateCapital":false,"nationalCapital":false,"pk":null,"quiz":"asia","code":null,"archived":false,"percentageOfSessions":null}, {"name":"Аксы-Барлык","state":"Tuva","territory":"","country":"Russia","latitude":51.1175678,"longitude":90.4021823,"population":934,"stateCapital":false,"nationalCapital":false,"pk":null,"quiz":"asia","code":null,"archived":false,"percentageOfSessions":null}, {"name":"Ак-Тал","state":"Tuva","territory":"","country":"Russia","latitude":51.1743221,"longitude":93.4071913,"population":918,"stateCapital":false,"nationalCapital":false,"pk":null,"quiz":"asia","code":null,"archived":false,"percentageOfSessions":null}, {"name":"Ак-Чыраа","state":"Tuva","territory":"","country":"Russia","latitude":50.6983695,"longitude":93.2369337,"population":470,"stateCapital":false,"nationalCapital":false,"pk":null,"quiz":"asia","code":null,"archived":false,"percentageOfSessions":null}, {"name":"Ак-Эрик","state":"Tuva","territory":"","country":"Russia","latitude":50.5142008,"longitude":94.6152832,"population":841,"stateCapital":false,"nationalCapital":false,"pk":null,"quiz":"asia","code":null,"archived":false,"percentageOfSessions":null}, {"name":"Алдан-Маадыр","state":"Tuva","territory":"","country":"Russia","latitude":51.2965803,"longitude":90.9751627,"population":1109,"stateCapital":false,"nationalCapital":false,"pk":null,"quiz":"asia","code":null,"archived":false,"percentageOfSessions":null}, {"name":"Аржаан","state":"Tuva","territory":"","country":"Russia","latitude":52.0592442,"longitude":93.6053528,"population":788,"stateCapital":false,"nationalCapital":false,"pk":null,"quiz":"asia","code":null,"archived":false,"percentageOfSessions":null}, {"name":"Арыг-Бажы","state":"Tuva","territory":"","country":"Russia","latitude":51.4458735,"longitude":93.0547938,"population":584,"stateCapital":false,"nationalCapital":false,"pk":null,"quiz":"asia","code":null,"archived":false,"percentageOfSessions":null}, {"name":"Арыг-Узуу","state":"Tuva","territory":"","country":"Russia","latitude":51.4225518,"longitude":92.5956837,"population":1421,"stateCapital":false,"nationalCapital":false,"pk":null,"quiz":"asia","code":null,"archived":false,"percentageOfSessions":null}, {"name":"Арыскан","state":"Tuva","territory":"","country":"Russia","latitude":51.406536,"longitude":92.7097671,"population":630,"stateCapital":false,"nationalCapital":false,"pk":null,"quiz":"asia","code":null,"archived":false,"percentageOfSessions":null}, {"name":"Аянгаты","state":"Tuva","territory":"","country":"Russia","latitude":50.9934854,"longitude":90.8429369,"population":540,"stateCapital":false,"nationalCapital":false,"pk":null,"quiz":"asia","code":null,"archived":false,"percentageOfSessions":null}, {"name":"Бажын-Алаак","state":"Tuva","territory":"","country":"Russia","latitude":51.2305473,"longitude":91.7333956,"population":1454,"stateCapital":false,"nationalCapital":false,"pk":null,"quiz":"asia","code":null,"archived":false,"percentageOfSessions":null}, {"name":"Бай-Даг","state":"Tuva","territory":"","country":"Russia","latitude":50.3013082,"longitude":95.1019495,"population":1266,"stateCapital":false,"nationalCapital":false,"pk":null,"quiz":"asia","code":null,"archived":false,"percentageOfSessions":null}, {"name":"Бай-Соот","state":"Tuva","territory":"","country":"Russia","latitude":51.7542924,"longitude":95.3171786,"population":0,"stateCapital":false,"nationalCapital":false,"pk":null,"quiz":"asia","code":null,"archived":false,"percentageOfSessions":null}, {"name":"Бай-Тал","state":"Tuva","territory":"","country":"Russia","latitude":50.9109348,"longitude":90.0583621,"population":1786,"stateCapital":false,"nationalCapital":false,"pk":null,"quiz":"asia","code":null,"archived":false,"percentageOfSessions":null}, {"name":"Бай-Хаак","state":"Tuva","territory":"","country":"Russia","latitude":51.1601031,"longitude":94.4651991,"population":2981,"stateCapital":false,"nationalCapital":false,"pk":null,"quiz":"asia","code":null,"archived":false,"percentageOfSessions":null}, {"name":"Балгазын","state":"Tuva","territory":"","country":"Russia","latitude":50.9964468,"longitude":95.1670684,"population":3096,"stateCapital":false,"nationalCapital":false,"pk":null,"quiz":"asia","code":null,"archived":false,"percentageOfSessions":null}, {"name":"Барлык","state":"Tuva","territory":"","country":"Russia","latitude":51.1348844,"longitude":90.541542,"population":1468,"stateCapital":false,"nationalCapital":false,"pk":null,"quiz":"asia","code":null,"archived":false,"percentageOfSessions":null}, {"name":"Баян-Кол","state":"Tuva","territory":"","country":"Russia","latitude":51.57916,"longitude":93.5542113,"population":1122,"stateCapital":false,"nationalCapital":false,"pk":null,"quiz":"asia","code":null,"archived":false,"percentageOfSessions":null}, {"name":"Баян-Тала","state":"Tuva","territory":"","country":"Russia","latitude":51.4573557,"longitude":91.430771,"population":749,"stateCapital":false,"nationalCapital":false,"pk":null,"quiz":"asia","code":null,"archived":false,"percentageOfSessions":null}, {"name":"Белдир-Чазы","state":"Tuva","territory":"","country":"Russia","latitude":50.5039851,"longitude":96.9471558,"population":148,"stateCapital":false,"nationalCapital":false,"pk":null,"quiz":"asia","code":null,"archived":false,"percentageOfSessions":null}, {"name":"Бельдир-Арыг","state":"Tuva","territory":"","country":"Russia","latitude":50.5733792,"longitude":94.9732734,"population":1039,"stateCapital":false,"nationalCapital":false,"pk":null,"quiz":"asia","code":null,"archived":false,"percentageOfSessions":null}, {"name":"Берт-Даг","state":"Tuva","territory":"","country":"Russia","latitude":50.6253442,"longitude":94.7941167,"population":1034,"stateCapital":false,"nationalCapital":false,"pk":null,"quiz":"asia","code":null,"archived":false,"percentageOfSessions":null}, {"name":"Бижиктиг-Хая","state":"Tuva","territory":"","country":"Russia","latitude":51.0998154,"longitude":90.6385447,"population":576,"stateCapital":false,"nationalCapital":false,"pk":null,"quiz":"asia","code":null,"archived":false,"percentageOfSessions":null}, {"name":"Билелиг","state":"Tuva","territory":"","country":"Russia","latitude":52.2732863,"longitude":93.8794007,"population":105,"stateCapital":false,"nationalCapital":false,"pk":null,"quiz":"asia","code":null,"archived":false,"percentageOfSessions":null}, {"name":"Бора-Тайга","state":"Tuva","territory":"","country":"Russia","latitude":51.4044258,"longitude":91.146738,"population":748,"stateCapital":false,"nationalCapital":false,"pk":null,"quiz":"asia","code":null,"archived":false,"percentageOfSessions":null}, {"name":"Бояровка","state":"Tuva","territory":"","country":"Russia","latitude":51.5380167,"longitude":95.3540499,"population":673,"stateCapital":false,"nationalCapital":false,"pk":null,"quiz":"asia","code":null,"archived":false,"percentageOfSessions":null}, {"name":"Булун-Бажы","state":"Tuva","territory":"","country":"Russia","latitude":50.2671627,"longitude":95.2137767,"population":802,"stateCapital":false,"nationalCapital":false,"pk":null,"quiz":"asia","code":null,"archived":false,"percentageOfSessions":null}, {"name":"Булун-Терек","state":"Tuva","territory":"","country":"Russia","latitude":51.4769681,"longitude":92.2654182,"population":1075,"stateCapital":false,"nationalCapital":false,"pk":null,"quiz":"asia","code":null,"archived":false,"percentageOfSessions":null}, {"name":"Бурен-Бай-Хаак","state":"Tuva","territory":"","country":"Russia","latitude":51.2449768,"longitude":95.55685,"population":792,"stateCapital":false,"nationalCapital":false,"pk":null,"quiz":"asia","code":null,"archived":false,"percentageOfSessions":null}, {"name":"Бурен-Хем","state":"Tuva","territory":"","country":"Russia","latitude":51.6519455,"longitude":95.0071514,"population":950,"stateCapital":false,"nationalCapital":false,"pk":null,"quiz":"asia","code":null,"archived":false,"percentageOfSessions":null}, {"name":"Владимировка","state":"Tuva","territory":"","country":"Russia","latitude":50.9977926,"longitude":95.3055046,"population":806,"stateCapital":false,"nationalCapital":false,"pk":null,"quiz":"asia","code":null,"archived":false,"percentageOfSessions":null}, {"name":"Дерзиг-Аксы","state":"Tuva","territory":"","country":"Russia","latitude":51.456125,"longitude":95.6081696,"population":973,"stateCapital":false,"nationalCapital":false,"pk":null,"quiz":"asia","code":null,"archived":false,"percentageOfSessions":null}, {"name":"Дон-Терезин","state":"Tuva","territory":"","country":"Russia","latitude":51.2144574,"longitude":90.7030085,"population":808,"stateCapital":false,"nationalCapital":false,"pk":null,"quiz":"asia","code":null,"archived":false,"percentageOfSessions":null}, {"name":"Дружба","state":"Tuva","territory":"","country":"Russia","latitude":51.0078721,"longitude":90.2180158,"population":576,"stateCapital":false,"nationalCapital":false,"pk":null,"quiz":"asia","code":null,"archived":false,"percentageOfSessions":null}, {"name":"Дурген","state":"Tuva","territory":"","country":"Russia","latitude":51.1490635,"longitude":94.5006472,"population":1656,"stateCapital":false,"nationalCapital":false,"pk":null,"quiz":"asia","code":null,"archived":false,"percentageOfSessions":null}, {"name":"Дус-Даг","state":"Tuva","territory":"","country":"Russia","latitude":50.8132729,"longitude":92.682277,"population":974,"stateCapital":false,"nationalCapital":false,"pk":null,"quiz":"asia","code":null,"archived":false,"percentageOfSessions":null}, {"name":"Ий","state":"Tuva","territory":"","country":"Russia","latitude":52.5695197,"longitude":96.0338107,"population":1280,"stateCapital":false,"nationalCapital":false,"pk":null,"quiz":"asia","code":null,"archived":false,"percentageOfSessions":null}, {"name":"Ийи-Тал","state":"Tuva","territory":"","country":"Russia","latitude":51.5656919,"longitude":93.337079,"population":608,"stateCapital":false,"nationalCapital":false,"pk":null,"quiz":"asia","code":null,"archived":false,"percentageOfSessions":null}, {"name":"Ийме","state":"Tuva","territory":"","country":"Russia","latitude":51.5782693,"longitude":91.5933809,"population":678,"stateCapital":false,"nationalCapital":false,"pk":null,"quiz":"asia","code":null,"archived":false,"percentageOfSessions":null}, {"name":"Ильинка","state":"Tuva","territory":"","country":"Russia","latitude":51.1141651,"longitude":95.4779459,"population":836,"stateCapital":false,"nationalCapital":false,"pk":null,"quiz":"asia","code":null,"archived":false,"percentageOfSessions":null}, {"name":"Ишкин","state":"Tuva","territory":"","country":"Russia","latitude":51.5669621,"longitude":91.4749089,"population":1064,"stateCapital":false,"nationalCapital":false,"pk":null,"quiz":"asia","code":null,"archived":false,"percentageOfSessions":null}, {"name":"Иштии-Хем","state":"Tuva","territory":"","country":"Russia","latitude":51.3205615,"longitude":92.4753913,"population":527,"stateCapital":false,"nationalCapital":false,"pk":null,"quiz":"asia","code":null,"archived":false,"percentageOfSessions":null}, {"name":"Каа-Хем","state":"Tuva","territory":"","country":"Russia","latitude":51.696541,"longitude":94.563721,"population":15044,"stateCapital":false,"nationalCapital":false,"pk":null,"quiz":"asia","code":null,"archived":false,"percentageOfSessions":null}, {"name":"Кара-Хаак","state":"Tuva","territory":"","country":"Russia","latitude":51.8863432,"longitude":94.4604279,"population":1276,"stateCapital":false,"nationalCapital":false,"pk":null,"quiz":"asia","code":null,"archived":false,"percentageOfSessions":null}, {"name":"Кара-Холь","state":"Tuva","territory":"","country":"Russia","latitude":51.2831675,"longitude":89.7643966,"population":1395,"stateCapital":false,"nationalCapital":false,"pk":null,"quiz":"asia","code":null,"archived":false,"percentageOfSessions":null}, {"name":"Кара-Чыраа","state":"Tuva","territory":"","country":"Russia","latitude":51.4169104,"longitude":91.3184404,"population":823,"stateCapital":false,"nationalCapital":false,"pk":null,"quiz":"asia","code":null,"archived":false,"percentageOfSessions":null}, {"name":"Катазы","state":"Tuva","territory":"","country":"Russia","latitude":51.1876635,"longitude":96.9014581,"population":58,"stateCapital":false,"nationalCapital":false,"pk":null,"quiz":"asia","code":null,"archived":false,"percentageOfSessions":null}, {"name":"Качык","state":"Tuva","territory":"","country":"Russia","latitude":49.9353978,"longitude":96.4202883,"population":269,"stateCapital":false,"nationalCapital":false,"pk":null,"quiz":"asia","code":null,"archived":false,"percentageOfSessions":null}, {"name":"Каък","state":"Tuva","territory":"","country":"Russia","latitude":51.3425793,"longitude":93.5194731,"population":0,"stateCapital":false,"nationalCapital":false,"pk":null,"quiz":"asia","code":null,"archived":false,"percentageOfSessions":null}, {"name":"Кирсарай","state":"Tuva","territory":"","country":"Russia","latitude":51.3754037,"longitude":91.8148471,"population":179,"stateCapital":false,"nationalCapital":false,"pk":null,"quiz":"asia","code":null,"archived":false,"percentageOfSessions":null}, {"name":"Кок-Хаак","state":"Tuva","territory":"","country":"Russia","latitude":51.511767,"longitude":95.4860581,"population":396,"stateCapital":false,"nationalCapital":false,"pk":null,"quiz":"asia","code":null,"archived":false,"percentageOfSessions":null}, {"name":"Кочетово","state":"Tuva","territory":"","country":"Russia","latitude":51.345228,"longitude":94.0612703,"population":784,"stateCapital":false,"nationalCapital":false,"pk":null,"quiz":"asia","code":null,"archived":false,"percentageOfSessions":null}, {"name":"Краснояровка","state":"Tuva","territory":"","country":"Russia","latitude":51.0016375,"longitude":95.0479523,"population":81,"stateCapital":false,"nationalCapital":false,"pk":null,"quiz":"asia","code":null,"archived":false,"percentageOfSessions":null}, {"name":"Кунгуртуг","state":"Tuva","territory":"","country":"Russia","latitude":50.5986817,"longitude":97.5254386,"population":1467,"stateCapital":false,"nationalCapital":false,"pk":null,"quiz":"asia","code":null,"archived":false,"percentageOfSessions":null}, {"name":"Кундустуг","state":"Tuva","territory":"","country":"Russia","latitude":51.5734175,"longitude":95.1798664,"population":649,"stateCapital":false,"nationalCapital":false,"pk":null,"quiz":"asia","code":null,"archived":false,"percentageOfSessions":null}, {"name":"Куран","state":"Tuva","territory":"","country":"Russia","latitude":50.7958609,"longitude":95.2724868,"population":94,"stateCapital":false,"nationalCapital":false,"pk":null,"quiz":"asia","code":null,"archived":false,"percentageOfSessions":null}, {"name":"Кызыл","state":"Tuva","territory":"","country":"Russia","latitude":51.719079,"longitude":94.4300679,"population":109918,"stateCapital":true,"nationalCapital":false,"pk":null,"quiz":"asia","code":null,"archived":false,"percentageOfSessions":null}, {"name":"Кызыл-Арыг","state":"Tuva","territory":"","country":"Russia","latitude":50.9292407,"longitude":95.1963496,"population":650,"stateCapital":false,"nationalCapital":false,"pk":null,"quiz":"asia","code":null,"archived":false,"percentageOfSessions":null}, {"name":"Кызыл-Даг","state":"Tuva","territory":"","country":"Russia","latitude":51.0397186,"longitude":90.1068754,"population":857,"stateCapital":false,"nationalCapital":false,"pk":null,"quiz":"asia","code":null,"archived":false,"percentageOfSessions":null}, {"name":"Кызыл-Мажалык","state":"Tuva","territory":"","country":"Russia","latitude":51.1454611,"longitude":90.5814803,"population":5072,"stateCapital":false,"nationalCapital":false,"pk":null,"quiz":"asia","code":null,"archived":false,"percentageOfSessions":null}, {"name":"Кызыл-Тайга","state":"Tuva","territory":"","country":"Russia","latitude":51.4806993,"longitude":91.3890933,"population":538,"stateCapital":false,"nationalCapital":false,"pk":null,"quiz":"asia","code":null,"archived":false,"percentageOfSessions":null}, {"name":"Кызыл-Хая","state":"Tuva","territory":"","country":"Russia","latitude":50.0483456,"longitude":89.8706419,"population":1345,"stateCapital":false,"nationalCapital":false,"pk":null,"quiz":"asia","code":null,"archived":false,"percentageOfSessions":null}, {"name":"Ленинка","state":"Tuva","territory":"","country":"Russia","latitude":51.9903052,"longitude":93.8752053,"population":68,"stateCapital":false,"nationalCapital":false,"pk":null,"quiz":"asia","code":null,"archived":false,"percentageOfSessions":null}, {"name":"Марачевка","state":"Tuva","territory":"","country":"Russia","latitude":50.9366727,"longitude":95.0000173,"population":24,"stateCapital":false,"nationalCapital":false,"pk":null,"quiz":"asia","code":null,"archived":false,"percentageOfSessions":null}, {"name":"Межегей","state":"Tuva","territory":"","country":"Russia","latitude":51.2555542,"longitude":94.3219435,"population":1142,"stateCapital":false,"nationalCapital":false,"pk":null,"quiz":"asia","code":null,"archived":false,"percentageOfSessions":null}, {"name":"Мерген","state":"Tuva","territory":"","country":"Russia","latitude":51.5113124,"longitude":95.5663186,"population":64,"stateCapital":false,"nationalCapital":false,"pk":null,"quiz":"asia","code":null,"archived":false,"percentageOfSessions":null}, {"name":"Морен","state":"Tuva","territory":"","country":"Russia","latitude":50.3155303,"longitude":95.3711059,"population":1061,"stateCapital":false,"nationalCapital":false,"pk":null,"quiz":"asia","code":null,"archived":false,"percentageOfSessions":null}, {"name":"Мугур-Аксы","state":"Tuva","territory":"","country":"Russia","latitude":50.3800035,"longitude":90.441721,"population":4153,"stateCapital":false,"nationalCapital":false,"pk":null,"quiz":"asia","code":null,"archived":false,"percentageOfSessions":null}, {"name":"Найырал","state":"Tuva","territory":"","country":"Russia","latitude":52.1510599,"longitude":93.9396681,"population":401,"stateCapital":false,"nationalCapital":false,"pk":null,"quiz":"asia","code":null,"archived":false,"percentageOfSessions":null}, {"name":"Нарын","state":"Tuva","territory":"","country":"Russia","latitude":50.1998486,"longitude":95.5698333,"population":1691,"stateCapital":false,"nationalCapital":false,"pk":null,"quiz":"asia","code":null,"archived":false,"percentageOfSessions":null}, {"name":"Оттук-Даш","state":"Tuva","territory":"","country":"Russia","latitude":51.5650461,"longitude":93.6013308,"population":130,"stateCapital":false,"nationalCapital":false,"pk":null,"quiz":"asia","code":null,"archived":false,"percentageOfSessions":null}, {"name":"Оттук-Даш","state":"Tuva","territory":"","country":"Russia","latitude":50.57337,"longitude":97.7657016,"population":171,"stateCapital":false,"nationalCapital":false,"pk":null,"quiz":"asia","code":null,"archived":false,"percentageOfSessions":null}, {"name":"О-Шынаа","state":"Tuva","territory":"","country":"Russia","latitude":50.658934,"longitude":93.7471198,"population":863,"stateCapital":false,"nationalCapital":false,"pk":null,"quiz":"asia","code":null,"archived":false,"percentageOfSessions":null}, {"name":"Саглы","state":"Tuva","territory":"","country":"Russia","latitude":50.4934482,"longitude":91.3298518,"population":815,"stateCapital":false,"nationalCapital":false,"pk":null,"quiz":"asia","code":null,"archived":false,"percentageOfSessions":null}, {"name":"Сайлыг","state":"Tuva","territory":"","country":"Russia","latitude":51.1235704,"longitude":93.6846541,"population":1147,"stateCapital":false,"nationalCapital":false,"pk":null,"quiz":"asia","code":null,"archived":false,"percentageOfSessions":null}, {"name":"Салдам","state":"Tuva","territory":"","country":"Russia","latitude":52.4803,"longitude":96.0928,"population":545,"stateCapital":false,"nationalCapital":false,"pk":null,"quiz":"asia","code":null,"archived":false,"percentageOfSessions":null}, {"name":"Самагалтай","state":"Tuva","territory":"","country":"Russia","latitude":50.5999571,"longitude":95.001846,"population":3233,"stateCapital":false,"nationalCapital":false,"pk":null,"quiz":"asia","code":null,"archived":false,"percentageOfSessions":null}, {"name":"Сарыг-Сеп","state":"Tuva","territory":"","country":"Russia","latitude":51.492626,"longitude":95.554681,"population":4417,"stateCapital":false,"nationalCapital":false,"pk":null,"quiz":"asia","code":null,"archived":false,"percentageOfSessions":null}, {"name":"Севи","state":"Tuva","territory":"","country":"Russia","latitude":52.489418,"longitude":94.9264865,"population":54,"stateCapital":false,"nationalCapital":false,"pk":null,"quiz":"asia","code":null,"archived":false,"percentageOfSessions":null}, {"name":"Сесерлиг","state":"Tuva","territory":"","country":"Russia","latitude":51.8768916,"longitude":94.258762,"population":716,"stateCapital":false,"nationalCapital":false,"pk":null,"quiz":"asia","code":null,"archived":false,"percentageOfSessions":null}, {"name":"Сизим","state":"Tuva","territory":"","country":"Russia","latitude":51.3192221,"longitude":95.9441084,"population":345,"stateCapital":false,"nationalCapital":false,"pk":null,"quiz":"asia","code":null,"archived":false,"percentageOfSessions":null}, {"name":"Сой","state":"Tuva","territory":"","country":"Russia","latitude":51.003366,"longitude":95.2275229,"population":324,"stateCapital":false,"nationalCapital":false,"pk":null,"quiz":"asia","code":null,"archived":false,"percentageOfSessions":null}, {"name":"Солчур","state":"Tuva","territory":"","country":"Russia","latitude":50.7489479,"longitude":92.031431,"population":936,"stateCapital":false,"nationalCapital":false,"pk":null,"quiz":"asia","code":null,"archived":false,"percentageOfSessions":null}, {"name":"Сосновка","state":"Tuva","territory":"","country":"Russia","latitude":51.1453988,"longitude":94.5236342,"population":741,"stateCapital":false,"nationalCapital":false,"pk":null,"quiz":"asia","code":null,"archived":false,"percentageOfSessions":null}, {"name":"Суг-Аксы","state":"Tuva","territory":"","country":"Russia","latitude":51.402248,"longitude":91.278786,"population":3184,"stateCapital":false,"nationalCapital":false,"pk":null,"quiz":"asia","code":null,"archived":false,"percentageOfSessions":null}, {"name":"Суг-Бажы","state":"Tuva","territory":"","country":"Russia","latitude":51.6560787,"longitude":94.8554704,"population":786,"stateCapital":false,"nationalCapital":false,"pk":null,"quiz":"asia","code":null,"archived":false,"percentageOfSessions":null}, {"name":"Сукпак","state":"Tuva","territory":"","country":"Russia","latitude":51.6473874,"longitude":94.2671278,"population":4187,"stateCapital":false,"nationalCapital":false,"pk":null,"quiz":"asia","code":null,"archived":false,"percentageOfSessions":null}, {"name":"Суш","state":"Tuva","territory":"","country":"Russia","latitude":52.0630166,"longitude":94.1625176,"population":494,"stateCapital":false,"nationalCapital":false,"pk":null,"quiz":"asia","code":null,"archived":false,"percentageOfSessions":null}, {"name":"Сыстыг-Хем","state":"Tuva","territory":"","country":"Russia","latitude":52.6659379,"longitude":95.5077889,"population":144,"stateCapital":false,"nationalCapital":false,"pk":null,"quiz":"asia","code":null,"archived":false,"percentageOfSessions":null}, {"name":"Тал","state":"Tuva","territory":"","country":"Russia","latitude":50.3139661,"longitude":97.4582703,"population":96,"stateCapital":false,"nationalCapital":false,"pk":null,"quiz":"asia","code":null,"archived":false,"percentageOfSessions":null}, {"name":"Тарлаг","state":"Tuva","territory":"","country":"Russia","latitude":52.0673346,"longitude":93.4099547,"population":486,"stateCapital":false,"nationalCapital":false,"pk":null,"quiz":"asia","code":null,"archived":false,"percentageOfSessions":null}, {"name":"Теве-Хая","state":"Tuva","territory":"","country":"Russia","latitude":51.3658128,"longitude":91.4509672,"population":1476,"stateCapital":false,"nationalCapital":false,"pk":null,"quiz":"asia","code":null,"archived":false,"percentageOfSessions":null}, {"name":"Терлиг-Хая","state":"Tuva","territory":"","country":"Russia","latitude":51.7104566,"longitude":93.5235071,"population":497,"stateCapital":false,"nationalCapital":false,"pk":null,"quiz":"asia","code":null,"archived":false,"percentageOfSessions":null}, {"name":"Тоолайлыг","state":"Tuva","territory":"","country":"Russia","latitude":50.531638,"longitude":90.6561789,"population":163,"stateCapital":false,"nationalCapital":false,"pk":null,"quiz":"asia","code":null,"archived":false,"percentageOfSessions":null}, {"name":"Тоора-Хем","state":"Tuva","territory":"","country":"Russia","latitude":52.4679232,"longitude":96.117896,"population":2387,"stateCapital":false,"nationalCapital":false,"pk":null,"quiz":"asia","code":null,"archived":false,"percentageOfSessions":null}, {"name":"Торгалыг","state":"Tuva","territory":"","country":"Russia","latitude":51.3301908,"longitude":92.8239747,"population":1198,"stateCapital":false,"nationalCapital":false,"pk":null,"quiz":"asia","code":null,"archived":false,"percentageOfSessions":null}, {"name":"Туран","state":"Tuva","territory":"","country":"Russia","latitude":52.1458093,"longitude":93.9186434,"population":4981,"stateCapital":false,"nationalCapital":false,"pk":null,"quiz":"asia","code":null,"archived":false,"percentageOfSessions":null}, {"name":"Тээли","state":"Tuva","territory":"","country":"Russia","latitude":51.0110954,"longitude":90.2043058,"population":3390,"stateCapital":false,"nationalCapital":false,"pk":null,"quiz":"asia","code":null,"archived":false,"percentageOfSessions":null}, {"name":"Успенка","state":"Tuva","territory":"","country":"Russia","latitude":51.2344759,"longitude":94.2477472,"population":424,"stateCapital":false,"nationalCapital":false,"pk":null,"quiz":"asia","code":null,"archived":false,"percentageOfSessions":null}, {"name":"Усть-Бурен","state":"Tuva","territory":"","country":"Russia","latitude":51.4138176,"longitude":95.6560897,"population":513,"stateCapital":false,"nationalCapital":false,"pk":null,"quiz":"asia","code":null,"archived":false,"percentageOfSessions":null}, {"name":"Усть-Ужеп","state":"Tuva","territory":"","country":"Russia","latitude":51.3294147,"longitude":96.2546187,"population":168,"stateCapital":false,"nationalCapital":false,"pk":null,"quiz":"asia","code":null,"archived":false,"percentageOfSessions":null}, {"name":"Усть-Хадын","state":"Tuva","territory":"","country":"Russia","latitude":51.288216,"longitude":94.568761,"population":182,"stateCapital":false,"nationalCapital":false,"pk":null,"quiz":"asia","code":null,"archived":false,"percentageOfSessions":null}, {"name":"Усть-Элегест","state":"Tuva","territory":"","country":"Russia","latitude":51.5641892,"longitude":94.0993685,"population":1315,"stateCapital":false,"nationalCapital":false,"pk":null,"quiz":"asia","code":null,"archived":false,"percentageOfSessions":null}, {"name":"Уш-Белдир","state":"Tuva","territory":"","country":"Russia","latitude":51.4717472,"longitude":98.0534747,"population":3,"stateCapital":false,"nationalCapital":false,"pk":null,"quiz":"asia","code":null,"archived":false,"percentageOfSessions":null}, {"name":"Уюк","state":"Tuva","territory":"","country":"Russia","latitude":52.0776634,"longitude":94.0316506,"population":736,"stateCapital":false,"nationalCapital":false,"pk":null,"quiz":"asia","code":null,"archived":false,"percentageOfSessions":null}, {"name":"Хадын","state":"Tuva","territory":"","country":"Russia","latitude":51.9561678,"longitude":93.6290708,"population":677,"stateCapital":false,"nationalCapital":false,"pk":null,"quiz":"asia","code":null,"archived":false,"percentageOfSessions":null}, {"name":"Хайыракан","state":"Tuva","territory":"","country":"Russia","latitude":51.2969649,"longitude":91.5635592,"population":1337,"stateCapital":false,"nationalCapital":false,"pk":null,"quiz":"asia","code":null,"archived":false,"percentageOfSessions":null}, {"name":"Хайыракан","state":"Tuva","territory":"","country":"Russia","latitude":51.5644653,"longitude":93.140133,"population":1872,"stateCapital":false,"nationalCapital":false,"pk":null,"quiz":"asia","code":null,"archived":false,"percentageOfSessions":null}, {"name":"Хандагайты","state":"Tuva","territory":"","country":"Russia","latitude":50.7330745,"longitude":92.0726451,"population":3207,"stateCapital":false,"nationalCapital":false,"pk":null,"quiz":"asia","code":null,"archived":false,"percentageOfSessions":null}, {"name":"Хемчик","state":"Tuva","territory":"","country":"Russia","latitude":51.0179155,"longitude":90.187257,"population":800,"stateCapital":false,"nationalCapital":false,"pk":null,"quiz":"asia","code":null,"archived":false,"percentageOfSessions":null}, {"name":"Хову-Аксы","state":"Tuva","territory":"","country":"Russia","latitude":51.131943,"longitude":93.715744,"population":3672,"stateCapital":false,"nationalCapital":false,"pk":null,"quiz":"asia","code":null,"archived":false,"percentageOfSessions":null}, {"name":"Холчук","state":"Tuva","territory":"","country":"Russia","latitude":51.0748276,"longitude":93.2771986,"population":209,"stateCapital":false,"nationalCapital":false,"pk":null,"quiz":"asia","code":null,"archived":false,"percentageOfSessions":null}, {"name":"Холь-Оожу","state":"Tuva","territory":"","country":"Russia","latitude":50.7394457,"longitude":94.4130714,"population":411,"stateCapital":false,"nationalCapital":false,"pk":null,"quiz":"asia","code":null,"archived":false,"percentageOfSessions":null}, {"name":"Хонделен","state":"Tuva","territory":"","country":"Russia","latitude":51.2528323,"longitude":90.3056838,"population":559,"stateCapital":false,"nationalCapital":false,"pk":null,"quiz":"asia","code":null,"archived":false,"percentageOfSessions":null}, {"name":"Хондергей","state":"Tuva","territory":"","country":"Russia","latitude":51.1280656,"longitude":91.6193587,"population":916,"stateCapital":false,"nationalCapital":false,"pk":null,"quiz":"asia","code":null,"archived":false,"percentageOfSessions":null}, {"name":"Хорум-Даг","state":"Tuva","territory":"","country":"Russia","latitude":51.2823568,"longitude":91.0480747,"population":447,"stateCapital":false,"nationalCapital":false,"pk":null,"quiz":"asia","code":null,"archived":false,"percentageOfSessions":null}, {"name":"Хут","state":"Tuva","territory":"","country":"Russia","latitude":52.6119734,"longitude":94.5529206,"population":331,"stateCapital":false,"nationalCapital":false,"pk":null,"quiz":"asia","code":null,"archived":false,"percentageOfSessions":null}, {"name":"Целинное","state":"Tuva","territory":"","country":"Russia","latitude":51.3288301,"longitude":94.8057351,"population":1280,"stateCapital":false,"nationalCapital":false,"pk":null,"quiz":"asia","code":null,"archived":false,"percentageOfSessions":null}, {"name":"Чаа-Суур","state":"Tuva","territory":"","country":"Russia","latitude":50.8233451,"longitude":92.7598487,"population":620,"stateCapital":false,"nationalCapital":false,"pk":null,"quiz":"asia","code":null,"archived":false,"percentageOfSessions":null}, {"name":"Чаа-Холь","state":"Tuva","territory":"","country":"Russia","latitude":51.5141315,"longitude":92.3348586,"population":3250,"stateCapital":false,"nationalCapital":false,"pk":null,"quiz":"asia","code":null,"archived":false,"percentageOfSessions":null}, {"name":"Чадан","state":"Tuva","territory":"","country":"Russia","latitude":51.2840385,"longitude":91.5666701,"population":9035,"stateCapital":false,"nationalCapital":false,"pk":null,"quiz":"asia","code":null,"archived":false,"percentageOfSessions":null}, {"name":"Чазылары","state":"Tuva","territory":"","country":"Russia","latitude":52.7542023,"longitude":97.4257898,"population":137,"stateCapital":false,"nationalCapital":false,"pk":null,"quiz":"asia","code":null,"archived":false,"percentageOfSessions":null}, {"name":"Чал-Кежиг","state":"Tuva","territory":"","country":"Russia","latitude":51.2966733,"longitude":93.9343032,"population":308,"stateCapital":false,"nationalCapital":false,"pk":null,"quiz":"asia","code":null,"archived":false,"percentageOfSessions":null}, {"name":"Черби","state":"Tuva","territory":"","country":"Russia","latitude":51.888064,"longitude":94.5928084,"population":1127,"stateCapital":false,"nationalCapital":false,"pk":null,"quiz":"asia","code":null,"archived":false,"percentageOfSessions":null}, {"name":"Чкаловка","state":"Tuva","territory":"","country":"Russia","latitude":52.0275263,"longitude":93.5070574,"population":47,"stateCapital":false,"nationalCapital":false,"pk":null,"quiz":"asia","code":null,"archived":false,"percentageOfSessions":null}, {"name":"Чодураа","state":"Tuva","territory":"","country":"Russia","latitude":51.3752608,"longitude":92.884032,"population":814,"stateCapital":false,"nationalCapital":false,"pk":null,"quiz":"asia","code":null,"archived":false,"percentageOfSessions":null}, {"name":"Чыраа-Бажы","state":"Tuva","territory":"","country":"Russia","latitude":51.1684485,"longitude":91.0529139,"population":1515,"stateCapital":false,"nationalCapital":false,"pk":null,"quiz":"asia","code":null,"archived":false,"percentageOfSessions":null}, {"name":"Чыргакы","state":"Tuva","territory":"","country":"Russia","latitude":51.0626357,"longitude":91.0066429,"population":794,"stateCapital":false,"nationalCapital":false,"pk":null,"quiz":"asia","code":null,"archived":false,"percentageOfSessions":null}, {"name":"Шагонар","state":"Tuva","territory":"","country":"Russia","latitude":51.538721,"longitude":92.9194074,"population":10956,"stateCapital":false,"nationalCapital":false,"pk":null,"quiz":"asia","code":null,"archived":false,"percentageOfSessions":null}, {"name":"Шамбалыг","state":"Tuva","territory":"","country":"Russia","latitude":51.2406402,"longitude":95.0914385,"population":510,"stateCapital":false,"nationalCapital":false,"pk":null,"quiz":"asia","code":null,"archived":false,"percentageOfSessions":null}, {"name":"Шанчы","state":"Tuva","territory":"","country":"Russia","latitude":51.6060807,"longitude":91.9618584,"population":303,"stateCapital":false,"nationalCapital":false,"pk":null,"quiz":"asia","code":null,"archived":false,"percentageOfSessions":null}, {"name":"Шекпээр","state":"Tuva","territory":"","country":"Russia","latitude":51.1680063,"longitude":90.6801362,"population":1272,"stateCapital":false,"nationalCapital":false,"pk":null,"quiz":"asia","code":null,"archived":false,"percentageOfSessions":null}, {"name":"Шеми","state":"Tuva","territory":"","country":"Russia","latitude":51.1566992,"longitude":91.2914366,"population":1111,"stateCapital":false,"nationalCapital":false,"pk":null,"quiz":"asia","code":null,"archived":false,"percentageOfSessions":null}, {"name":"Шивилиг","state":"Tuva","territory":"","country":"Russia","latitude":52.2398849,"longitude":93.7104046,"population":208,"stateCapital":false,"nationalCapital":false,"pk":null,"quiz":"asia","code":null,"archived":false,"percentageOfSessions":null}, {"name":"Шуй","state":"Tuva","territory":"","country":"Russia","latitude":50.886521,"longitude":90.3405632,"population":1832,"stateCapital":false,"nationalCapital":false,"pk":null,"quiz":"asia","code":null,"archived":false,"percentageOfSessions":null}, {"name":"Шуурмак","state":"Tuva","territory":"","country":"Russia","latitude":50.6532098,"longitude":95.3271335,"population":659,"stateCapital":false,"nationalCapital":false,"pk":null,"quiz":"asia","code":null,"archived":false,"percentageOfSessions":null}, {"name":"Ырбан","state":"Tuva","territory":"","country":"Russia","latitude":52.7137562,"longitude":95.7278747,"population":325,"stateCapital":false,"nationalCapital":false,"pk":null,"quiz":"asia","code":null,"archived":false,"percentageOfSessions":null}, {"name":"Эйлиг-Хем","state":"Tuva","territory":"","country":"Russia","latitude":51.6130028,"longitude":92.6727561,"population":656,"stateCapital":false,"nationalCapital":false,"pk":null,"quiz":"asia","code":null,"archived":false,"percentageOfSessions":null}, {"name":"Элдиг-Хем","state":"Tuva","territory":"","country":"Russia","latitude":50.8703093,"longitude":91.1070559,"population":227,"stateCapital":false,"nationalCapital":false,"pk":null,"quiz":"asia","code":null,"archived":false,"percentageOfSessions":null}, {"name":"Элегест","state":"Tuva","territory":"","country":"Russia","latitude":51.3638133,"longitude":93.9628826,"population":1431,"stateCapital":false,"nationalCapital":false,"pk":null,"quiz":"asia","code":null,"archived":false,"percentageOfSessions":null}, {"name":"Эрги-Барлык","state":"Tuva","territory":"","country":"Russia","latitude":50.9360174,"longitude":90.4048361,"population":1618,"stateCapital":false,"nationalCapital":false,"pk":null,"quiz":"asia","code":null,"archived":false,"percentageOfSessions":null}, {"name":"Эржей","state":"Tuva","territory":"","country":"Russia","latitude":51.3368742,"longitude":95.9342139,"population":232,"stateCapital":false,"nationalCapital":false,"pk":null,"quiz":"asia","code":null,"archived":false,"percentageOfSessions":null}, {"name":"Эрзин","state":"Tuva","territory":"","country":"Russia","latitude":50.2599782,"longitude":95.1582961,"population":3191,"stateCapital":false,"nationalCapital":false,"pk":null,"quiz":"asia","code":null,"archived":false,"percentageOfSessions":null}, {"name":"Ээрбек","state":"Tuva","territory":"","country":"Russia","latitude":51.6508488,"longitude":94.2090227,"population":1168,"stateCapital":false,"nationalCapital":false,"pk":null,"quiz":"asia","code":null,"archived":false,"percentageOfSessions":null}, {"name":"Ээр-Хавак","state":"Tuva","territory":"","country":"Russia","latitude":51.0109326,"longitude":90.2606267,"population":167,"stateCapital":false,"nationalCapital":false,"pk":null,"quiz":"asia","code":null,"archived":false,"percentageOfSessions":null}],"startTimeMs":0}