{"cities":[{"name":"Адиюх","state":"Kabardino Balkaria","territory":"","country":"Russia","latitude":43.5187872,"longitude":43.7045386,"population":1902,"stateCapital":false,"nationalCapital":false,"pk":null,"quiz":"asia","code":null,"archived":false,"percentageOfSessions":null}, {"name":"Акведук","state":"Kabardino Balkaria","territory":"","country":"Russia","latitude":43.6223298,"longitude":44.4382757,"population":9,"stateCapital":false,"nationalCapital":false,"pk":null,"quiz":"asia","code":null,"archived":false,"percentageOfSessions":null}, {"name":"Александровская","state":"Kabardino Balkaria","territory":"","country":"Russia","latitude":43.4851199,"longitude":44.065304,"population":3701,"stateCapital":false,"nationalCapital":false,"pk":null,"quiz":"asia","code":null,"archived":false,"percentageOfSessions":null}, {"name":"Александровский","state":"Kabardino Balkaria","territory":"","country":"Russia","latitude":43.6938141,"longitude":43.8065966,"population":282,"stateCapital":false,"nationalCapital":false,"pk":null,"quiz":"asia","code":null,"archived":false,"percentageOfSessions":null}, {"name":"Алтуд","state":"Kabardino Balkaria","territory":"","country":"Russia","latitude":43.719731,"longitude":43.8663952,"population":5326,"stateCapital":false,"nationalCapital":false,"pk":null,"quiz":"asia","code":null,"archived":false,"percentageOfSessions":null}, {"name":"Анзорей","state":"Kabardino Balkaria","territory":"","country":"Russia","latitude":43.3549219,"longitude":43.9398825,"population":6551,"stateCapital":false,"nationalCapital":false,"pk":null,"quiz":"asia","code":null,"archived":false,"percentageOfSessions":null}, {"name":"Аргудан","state":"Kabardino Balkaria","territory":"","country":"Russia","latitude":43.4118144,"longitude":43.9045102,"population":8185,"stateCapital":false,"nationalCapital":false,"pk":null,"quiz":"asia","code":null,"archived":false,"percentageOfSessions":null}, {"name":"Арик","state":"Kabardino Balkaria","territory":"","country":"Russia","latitude":43.5817625,"longitude":44.1230462,"population":2768,"stateCapital":false,"nationalCapital":false,"pk":null,"quiz":"asia","code":null,"archived":false,"percentageOfSessions":null}, {"name":"Атажукино","state":"Kabardino Balkaria","territory":"","country":"Russia","latitude":43.6500617,"longitude":43.4005054,"population":5516,"stateCapital":false,"nationalCapital":false,"pk":null,"quiz":"asia","code":null,"archived":false,"percentageOfSessions":null}, {"name":"Аушигер","state":"Kabardino Balkaria","territory":"","country":"Russia","latitude":43.390178,"longitude":43.7330628,"population":4807,"stateCapital":false,"nationalCapital":false,"pk":null,"quiz":"asia","code":null,"archived":false,"percentageOfSessions":null}, {"name":"Бабугент","state":"Kabardino Balkaria","territory":"","country":"Russia","latitude":43.2784143,"longitude":43.5473535,"population":3408,"stateCapital":false,"nationalCapital":false,"pk":null,"quiz":"asia","code":null,"archived":false,"percentageOfSessions":null}, {"name":"Байдаево","state":"Kabardino Balkaria","territory":"","country":"Russia","latitude":43.2481427,"longitude":42.5770829,"population":64,"stateCapital":false,"nationalCapital":false,"pk":null,"quiz":"asia","code":null,"archived":false,"percentageOfSessions":null}, {"name":"Баксан","state":"Kabardino Balkaria","territory":"","country":"Russia","latitude":43.6820626,"longitude":43.5344319,"population":36860,"stateCapital":false,"nationalCapital":false,"pk":null,"quiz":"asia","code":null,"archived":false,"percentageOfSessions":null}, {"name":"Баксан","state":"Kabardino Balkaria","territory":"","country":"Russia","latitude":43.6875091,"longitude":44.0827258,"population":30,"stateCapital":false,"nationalCapital":false,"pk":null,"quiz":"asia","code":null,"archived":false,"percentageOfSessions":null}, {"name":"Баксаненок","state":"Kabardino Balkaria","territory":"","country":"Russia","latitude":43.6849532,"longitude":43.6535532,"population":7220,"stateCapital":false,"nationalCapital":false,"pk":null,"quiz":"asia","code":null,"archived":false,"percentageOfSessions":null}, {"name":"Баксанский","state":"Kabardino Balkaria","territory":"","country":"Russia","latitude":43.6631937,"longitude":43.9444128,"population":37,"stateCapital":false,"nationalCapital":false,"pk":null,"quiz":"asia","code":null,"archived":false,"percentageOfSessions":null}, {"name":"Батех","state":"Kabardino Balkaria","territory":"","country":"Russia","latitude":43.8512293,"longitude":43.2292012,"population":1274,"stateCapital":false,"nationalCapital":false,"pk":null,"quiz":"asia","code":null,"archived":false,"percentageOfSessions":null}, {"name":"Бедык","state":"Kabardino Balkaria","territory":"","country":"Russia","latitude":43.5117358,"longitude":43.1533029,"population":469,"stateCapital":false,"nationalCapital":false,"pk":null,"quiz":"asia","code":null,"archived":false,"percentageOfSessions":null}, {"name":"Безенги","state":"Kabardino Balkaria","territory":"","country":"Russia","latitude":43.2153505,"longitude":43.2861934,"population":1006,"stateCapital":false,"nationalCapital":false,"pk":null,"quiz":"asia","code":null,"archived":false,"percentageOfSessions":null}, {"name":"Белая Речка","state":"Kabardino Balkaria","territory":"","country":"Russia","latitude":43.431337,"longitude":43.532145,"population":3430,"stateCapital":false,"nationalCapital":false,"pk":null,"quiz":"asia","code":null,"archived":false,"percentageOfSessions":null}, {"name":"Белоглинское","state":"Kabardino Balkaria","territory":"","country":"Russia","latitude":43.4554753,"longitude":44.2137756,"population":414,"stateCapital":false,"nationalCapital":false,"pk":null,"quiz":"asia","code":null,"archived":false,"percentageOfSessions":null}, {"name":"Белокаменское","state":"Kabardino Balkaria","territory":"","country":"Russia","latitude":43.8826692,"longitude":43.025866,"population":602,"stateCapital":false,"nationalCapital":false,"pk":null,"quiz":"asia","code":null,"archived":false,"percentageOfSessions":null}, {"name":"Благовещенка","state":"Kabardino Balkaria","territory":"","country":"Russia","latitude":43.6907769,"longitude":43.7665565,"population":299,"stateCapital":false,"nationalCapital":false,"pk":null,"quiz":"asia","code":null,"archived":false,"percentageOfSessions":null}, {"name":"Будка 612 км","state":"Kabardino Balkaria","territory":"","country":"Russia","latitude":43.5878788,"longitude":44.0873033,"population":0,"stateCapital":false,"nationalCapital":false,"pk":null,"quiz":"asia","code":null,"archived":false,"percentageOfSessions":null}, {"name":"Булунгу","state":"Kabardino Balkaria","territory":"","country":"Russia","latitude":43.2397166,"longitude":43.132451,"population":875,"stateCapital":false,"nationalCapital":false,"pk":null,"quiz":"asia","code":null,"archived":false,"percentageOfSessions":null}, {"name":"Былым","state":"Kabardino Balkaria","territory":"","country":"Russia","latitude":43.4627103,"longitude":43.0378994,"population":2052,"stateCapital":false,"nationalCapital":false,"pk":null,"quiz":"asia","code":null,"archived":false,"percentageOfSessions":null}, {"name":"Верхний Акбаш","state":"Kabardino Balkaria","territory":"","country":"Russia","latitude":43.4721326,"longitude":44.2371726,"population":2661,"stateCapital":false,"nationalCapital":false,"pk":null,"quiz":"asia","code":null,"archived":false,"percentageOfSessions":null}, {"name":"Верхний Баксан","state":"Kabardino Balkaria","territory":"","country":"Russia","latitude":43.3113127,"longitude":42.7536395,"population":448,"stateCapital":false,"nationalCapital":false,"pk":null,"quiz":"asia","code":null,"archived":false,"percentageOfSessions":null}, {"name":"Верхний Куркужин","state":"Kabardino Balkaria","territory":"","country":"Russia","latitude":43.6937577,"longitude":43.2767476,"population":3060,"stateCapital":false,"nationalCapital":false,"pk":null,"quiz":"asia","code":null,"archived":false,"percentageOfSessions":null}, {"name":"Верхний Курп","state":"Kabardino Balkaria","territory":"","country":"Russia","latitude":43.4672779,"longitude":44.3664836,"population":1563,"stateCapital":false,"nationalCapital":false,"pk":null,"quiz":"asia","code":null,"archived":false,"percentageOfSessions":null}, {"name":"Верхний Лескен","state":"Kabardino Balkaria","territory":"","country":"Russia","latitude":43.2175624,"longitude":43.7416475,"population":173,"stateCapital":false,"nationalCapital":false,"pk":null,"quiz":"asia","code":null,"archived":false,"percentageOfSessions":null}, {"name":"Верхняя Балкария","state":"Kabardino Balkaria","territory":"","country":"Russia","latitude":43.1252925,"longitude":43.4578875,"population":4177,"stateCapital":false,"nationalCapital":false,"pk":null,"quiz":"asia","code":null,"archived":false,"percentageOfSessions":null}, {"name":"Верхняя Жемтала","state":"Kabardino Balkaria","territory":"","country":"Russia","latitude":43.233349,"longitude":43.668392,"population":1614,"stateCapital":false,"nationalCapital":false,"pk":null,"quiz":"asia","code":null,"archived":false,"percentageOfSessions":null}, {"name":"Виноградное","state":"Kabardino Balkaria","territory":"","country":"Russia","latitude":43.845154,"longitude":44.1128883,"population":527,"stateCapital":false,"nationalCapital":false,"pk":null,"quiz":"asia","code":null,"archived":false,"percentageOfSessions":null}, {"name":"Восточное","state":"Kabardino Balkaria","territory":"","country":"Russia","latitude":43.8998879,"longitude":44.1818587,"population":269,"stateCapital":false,"nationalCapital":false,"pk":null,"quiz":"asia","code":null,"archived":false,"percentageOfSessions":null}, {"name":"Второй Лескен","state":"Kabardino Balkaria","territory":"","country":"Russia","latitude":43.3506587,"longitude":43.9103428,"population":2285,"stateCapital":false,"nationalCapital":false,"pk":null,"quiz":"asia","code":null,"archived":false,"percentageOfSessions":null}, {"name":"Гвардейское","state":"Kabardino Balkaria","territory":"","country":"Russia","latitude":43.9243912,"longitude":44.105691,"population":421,"stateCapital":false,"nationalCapital":false,"pk":null,"quiz":"asia","code":null,"archived":false,"percentageOfSessions":null}, {"name":"Герменчик","state":"Kabardino Balkaria","territory":"","country":"Russia","latitude":43.5853433,"longitude":43.7661516,"population":3838,"stateCapital":false,"nationalCapital":false,"pk":null,"quiz":"asia","code":null,"archived":false,"percentageOfSessions":null}, {"name":"Герпегеж","state":"Kabardino Balkaria","territory":"","country":"Russia","latitude":43.3729607,"longitude":43.6515236,"population":1198,"stateCapital":false,"nationalCapital":false,"pk":null,"quiz":"asia","code":null,"archived":false,"percentageOfSessions":null}, {"name":"Грабовец","state":"Kabardino Balkaria","territory":"","country":"Russia","latitude":43.6770885,"longitude":43.7404446,"population":213,"stateCapital":false,"nationalCapital":false,"pk":null,"quiz":"asia","code":null,"archived":false,"percentageOfSessions":null}, {"name":"Граничное","state":"Kabardino Balkaria","territory":"","country":"Russia","latitude":43.953473,"longitude":44.0374587,"population":434,"stateCapital":false,"nationalCapital":false,"pk":null,"quiz":"asia","code":null,"archived":false,"percentageOfSessions":null}, {"name":"Дальнее","state":"Kabardino Balkaria","territory":"","country":"Russia","latitude":43.9258687,"longitude":44.2897328,"population":750,"stateCapital":false,"nationalCapital":false,"pk":null,"quiz":"asia","code":null,"archived":false,"percentageOfSessions":null}, {"name":"Дейское","state":"Kabardino Balkaria","territory":"","country":"Russia","latitude":43.4769046,"longitude":44.1630172,"population":4630,"stateCapital":false,"nationalCapital":false,"pk":null,"quiz":"asia","code":null,"archived":false,"percentageOfSessions":null}, {"name":"Дженал","state":"Kabardino Balkaria","territory":"","country":"Russia","latitude":43.8234096,"longitude":43.1140634,"population":287,"stateCapital":false,"nationalCapital":false,"pk":null,"quiz":"asia","code":null,"archived":false,"percentageOfSessions":null}, {"name":"Джулат","state":"Kabardino Balkaria","territory":"","country":"Russia","latitude":43.6157546,"longitude":44.0926551,"population":272,"stateCapital":false,"nationalCapital":false,"pk":null,"quiz":"asia","code":null,"archived":false,"percentageOfSessions":null}, {"name":"Дыгулыбгей","state":"Kabardino Balkaria","territory":"","country":"Russia","latitude":43.6632456,"longitude":43.5394406,"population":20228,"stateCapital":false,"nationalCapital":false,"pk":null,"quiz":"asia","code":null,"archived":false,"percentageOfSessions":null}, {"name":"Екатериноградская","state":"Kabardino Balkaria","territory":"","country":"Russia","latitude":43.7634649,"longitude":44.2316858,"population":3675,"stateCapital":false,"nationalCapital":false,"pk":null,"quiz":"asia","code":null,"archived":false,"percentageOfSessions":null}, {"name":"Ерокко","state":"Kabardino Balkaria","territory":"","country":"Russia","latitude":43.3178415,"longitude":43.876519,"population":812,"stateCapital":false,"nationalCapital":false,"pk":null,"quiz":"asia","code":null,"archived":false,"percentageOfSessions":null}, {"name":"Жанхотеко","state":"Kabardino Balkaria","territory":"","country":"Russia","latitude":43.5604002,"longitude":43.208111,"population":1352,"stateCapital":false,"nationalCapital":false,"pk":null,"quiz":"asia","code":null,"archived":false,"percentageOfSessions":null}, {"name":"Жемтала","state":"Kabardino Balkaria","territory":"","country":"Russia","latitude":43.28286,"longitude":43.655602,"population":3260,"stateCapital":false,"nationalCapital":false,"pk":null,"quiz":"asia","code":null,"archived":false,"percentageOfSessions":null}, {"name":"Заводское","state":"Kabardino Balkaria","territory":"","country":"Russia","latitude":43.4877655,"longitude":44.225716,"population":512,"stateCapital":false,"nationalCapital":false,"pk":null,"quiz":"asia","code":null,"archived":false,"percentageOfSessions":null}, {"name":"Залукодес","state":"Kabardino Balkaria","territory":"","country":"Russia","latitude":43.835631,"longitude":43.1531165,"population":1624,"stateCapital":false,"nationalCapital":false,"pk":null,"quiz":"asia","code":null,"archived":false,"percentageOfSessions":null}, {"name":"Залукокоаже","state":"Kabardino Balkaria","territory":"","country":"Russia","latitude":43.8996316,"longitude":43.2179308,"population":9859,"stateCapital":false,"nationalCapital":false,"pk":null,"quiz":"asia","code":null,"archived":false,"percentageOfSessions":null}, {"name":"Зарагиж","state":"Kabardino Balkaria","territory":"","country":"Russia","latitude":43.3347362,"longitude":43.7120555,"population":1684,"stateCapital":false,"nationalCapital":false,"pk":null,"quiz":"asia","code":null,"archived":false,"percentageOfSessions":null}, {"name":"Заречное","state":"Kabardino Balkaria","territory":"","country":"Russia","latitude":43.9348336,"longitude":43.857862,"population":962,"stateCapital":false,"nationalCapital":false,"pk":null,"quiz":"asia","code":null,"archived":false,"percentageOfSessions":null}, {"name":"Заюково","state":"Kabardino Balkaria","territory":"","country":"Russia","latitude":43.6104487,"longitude":43.3287721,"population":11229,"stateCapital":false,"nationalCapital":false,"pk":null,"quiz":"asia","code":null,"archived":false,"percentageOfSessions":null}, {"name":"Звездный","state":"Kabardino Balkaria","territory":"","country":"Russia","latitude":43.5055711,"longitude":43.4893335,"population":1789,"stateCapital":false,"nationalCapital":false,"pk":null,"quiz":"asia","code":null,"archived":false,"percentageOfSessions":null}, {"name":"Зольское","state":"Kabardino Balkaria","territory":"","country":"Russia","latitude":43.8376362,"longitude":43.2030768,"population":1392,"stateCapital":false,"nationalCapital":false,"pk":null,"quiz":"asia","code":null,"archived":false,"percentageOfSessions":null}, {"name":"Инаркой","state":"Kabardino Balkaria","territory":"","country":"Russia","latitude":43.4855758,"longitude":44.3636557,"population":1512,"stateCapital":false,"nationalCapital":false,"pk":null,"quiz":"asia","code":null,"archived":false,"percentageOfSessions":null}, {"name":"Интернациональное","state":"Kabardino Balkaria","territory":"","country":"Russia","latitude":43.4801622,"longitude":44.1184917,"population":466,"stateCapital":false,"nationalCapital":false,"pk":null,"quiz":"asia","code":null,"archived":false,"percentageOfSessions":null}, {"name":"Исламей","state":"Kabardino Balkaria","territory":"","country":"Russia","latitude":43.6715554,"longitude":43.4596746,"population":11261,"stateCapital":false,"nationalCapital":false,"pk":null,"quiz":"asia","code":null,"archived":false,"percentageOfSessions":null}, {"name":"Кабардинка","state":"Kabardino Balkaria","territory":"","country":"Russia","latitude":43.6120306,"longitude":43.9793993,"population":99,"stateCapital":false,"nationalCapital":false,"pk":null,"quiz":"asia","code":null,"archived":false,"percentageOfSessions":null}, {"name":"Каменка","state":"Kabardino Balkaria","territory":"","country":"Russia","latitude":43.5373943,"longitude":43.5114486,"population":3312,"stateCapital":false,"nationalCapital":false,"pk":null,"quiz":"asia","code":null,"archived":false,"percentageOfSessions":null}, {"name":"Каменномостское","state":"Kabardino Balkaria","territory":"","country":"Russia","latitude":43.7329861,"longitude":43.0506969,"population":5758,"stateCapital":false,"nationalCapital":false,"pk":null,"quiz":"asia","code":null,"archived":false,"percentageOfSessions":null}, {"name":"Камлюково","state":"Kabardino Balkaria","territory":"","country":"Russia","latitude":43.7768461,"longitude":43.2600149,"population":2219,"stateCapital":false,"nationalCapital":false,"pk":null,"quiz":"asia","code":null,"archived":false,"percentageOfSessions":null}, {"name":"Карагач","state":"Kabardino Balkaria","territory":"","country":"Russia","latitude":43.8034456,"longitude":43.7706143,"population":5740,"stateCapital":false,"nationalCapital":false,"pk":null,"quiz":"asia","code":null,"archived":false,"percentageOfSessions":null}, {"name":"Карасу","state":"Kabardino Balkaria","territory":"","country":"Russia","latitude":43.29866,"longitude":43.413063,"population":507,"stateCapital":false,"nationalCapital":false,"pk":null,"quiz":"asia","code":null,"archived":false,"percentageOfSessions":null}, {"name":"Кахун","state":"Kabardino Balkaria","territory":"","country":"Russia","latitude":43.5387198,"longitude":43.8814668,"population":7106,"stateCapital":false,"nationalCapital":false,"pk":null,"quiz":"asia","code":null,"archived":false,"percentageOfSessions":null}, {"name":"Кашхатау","state":"Kabardino Balkaria","territory":"","country":"Russia","latitude":43.3191905,"longitude":43.6091174,"population":5295,"stateCapital":false,"nationalCapital":false,"pk":null,"quiz":"asia","code":null,"archived":false,"percentageOfSessions":null}, {"name":"Кенделен","state":"Kabardino Balkaria","territory":"","country":"Russia","latitude":43.5918655,"longitude":43.1900097,"population":6338,"stateCapital":false,"nationalCapital":false,"pk":null,"quiz":"asia","code":null,"archived":false,"percentageOfSessions":null}, {"name":"Кенже","state":"Kabardino Balkaria","territory":"","country":"Russia","latitude":43.4972513,"longitude":43.5551946,"population":9669,"stateCapital":false,"nationalCapital":false,"pk":null,"quiz":"asia","code":null,"archived":false,"percentageOfSessions":null}, {"name":"Кичмалка","state":"Kabardino Balkaria","territory":"","country":"Russia","latitude":43.7906012,"longitude":42.9473103,"population":1542,"stateCapital":false,"nationalCapital":false,"pk":null,"quiz":"asia","code":null,"archived":false,"percentageOfSessions":null}, {"name":"Кишпек","state":"Kabardino Balkaria","territory":"","country":"Russia","latitude":43.6489847,"longitude":43.6384818,"population":4554,"stateCapital":false,"nationalCapital":false,"pk":null,"quiz":"asia","code":null,"archived":false,"percentageOfSessions":null}, {"name":"Колдрасинский","state":"Kabardino Balkaria","territory":"","country":"Russia","latitude":43.6196501,"longitude":43.9211506,"population":219,"stateCapital":false,"nationalCapital":false,"pk":null,"quiz":"asia","code":null,"archived":false,"percentageOfSessions":null}, {"name":"Комсомольское","state":"Kabardino Balkaria","territory":"","country":"Russia","latitude":43.862411,"longitude":43.93787,"population":697,"stateCapital":false,"nationalCapital":false,"pk":null,"quiz":"asia","code":null,"archived":false,"percentageOfSessions":null}, {"name":"Котляревская","state":"Kabardino Balkaria","territory":"","country":"Russia","latitude":43.5751468,"longitude":44.0616747,"population":3468,"stateCapital":false,"nationalCapital":false,"pk":null,"quiz":"asia","code":null,"archived":false,"percentageOfSessions":null}, {"name":"Красная Поляна","state":"Kabardino Balkaria","territory":"","country":"Russia","latitude":43.6390704,"longitude":43.9985217,"population":56,"stateCapital":false,"nationalCapital":false,"pk":null,"quiz":"asia","code":null,"archived":false,"percentageOfSessions":null}, {"name":"Красноармейское","state":"Kabardino Balkaria","territory":"","country":"Russia","latitude":43.6350753,"longitude":44.1254439,"population":1560,"stateCapital":false,"nationalCapital":false,"pk":null,"quiz":"asia","code":null,"archived":false,"percentageOfSessions":null}, {"name":"Красносельское","state":"Kabardino Balkaria","territory":"","country":"Russia","latitude":43.9346992,"longitude":44.0361867,"population":1270,"stateCapital":false,"nationalCapital":false,"pk":null,"quiz":"asia","code":null,"archived":false,"percentageOfSessions":null}, {"name":"Кременчуг-Константиновское","state":"Kabardino Balkaria","territory":"","country":"Russia","latitude":43.7912515,"longitude":43.651603,"population":1603,"stateCapital":false,"nationalCapital":false,"pk":null,"quiz":"asia","code":null,"archived":false,"percentageOfSessions":null}, {"name":"Куба","state":"Kabardino Balkaria","territory":"","country":"Russia","latitude":43.8566952,"longitude":43.4458972,"population":5058,"stateCapital":false,"nationalCapital":false,"pk":null,"quiz":"asia","code":null,"archived":false,"percentageOfSessions":null}, {"name":"Куба-Таба","state":"Kabardino Balkaria","territory":"","country":"Russia","latitude":43.7750586,"longitude":43.4432024,"population":3068,"stateCapital":false,"nationalCapital":false,"pk":null,"quiz":"asia","code":null,"archived":false,"percentageOfSessions":null}, {"name":"Куян","state":"Kabardino Balkaria","territory":"","country":"Russia","latitude":43.6230849,"longitude":44.1309736,"population":561,"stateCapital":false,"nationalCapital":false,"pk":null,"quiz":"asia","code":null,"archived":false,"percentageOfSessions":null}, {"name":"Лашкута","state":"Kabardino Balkaria","territory":"","country":"Russia","latitude":43.5523551,"longitude":43.2099917,"population":770,"stateCapital":false,"nationalCapital":false,"pk":null,"quiz":"asia","code":null,"archived":false,"percentageOfSessions":null}, {"name":"Лесное","state":"Kabardino Balkaria","territory":"","country":"Russia","latitude":43.6766865,"longitude":44.1087024,"population":65,"stateCapital":false,"nationalCapital":false,"pk":null,"quiz":"asia","code":null,"archived":false,"percentageOfSessions":null}, {"name":"Лесное","state":"Kabardino Balkaria","territory":"","country":"Russia","latitude":43.7753063,"longitude":43.8881604,"population":850,"stateCapital":false,"nationalCapital":false,"pk":null,"quiz":"asia","code":null,"archived":false,"percentageOfSessions":null}, {"name":"Лечинкай","state":"Kabardino Balkaria","territory":"","country":"Russia","latitude":43.561329,"longitude":43.430252,"population":4206,"stateCapital":false,"nationalCapital":false,"pk":null,"quiz":"asia","code":null,"archived":false,"percentageOfSessions":null}, {"name":"Майский","state":"Kabardino Balkaria","territory":"","country":"Russia","latitude":43.6282481,"longitude":44.0518741,"population":26755,"stateCapital":false,"nationalCapital":false,"pk":null,"quiz":"asia","code":null,"archived":false,"percentageOfSessions":null}, {"name":"Малакановское","state":"Kabardino Balkaria","territory":"","country":"Russia","latitude":44.0071617,"longitude":44.3913128,"population":538,"stateCapital":false,"nationalCapital":false,"pk":null,"quiz":"asia","code":null,"archived":false,"percentageOfSessions":null}, {"name":"Малка","state":"Kabardino Balkaria","territory":"","country":"Russia","latitude":43.7999498,"longitude":43.3276187,"population":6664,"stateCapital":false,"nationalCapital":false,"pk":null,"quiz":"asia","code":null,"archived":false,"percentageOfSessions":null}, {"name":"Малый Терек","state":"Kabardino Balkaria","territory":"","country":"Russia","latitude":43.6316956,"longitude":44.2685939,"population":53,"stateCapital":false,"nationalCapital":false,"pk":null,"quiz":"asia","code":null,"archived":false,"percentageOfSessions":null}, {"name":"Матвеевский","state":"Kabardino Balkaria","territory":"","country":"Russia","latitude":43.7449378,"longitude":43.9551369,"population":244,"stateCapital":false,"nationalCapital":false,"pk":null,"quiz":"asia","code":null,"archived":false,"percentageOfSessions":null}, {"name":"Минский","state":"Kabardino Balkaria","territory":"","country":"Russia","latitude":43.6868846,"longitude":43.7758173,"population":227,"stateCapital":false,"nationalCapital":false,"pk":null,"quiz":"asia","code":null,"archived":false,"percentageOfSessions":null}, {"name":"Морзох","state":"Kabardino Balkaria","territory":"","country":"Russia","latitude":43.5678968,"longitude":43.8415817,"population":1200,"stateCapital":false,"nationalCapital":false,"pk":null,"quiz":"asia","code":null,"archived":false,"percentageOfSessions":null}, {"name":"Нальчик","state":"Kabardino Balkaria","territory":"","country":"Russia","latitude":43.4769604,"longitude":43.5966578,"population":240203,"stateCapital":true,"nationalCapital":false,"pk":null,"quiz":"asia","code":null,"archived":false,"percentageOfSessions":null}, {"name":"Нартан","state":"Kabardino Balkaria","territory":"","country":"Russia","latitude":43.531828,"longitude":43.7336648,"population":12813,"stateCapital":false,"nationalCapital":false,"pk":null,"quiz":"asia","code":null,"archived":false,"percentageOfSessions":null}, {"name":"Нартан","state":"Kabardino Balkaria","territory":"","country":"Russia","latitude":43.531828,"longitude":43.7336648,"population":166,"stateCapital":false,"nationalCapital":false,"pk":null,"quiz":"asia","code":null,"archived":false,"percentageOfSessions":null}, {"name":"Нарткала","state":"Kabardino Balkaria","territory":"","country":"Russia","latitude":43.5566193,"longitude":43.8517142,"population":31694,"stateCapital":false,"nationalCapital":false,"pk":null,"quiz":"asia","code":null,"archived":false,"percentageOfSessions":null}, {"name":"Нейтрино","state":"Kabardino Balkaria","territory":"","country":"Russia","latitude":43.2776969,"longitude":42.6877522,"population":579,"stateCapital":false,"nationalCapital":false,"pk":null,"quiz":"asia","code":null,"archived":false,"percentageOfSessions":null}, {"name":"Нижний Акбаш","state":"Kabardino Balkaria","territory":"","country":"Russia","latitude":43.5240948,"longitude":44.2026461,"population":1026,"stateCapital":false,"nationalCapital":false,"pk":null,"quiz":"asia","code":null,"archived":false,"percentageOfSessions":null}, {"name":"Нижний Куркужин","state":"Kabardino Balkaria","territory":"","country":"Russia","latitude":43.7441546,"longitude":43.3510112,"population":3600,"stateCapital":false,"nationalCapital":false,"pk":null,"quiz":"asia","code":null,"archived":false,"percentageOfSessions":null}, {"name":"Нижний Курп","state":"Kabardino Balkaria","territory":"","country":"Russia","latitude":43.544842,"longitude":44.410968,"population":1308,"stateCapital":false,"nationalCapital":false,"pk":null,"quiz":"asia","code":null,"archived":false,"percentageOfSessions":null}, {"name":"Нижний Чегем","state":"Kabardino Balkaria","territory":"","country":"Russia","latitude":43.4909866,"longitude":43.2910648,"population":2030,"stateCapital":false,"nationalCapital":false,"pk":null,"quiz":"asia","code":null,"archived":false,"percentageOfSessions":null}, {"name":"Нижний Черек","state":"Kabardino Balkaria","territory":"","country":"Russia","latitude":43.5070892,"longitude":43.9185336,"population":2999,"stateCapital":false,"nationalCapital":false,"pk":null,"quiz":"asia","code":null,"archived":false,"percentageOfSessions":null}, {"name":"Новая Балкария","state":"Kabardino Balkaria","territory":"","country":"Russia","latitude":43.650008,"longitude":44.1760699,"population":1142,"stateCapital":false,"nationalCapital":false,"pk":null,"quiz":"asia","code":null,"archived":false,"percentageOfSessions":null}, {"name":"Ново-Вознесенский","state":"Kabardino Balkaria","territory":"","country":"Russia","latitude":43.7211054,"longitude":43.9594268,"population":166,"stateCapital":false,"nationalCapital":false,"pk":null,"quiz":"asia","code":null,"archived":false,"percentageOfSessions":null}, {"name":"Ново-Ивановское","state":"Kabardino Balkaria","territory":"","country":"Russia","latitude":43.6381261,"longitude":43.955855,"population":2307,"stateCapital":false,"nationalCapital":false,"pk":null,"quiz":"asia","code":null,"archived":false,"percentageOfSessions":null}, {"name":"Ново-Курский","state":"Kabardino Balkaria","territory":"","country":"Russia","latitude":43.6391896,"longitude":43.9044271,"population":313,"stateCapital":false,"nationalCapital":false,"pk":null,"quiz":"asia","code":null,"archived":false,"percentageOfSessions":null}, {"name":"Ново-Осетинский","state":"Kabardino Balkaria","territory":"","country":"Russia","latitude":43.6877542,"longitude":43.791319,"population":517,"stateCapital":false,"nationalCapital":false,"pk":null,"quiz":"asia","code":null,"archived":false,"percentageOfSessions":null}, {"name":"Ново-Покровский","state":"Kabardino Balkaria","territory":"","country":"Russia","latitude":43.7386551,"longitude":44.0375233,"population":1100,"stateCapital":false,"nationalCapital":false,"pk":null,"quiz":"asia","code":null,"archived":false,"percentageOfSessions":null}, {"name":"Ново-Полтавское","state":"Kabardino Balkaria","territory":"","country":"Russia","latitude":43.6897697,"longitude":43.9734221,"population":1187,"stateCapital":false,"nationalCapital":false,"pk":null,"quiz":"asia","code":null,"archived":false,"percentageOfSessions":null}, {"name":"Ново-Троицкий","state":"Kabardino Balkaria","territory":"","country":"Russia","latitude":43.744039,"longitude":43.9770933,"population":193,"stateCapital":false,"nationalCapital":false,"pk":null,"quiz":"asia","code":null,"archived":false,"percentageOfSessions":null}, {"name":"Ново-Хамидие","state":"Kabardino Balkaria","territory":"","country":"Russia","latitude":43.6170332,"longitude":44.3552094,"population":771,"stateCapital":false,"nationalCapital":false,"pk":null,"quiz":"asia","code":null,"archived":false,"percentageOfSessions":null}, {"name":"Озрек","state":"Kabardino Balkaria","territory":"","country":"Russia","latitude":43.4028675,"longitude":44.0198539,"population":1522,"stateCapital":false,"nationalCapital":false,"pk":null,"quiz":"asia","code":null,"archived":false,"percentageOfSessions":null}, {"name":"Октябрьское","state":"Kabardino Balkaria","territory":"","country":"Russia","latitude":43.8922717,"longitude":43.1527519,"population":667,"stateCapital":false,"nationalCapital":false,"pk":null,"quiz":"asia","code":null,"archived":false,"percentageOfSessions":null}, {"name":"Октябрьское","state":"Kabardino Balkaria","territory":"","country":"Russia","latitude":43.6699421,"longitude":44.0306357,"population":988,"stateCapital":false,"nationalCapital":false,"pk":null,"quiz":"asia","code":null,"archived":false,"percentageOfSessions":null}, {"name":"Опытное","state":"Kabardino Balkaria","territory":"","country":"Russia","latitude":43.6299502,"longitude":44.1413591,"population":589,"stateCapital":false,"nationalCapital":false,"pk":null,"quiz":"asia","code":null,"archived":false,"percentageOfSessions":null}, {"name":"Петропавловский","state":"Kabardino Balkaria","territory":"","country":"Russia","latitude":43.6931637,"longitude":43.8225418,"population":333,"stateCapital":false,"nationalCapital":false,"pk":null,"quiz":"asia","code":null,"archived":false,"percentageOfSessions":null}, {"name":"Плановское","state":"Kabardino Balkaria","territory":"","country":"Russia","latitude":43.4000238,"longitude":44.1925661,"population":3456,"stateCapital":false,"nationalCapital":false,"pk":null,"quiz":"asia","code":null,"archived":false,"percentageOfSessions":null}, {"name":"Право-Урванский","state":"Kabardino Balkaria","territory":"","country":"Russia","latitude":43.6240474,"longitude":43.9704874,"population":115,"stateCapital":false,"nationalCapital":false,"pk":null,"quiz":"asia","code":null,"archived":false,"percentageOfSessions":null}, {"name":"Приближная","state":"Kabardino Balkaria","territory":"","country":"Russia","latitude":43.7713879,"longitude":44.1268343,"population":1838,"stateCapital":false,"nationalCapital":false,"pk":null,"quiz":"asia","code":null,"archived":false,"percentageOfSessions":null}, {"name":"Придорожное","state":"Kabardino Balkaria","territory":"","country":"Russia","latitude":43.9699128,"longitude":43.9599681,"population":137,"stateCapital":false,"nationalCapital":false,"pk":null,"quiz":"asia","code":null,"archived":false,"percentageOfSessions":null}, {"name":"Прималкинское","state":"Kabardino Balkaria","territory":"","country":"Russia","latitude":43.7482105,"longitude":44.005546,"population":4636,"stateCapital":false,"nationalCapital":false,"pk":null,"quiz":"asia","code":null,"archived":false,"percentageOfSessions":null}, {"name":"Приречное","state":"Kabardino Balkaria","territory":"","country":"Russia","latitude":43.7969202,"longitude":43.2999635,"population":1189,"stateCapital":false,"nationalCapital":false,"pk":null,"quiz":"asia","code":null,"archived":false,"percentageOfSessions":null}, {"name":"Пришибо-Малкинское","state":"Kabardino Balkaria","territory":"","country":"Russia","latitude":43.7360611,"longitude":44.2201565,"population":85,"stateCapital":false,"nationalCapital":false,"pk":null,"quiz":"asia","code":null,"archived":false,"percentageOfSessions":null}, {"name":"Прогресс","state":"Kabardino Balkaria","territory":"","country":"Russia","latitude":43.92683,"longitude":43.8984489,"population":327,"stateCapital":false,"nationalCapital":false,"pk":null,"quiz":"asia","code":null,"archived":false,"percentageOfSessions":null}, {"name":"Пролетарское","state":"Kabardino Balkaria","territory":"","country":"Russia","latitude":43.8449463,"longitude":44.0483615,"population":2385,"stateCapital":false,"nationalCapital":false,"pk":null,"quiz":"asia","code":null,"archived":false,"percentageOfSessions":null}, {"name":"Прохладный","state":"Kabardino Balkaria","territory":"","country":"Russia","latitude":43.7590017,"longitude":44.0103981,"population":59601,"stateCapital":false,"nationalCapital":false,"pk":null,"quiz":"asia","code":null,"archived":false,"percentageOfSessions":null}, {"name":"Псыгансу","state":"Kabardino Balkaria","territory":"","country":"Russia","latitude":43.414249,"longitude":43.7909127,"population":6419,"stateCapital":false,"nationalCapital":false,"pk":null,"quiz":"asia","code":null,"archived":false,"percentageOfSessions":null}, {"name":"Псыкод","state":"Kabardino Balkaria","territory":"","country":"Russia","latitude":43.6040257,"longitude":43.9956572,"population":1527,"stateCapital":false,"nationalCapital":false,"pk":null,"quiz":"asia","code":null,"archived":false,"percentageOfSessions":null}, {"name":"Псынабо","state":"Kabardino Balkaria","territory":"","country":"Russia","latitude":43.5379185,"longitude":43.9199725,"population":1549,"stateCapital":false,"nationalCapital":false,"pk":null,"quiz":"asia","code":null,"archived":false,"percentageOfSessions":null}, {"name":"Псынадаха","state":"Kabardino Balkaria","territory":"","country":"Russia","latitude":43.8602847,"longitude":43.2514048,"population":1542,"stateCapital":false,"nationalCapital":false,"pk":null,"quiz":"asia","code":null,"archived":false,"percentageOfSessions":null}, {"name":"Псынашхо","state":"Kabardino Balkaria","territory":"","country":"Russia","latitude":43.5549498,"longitude":44.1039111,"population":53,"stateCapital":false,"nationalCapital":false,"pk":null,"quiz":"asia","code":null,"archived":false,"percentageOfSessions":null}, {"name":"Псыншоко","state":"Kabardino Balkaria","territory":"","country":"Russia","latitude":43.7574704,"longitude":43.7156896,"population":636,"stateCapital":false,"nationalCapital":false,"pk":null,"quiz":"asia","code":null,"archived":false,"percentageOfSessions":null}, {"name":"Псыхурей","state":"Kabardino Balkaria","territory":"","country":"Russia","latitude":43.8377202,"longitude":43.5734302,"population":2399,"stateCapital":false,"nationalCapital":false,"pk":null,"quiz":"asia","code":null,"archived":false,"percentageOfSessions":null}, {"name":"Псычох","state":"Kabardino Balkaria","territory":"","country":"Russia","latitude":43.7171123,"longitude":43.525552,"population":1050,"stateCapital":false,"nationalCapital":false,"pk":null,"quiz":"asia","code":null,"archived":false,"percentageOfSessions":null}, {"name":"Саратовский","state":"Kabardino Balkaria","territory":"","country":"Russia","latitude":43.7283703,"longitude":43.7776581,"population":387,"stateCapital":false,"nationalCapital":false,"pk":null,"quiz":"asia","code":null,"archived":false,"percentageOfSessions":null}, {"name":"Сармаково","state":"Kabardino Balkaria","territory":"","country":"Russia","latitude":43.7403259,"longitude":43.1932675,"population":8007,"stateCapital":false,"nationalCapital":false,"pk":null,"quiz":"asia","code":null,"archived":false,"percentageOfSessions":null}, {"name":"Сарское","state":"Kabardino Balkaria","territory":"","country":"Russia","latitude":43.7188757,"longitude":44.0920671,"population":425,"stateCapital":false,"nationalCapital":false,"pk":null,"quiz":"asia","code":null,"archived":false,"percentageOfSessions":null}, {"name":"Светловодское","state":"Kabardino Balkaria","territory":"","country":"Russia","latitude":43.8953893,"longitude":43.1776195,"population":1385,"stateCapital":false,"nationalCapital":false,"pk":null,"quiz":"asia","code":null,"archived":false,"percentageOfSessions":null}, {"name":"Славянский","state":"Kabardino Balkaria","territory":"","country":"Russia","latitude":43.6135397,"longitude":43.9037239,"population":61,"stateCapital":false,"nationalCapital":false,"pk":null,"quiz":"asia","code":null,"archived":false,"percentageOfSessions":null}, {"name":"Советское","state":"Kabardino Balkaria","territory":"","country":"Russia","latitude":43.7562214,"longitude":43.767542,"population":408,"stateCapital":false,"nationalCapital":false,"pk":null,"quiz":"asia","code":null,"archived":false,"percentageOfSessions":null}, {"name":"Совхозное","state":"Kabardino Balkaria","territory":"","country":"Russia","latitude":43.8022258,"longitude":43.1460561,"population":723,"stateCapital":false,"nationalCapital":false,"pk":null,"quiz":"asia","code":null,"archived":false,"percentageOfSessions":null}, {"name":"Солдатская","state":"Kabardino Balkaria","territory":"","country":"Russia","latitude":43.8126692,"longitude":43.8250508,"population":4344,"stateCapital":false,"nationalCapital":false,"pk":null,"quiz":"asia","code":null,"archived":false,"percentageOfSessions":null}, {"name":"Солдатская","state":"Kabardino Balkaria","territory":"","country":"Russia","latitude":43.8126692,"longitude":43.8250508,"population":831,"stateCapital":false,"nationalCapital":false,"pk":null,"quiz":"asia","code":null,"archived":false,"percentageOfSessions":null}, {"name":"Старый Черек","state":"Kabardino Balkaria","territory":"","country":"Russia","latitude":43.4713548,"longitude":43.855978,"population":6203,"stateCapital":false,"nationalCapital":false,"pk":null,"quiz":"asia","code":null,"archived":false,"percentageOfSessions":null}, {"name":"Степное","state":"Kabardino Balkaria","territory":"","country":"Russia","latitude":43.9266597,"longitude":43.975315,"population":224,"stateCapital":false,"nationalCapital":false,"pk":null,"quiz":"asia","code":null,"archived":false,"percentageOfSessions":null}, {"name":"Тамбовское","state":"Kabardino Balkaria","territory":"","country":"Russia","latitude":43.5046743,"longitude":44.2110494,"population":847,"stateCapital":false,"nationalCapital":false,"pk":null,"quiz":"asia","code":null,"archived":false,"percentageOfSessions":null}, {"name":"Ташлы-Тала","state":"Kabardino Balkaria","territory":"","country":"Russia","latitude":43.1449816,"longitude":43.6965292,"population":641,"stateCapital":false,"nationalCapital":false,"pk":null,"quiz":"asia","code":null,"archived":false,"percentageOfSessions":null}, {"name":"Тегенекли","state":"Kabardino Balkaria","territory":"","country":"Russia","latitude":43.2501973,"longitude":42.6156385,"population":265,"stateCapital":false,"nationalCapital":false,"pk":null,"quiz":"asia","code":null,"archived":false,"percentageOfSessions":null}, {"name":"Терек","state":"Kabardino Balkaria","territory":"","country":"Russia","latitude":43.4826692,"longitude":44.1363776,"population":19170,"stateCapital":false,"nationalCapital":false,"pk":null,"quiz":"asia","code":null,"archived":false,"percentageOfSessions":null}, {"name":"Терекское","state":"Kabardino Balkaria","territory":"","country":"Russia","latitude":43.6727795,"longitude":44.2973614,"population":2026,"stateCapital":false,"nationalCapital":false,"pk":null,"quiz":"asia","code":null,"archived":false,"percentageOfSessions":null}, {"name":"Терскол","state":"Kabardino Balkaria","territory":"","country":"Russia","latitude":43.2560838,"longitude":42.5132369,"population":1138,"stateCapital":false,"nationalCapital":false,"pk":null,"quiz":"asia","code":null,"archived":false,"percentageOfSessions":null}, {"name":"Тырныауз","state":"Kabardino Balkaria","territory":"","country":"Russia","latitude":43.3958986,"longitude":42.9230751,"population":21000,"stateCapital":false,"nationalCapital":false,"pk":null,"quiz":"asia","code":null,"archived":false,"percentageOfSessions":null}, {"name":"Ульяновское","state":"Kabardino Balkaria","territory":"","country":"Russia","latitude":43.8789332,"longitude":44.1093871,"population":492,"stateCapital":false,"nationalCapital":false,"pk":null,"quiz":"asia","code":null,"archived":false,"percentageOfSessions":null}, {"name":"Урвань","state":"Kabardino Balkaria","territory":"","country":"Russia","latitude":43.4964568,"longitude":43.7632535,"population":5380,"stateCapital":false,"nationalCapital":false,"pk":null,"quiz":"asia","code":null,"archived":false,"percentageOfSessions":null}, {"name":"Урожайное","state":"Kabardino Balkaria","territory":"","country":"Russia","latitude":43.6979041,"longitude":44.2133042,"population":2025,"stateCapital":false,"nationalCapital":false,"pk":null,"quiz":"asia","code":null,"archived":false,"percentageOfSessions":null}, {"name":"Урух","state":"Kabardino Balkaria","territory":"","country":"Russia","latitude":43.4111914,"longitude":44.182393,"population":3,"stateCapital":false,"nationalCapital":false,"pk":null,"quiz":"asia","code":null,"archived":false,"percentageOfSessions":null}, {"name":"Урух","state":"Kabardino Balkaria","territory":"","country":"Russia","latitude":43.3031609,"longitude":44.0347174,"population":4122,"stateCapital":false,"nationalCapital":false,"pk":null,"quiz":"asia","code":null,"archived":false,"percentageOfSessions":null}, {"name":"Учебное","state":"Kabardino Balkaria","territory":"","country":"Russia","latitude":43.7801704,"longitude":43.9299544,"population":1108,"stateCapital":false,"nationalCapital":false,"pk":null,"quiz":"asia","code":null,"archived":false,"percentageOfSessions":null}, {"name":"Хабаз","state":"Kabardino Balkaria","territory":"","country":"Russia","latitude":43.7278462,"longitude":42.9290428,"population":1684,"stateCapital":false,"nationalCapital":false,"pk":null,"quiz":"asia","code":null,"archived":false,"percentageOfSessions":null}, {"name":"Хамидие","state":"Kabardino Balkaria","territory":"","country":"Russia","latitude":43.6710761,"longitude":44.3740591,"population":1812,"stateCapital":false,"nationalCapital":false,"pk":null,"quiz":"asia","code":null,"archived":false,"percentageOfSessions":null}, {"name":"Хасанья","state":"Kabardino Balkaria","territory":"","country":"Russia","latitude":43.431676,"longitude":43.5765839,"population":10829,"stateCapital":false,"nationalCapital":false,"pk":null,"quiz":"asia","code":null,"archived":false,"percentageOfSessions":null}, {"name":"Хатуей","state":"Kabardino Balkaria","territory":"","country":"Russia","latitude":43.3401934,"longitude":44.017968,"population":3549,"stateCapital":false,"nationalCapital":false,"pk":null,"quiz":"asia","code":null,"archived":false,"percentageOfSessions":null}, {"name":"Хушто-Сырт","state":"Kabardino Balkaria","territory":"","country":"Russia","latitude":43.4348279,"longitude":43.2355512,"population":867,"stateCapital":false,"nationalCapital":false,"pk":null,"quiz":"asia","code":null,"archived":false,"percentageOfSessions":null}, {"name":"Цораевский","state":"Kabardino Balkaria","territory":"","country":"Russia","latitude":43.6922019,"longitude":43.7857064,"population":122,"stateCapital":false,"nationalCapital":false,"pk":null,"quiz":"asia","code":null,"archived":false,"percentageOfSessions":null}, {"name":"Чегем","state":"Kabardino Balkaria","territory":"","country":"Russia","latitude":43.5655936,"longitude":43.5899021,"population":18019,"stateCapital":false,"nationalCapital":false,"pk":null,"quiz":"asia","code":null,"archived":false,"percentageOfSessions":null}, {"name":"Чегем Второй","state":"Kabardino Balkaria","territory":"","country":"Russia","latitude":43.5907987,"longitude":43.5992637,"population":10769,"stateCapital":false,"nationalCapital":false,"pk":null,"quiz":"asia","code":null,"archived":false,"percentageOfSessions":null}, {"name":"Черная Речка","state":"Kabardino Balkaria","territory":"","country":"Russia","latitude":43.6050094,"longitude":43.8358947,"population":2587,"stateCapital":false,"nationalCapital":false,"pk":null,"quiz":"asia","code":null,"archived":false,"percentageOfSessions":null}, {"name":"Черниговское","state":"Kabardino Balkaria","territory":"","country":"Russia","latitude":43.7605814,"longitude":43.853717,"population":575,"stateCapital":false,"nationalCapital":false,"pk":null,"quiz":"asia","code":null,"archived":false,"percentageOfSessions":null}, {"name":"Шалушка","state":"Kabardino Balkaria","territory":"","country":"Russia","latitude":43.5322394,"longitude":43.5636803,"population":11158,"stateCapital":false,"nationalCapital":false,"pk":null,"quiz":"asia","code":null,"archived":false,"percentageOfSessions":null}, {"name":"Шикулей","state":"Kabardino Balkaria","territory":"","country":"Russia","latitude":43.6520764,"longitude":44.1561448,"population":11,"stateCapital":false,"nationalCapital":false,"pk":null,"quiz":"asia","code":null,"archived":false,"percentageOfSessions":null}, {"name":"Шитхала","state":"Kabardino Balkaria","territory":"","country":"Russia","latitude":43.5528175,"longitude":43.7974629,"population":1181,"stateCapital":false,"nationalCapital":false,"pk":null,"quiz":"asia","code":null,"archived":false,"percentageOfSessions":null}, {"name":"Шордаково","state":"Kabardino Balkaria","territory":"","country":"Russia","latitude":43.8813443,"longitude":43.1048427,"population":1676,"stateCapital":false,"nationalCapital":false,"pk":null,"quiz":"asia","code":null,"archived":false,"percentageOfSessions":null}, {"name":"Эльбрус","state":"Kabardino Balkaria","territory":"","country":"Russia","latitude":43.2593338,"longitude":42.6463545,"population":3137,"stateCapital":false,"nationalCapital":false,"pk":null,"quiz":"asia","code":null,"archived":false,"percentageOfSessions":null}, {"name":"Эльтюбю","state":"Kabardino Balkaria","territory":"","country":"Russia","latitude":43.2687427,"longitude":43.1513542,"population":296,"stateCapital":false,"nationalCapital":false,"pk":null,"quiz":"asia","code":null,"archived":false,"percentageOfSessions":null}, {"name":"Этоко","state":"Kabardino Balkaria","territory":"","country":"Russia","latitude":43.9468945,"longitude":43.1721222,"population":845,"stateCapital":false,"nationalCapital":false,"pk":null,"quiz":"asia","code":null,"archived":false,"percentageOfSessions":null}, {"name":"Яникой","state":"Kabardino Balkaria","territory":"","country":"Russia","latitude":43.5439269,"longitude":43.5052206,"population":2792,"stateCapital":false,"nationalCapital":false,"pk":null,"quiz":"asia","code":null,"archived":false,"percentageOfSessions":null}, {"name":"Янтарное","state":"Kabardino Balkaria","territory":"","country":"Russia","latitude":43.7592396,"longitude":43.8853035,"population":863,"stateCapital":false,"nationalCapital":false,"pk":null,"quiz":"asia","code":null,"archived":false,"percentageOfSessions":null}],"startTimeMs":0}