{"cities":[{"name":"Абазакт","state":"Karachay-Cherkessia","territory":"","country":"Russia","latitude":44.251807,"longitude":41.8996283,"population":423,"stateCapital":false,"nationalCapital":false,"pk":null,"quiz":"asia","code":null,"archived":false,"percentageOfSessions":null}, {"name":"Абаза-Хабль","state":"Karachay-Cherkessia","territory":"","country":"Russia","latitude":44.3711237,"longitude":41.6344336,"population":577,"stateCapital":false,"nationalCapital":false,"pk":null,"quiz":"asia","code":null,"archived":false,"percentageOfSessions":null}, {"name":"Адиль-Халк","state":"Karachay-Cherkessia","territory":"","country":"Russia","latitude":44.3593482,"longitude":41.9268692,"population":1747,"stateCapital":false,"nationalCapital":false,"pk":null,"quiz":"asia","code":null,"archived":false,"percentageOfSessions":null}, {"name":"Адыге-Хабль","state":"Karachay-Cherkessia","territory":"","country":"Russia","latitude":44.3314433,"longitude":41.9371355,"population":3946,"stateCapital":false,"nationalCapital":false,"pk":null,"quiz":"asia","code":null,"archived":false,"percentageOfSessions":null}, {"name":"Азиатский","state":"Karachay-Cherkessia","territory":"","country":"Russia","latitude":43.922037,"longitude":40.9620726,"population":40,"stateCapital":false,"nationalCapital":false,"pk":null,"quiz":"asia","code":null,"archived":false,"percentageOfSessions":null}, {"name":"Аксу","state":"Karachay-Cherkessia","territory":"","country":"Russia","latitude":44.0054828,"longitude":42.5660365,"population":37,"stateCapital":false,"nationalCapital":false,"pk":null,"quiz":"asia","code":null,"archived":false,"percentageOfSessions":null}, {"name":"Али-Бердуковский","state":"Karachay-Cherkessia","territory":"","country":"Russia","latitude":44.00013,"longitude":41.7438885,"population":5354,"stateCapital":false,"nationalCapital":false,"pk":null,"quiz":"asia","code":null,"archived":false,"percentageOfSessions":null}, {"name":"Апсуа","state":"Karachay-Cherkessia","territory":"","country":"Russia","latitude":44.4492947,"longitude":41.7981952,"population":1006,"stateCapital":false,"nationalCapital":false,"pk":null,"quiz":"asia","code":null,"archived":false,"percentageOfSessions":null}, {"name":"Архыз","state":"Karachay-Cherkessia","territory":"","country":"Russia","latitude":43.5630635,"longitude":41.2803847,"population":505,"stateCapital":false,"nationalCapital":false,"pk":null,"quiz":"asia","code":null,"archived":false,"percentageOfSessions":null}, {"name":"Бавуко","state":"Karachay-Cherkessia","territory":"","country":"Russia","latitude":44.207699,"longitude":41.8910196,"population":655,"stateCapital":false,"nationalCapital":false,"pk":null,"quiz":"asia","code":null,"archived":false,"percentageOfSessions":null}, {"name":"Баралки","state":"Karachay-Cherkessia","territory":"","country":"Russia","latitude":44.3498951,"longitude":41.8011339,"population":348,"stateCapital":false,"nationalCapital":false,"pk":null,"quiz":"asia","code":null,"archived":false,"percentageOfSessions":null}, {"name":"Белая Гора","state":"Karachay-Cherkessia","territory":"","country":"Russia","latitude":43.8841803,"longitude":41.9085902,"population":124,"stateCapital":false,"nationalCapital":false,"pk":null,"quiz":"asia","code":null,"archived":false,"percentageOfSessions":null}, {"name":"Бесленей","state":"Karachay-Cherkessia","territory":"","country":"Russia","latitude":44.2442447,"longitude":41.7383953,"population":3520,"stateCapital":false,"nationalCapital":false,"pk":null,"quiz":"asia","code":null,"archived":false,"percentageOfSessions":null}, {"name":"Большевик","state":"Karachay-Cherkessia","territory":"","country":"Russia","latitude":43.9889816,"longitude":41.1993115,"population":106,"stateCapital":false,"nationalCapital":false,"pk":null,"quiz":"asia","code":null,"archived":false,"percentageOfSessions":null}, {"name":"Важное","state":"Karachay-Cherkessia","territory":"","country":"Russia","latitude":43.9919616,"longitude":41.9410368,"population":1956,"stateCapital":false,"nationalCapital":false,"pk":null,"quiz":"asia","code":null,"archived":false,"percentageOfSessions":null}, {"name":"Вако-Жиле","state":"Karachay-Cherkessia","territory":"","country":"Russia","latitude":44.303316,"longitude":41.7425769,"population":1272,"stateCapital":false,"nationalCapital":false,"pk":null,"quiz":"asia","code":null,"archived":false,"percentageOfSessions":null}, {"name":"Верхний Учкулан","state":"Karachay-Cherkessia","territory":"","country":"Russia","latitude":43.4430017,"longitude":42.0625738,"population":501,"stateCapital":false,"nationalCapital":false,"pk":null,"quiz":"asia","code":null,"archived":false,"percentageOfSessions":null}, {"name":"Верхняя Мара","state":"Karachay-Cherkessia","territory":"","country":"Russia","latitude":43.7685482,"longitude":42.1252959,"population":1970,"stateCapital":false,"nationalCapital":false,"pk":null,"quiz":"asia","code":null,"archived":false,"percentageOfSessions":null}, {"name":"Верхняя Теберда","state":"Karachay-Cherkessia","territory":"","country":"Russia","latitude":43.5410082,"longitude":41.7815654,"population":2429,"stateCapital":false,"nationalCapital":false,"pk":null,"quiz":"asia","code":null,"archived":false,"percentageOfSessions":null}, {"name":"Водовод","state":"Karachay-Cherkessia","territory":"","country":"Russia","latitude":43.8663683,"longitude":42.4568722,"population":0,"stateCapital":false,"nationalCapital":false,"pk":null,"quiz":"asia","code":null,"archived":false,"percentageOfSessions":null}, {"name":"Водораздельный","state":"Karachay-Cherkessia","territory":"","country":"Russia","latitude":44.2543246,"longitude":42.3486274,"population":571,"stateCapital":false,"nationalCapital":false,"pk":null,"quiz":"asia","code":null,"archived":false,"percentageOfSessions":null}, {"name":"Восток","state":"Karachay-Cherkessia","territory":"","country":"Russia","latitude":43.8446712,"longitude":41.8259841,"population":34,"stateCapital":false,"nationalCapital":false,"pk":null,"quiz":"asia","code":null,"archived":false,"percentageOfSessions":null}, {"name":"Грушка","state":"Karachay-Cherkessia","territory":"","country":"Russia","latitude":44.3772218,"longitude":41.6630295,"population":293,"stateCapital":false,"nationalCapital":false,"pk":null,"quiz":"asia","code":null,"archived":false,"percentageOfSessions":null}, {"name":"Гюрюльдеук","state":"Karachay-Cherkessia","territory":"","country":"Russia","latitude":43.9849675,"longitude":42.0587771,"population":1342,"stateCapital":false,"nationalCapital":false,"pk":null,"quiz":"asia","code":null,"archived":false,"percentageOfSessions":null}, {"name":"Дамхурц","state":"Karachay-Cherkessia","territory":"","country":"Russia","latitude":43.6701327,"longitude":40.8408296,"population":16,"stateCapital":false,"nationalCapital":false,"pk":null,"quiz":"asia","code":null,"archived":false,"percentageOfSessions":null}, {"name":"Даусуз","state":"Karachay-Cherkessia","territory":"","country":"Russia","latitude":43.8002496,"longitude":41.5518218,"population":1509,"stateCapital":false,"nationalCapital":false,"pk":null,"quiz":"asia","code":null,"archived":false,"percentageOfSessions":null}, {"name":"Джага","state":"Karachay-Cherkessia","territory":"","country":"Russia","latitude":43.9555484,"longitude":42.553119,"population":2697,"stateCapital":false,"nationalCapital":false,"pk":null,"quiz":"asia","code":null,"archived":false,"percentageOfSessions":null}, {"name":"Джегута","state":"Karachay-Cherkessia","territory":"","country":"Russia","latitude":43.9713794,"longitude":42.0403235,"population":1242,"stateCapital":false,"nationalCapital":false,"pk":null,"quiz":"asia","code":null,"archived":false,"percentageOfSessions":null}, {"name":"Джингирик","state":"Karachay-Cherkessia","territory":"","country":"Russia","latitude":43.7447013,"longitude":41.8874036,"population":1110,"stateCapital":false,"nationalCapital":false,"pk":null,"quiz":"asia","code":null,"archived":false,"percentageOfSessions":null}, {"name":"Домбай кп","state":"Karachay-Cherkessia","territory":"","country":"Russia","latitude":43.290498,"longitude":41.6269204,"population":657,"stateCapital":false,"nationalCapital":false,"pk":null,"quiz":"asia","code":null,"archived":false,"percentageOfSessions":null}, {"name":"Дружба","state":"Karachay-Cherkessia","territory":"","country":"Russia","latitude":44.2023123,"longitude":42.0165874,"population":3401,"stateCapital":false,"nationalCapital":false,"pk":null,"quiz":"asia","code":null,"archived":false,"percentageOfSessions":null}, {"name":"Дубянский","state":"Karachay-Cherkessia","territory":"","country":"Russia","latitude":44.4693415,"longitude":41.8014982,"population":262,"stateCapital":false,"nationalCapital":false,"pk":null,"quiz":"asia","code":null,"archived":false,"percentageOfSessions":null}, {"name":"Евсеевский","state":"Karachay-Cherkessia","territory":"","country":"Russia","latitude":44.4874853,"longitude":41.9162124,"population":237,"stateCapital":false,"nationalCapital":false,"pk":null,"quiz":"asia","code":null,"archived":false,"percentageOfSessions":null}, {"name":"Ершов","state":"Karachay-Cherkessia","territory":"","country":"Russia","latitude":44.0298615,"longitude":40.9493322,"population":128,"stateCapital":false,"nationalCapital":false,"pk":null,"quiz":"asia","code":null,"archived":false,"percentageOfSessions":null}, {"name":"Жако","state":"Karachay-Cherkessia","territory":"","country":"Russia","latitude":43.9560047,"longitude":41.7383481,"population":2052,"stateCapital":false,"nationalCapital":false,"pk":null,"quiz":"asia","code":null,"archived":false,"percentageOfSessions":null}, {"name":"Загедан","state":"Karachay-Cherkessia","territory":"","country":"Russia","latitude":43.6416276,"longitude":40.8778556,"population":66,"stateCapital":false,"nationalCapital":false,"pk":null,"quiz":"asia","code":null,"archived":false,"percentageOfSessions":null}, {"name":"Заречный","state":"Karachay-Cherkessia","territory":"","country":"Russia","latitude":44.2152773,"longitude":42.0028397,"population":358,"stateCapital":false,"nationalCapital":false,"pk":null,"quiz":"asia","code":null,"archived":false,"percentageOfSessions":null}, {"name":"Зеленчукская","state":"Karachay-Cherkessia","territory":"","country":"Russia","latitude":43.8549752,"longitude":41.5853611,"population":19449,"stateCapital":false,"nationalCapital":false,"pk":null,"quiz":"asia","code":null,"archived":false,"percentageOfSessions":null}, {"name":"Зеюко","state":"Karachay-Cherkessia","territory":"","country":"Russia","latitude":44.1146111,"longitude":41.8259426,"population":3350,"stateCapital":false,"nationalCapital":false,"pk":null,"quiz":"asia","code":null,"archived":false,"percentageOfSessions":null}, {"name":"Знаменка","state":"Karachay-Cherkessia","territory":"","country":"Russia","latitude":44.1475667,"longitude":42.0501726,"population":1772,"stateCapital":false,"nationalCapital":false,"pk":null,"quiz":"asia","code":null,"archived":false,"percentageOfSessions":null}, {"name":"Икон-Халк","state":"Karachay-Cherkessia","territory":"","country":"Russia","latitude":44.315569,"longitude":41.9191306,"population":4353,"stateCapital":false,"nationalCapital":false,"pk":null,"quiz":"asia","code":null,"archived":false,"percentageOfSessions":null}, {"name":"Ильич","state":"Karachay-Cherkessia","territory":"","country":"Russia","latitude":43.9522303,"longitude":41.5282818,"population":565,"stateCapital":false,"nationalCapital":false,"pk":null,"quiz":"asia","code":null,"archived":false,"percentageOfSessions":null}, {"name":"Ильичевское","state":"Karachay-Cherkessia","territory":"","country":"Russia","latitude":44.1848463,"longitude":42.1484273,"population":1267,"stateCapital":false,"nationalCapital":false,"pk":null,"quiz":"asia","code":null,"archived":false,"percentageOfSessions":null}, {"name":"Коста Хетагурова","state":"Karachay-Cherkessia","territory":"","country":"Russia","latitude":43.7988033,"longitude":41.9109983,"population":2757,"stateCapital":false,"nationalCapital":false,"pk":null,"quiz":"asia","code":null,"archived":false,"percentageOfSessions":null}, {"name":"Инжичишхо","state":"Karachay-Cherkessia","territory":"","country":"Russia","latitude":44.2015351,"longitude":41.7167568,"population":1228,"stateCapital":false,"nationalCapital":false,"pk":null,"quiz":"asia","code":null,"archived":false,"percentageOfSessions":null}, {"name":"Инжич-Чукун","state":"Karachay-Cherkessia","territory":"","country":"Russia","latitude":44.0518157,"longitude":41.7837998,"population":2592,"stateCapital":false,"nationalCapital":false,"pk":null,"quiz":"asia","code":null,"archived":false,"percentageOfSessions":null}, {"name":"Исправная","state":"Karachay-Cherkessia","territory":"","country":"Russia","latitude":44.0689191,"longitude":41.6047919,"population":4286,"stateCapital":false,"nationalCapital":false,"pk":null,"quiz":"asia","code":null,"archived":false,"percentageOfSessions":null}, {"name":"Кавказский","state":"Karachay-Cherkessia","territory":"","country":"Russia","latitude":44.2683702,"longitude":42.2308891,"population":3022,"stateCapital":false,"nationalCapital":false,"pk":null,"quiz":"asia","code":null,"archived":false,"percentageOfSessions":null}, {"name":"Каменномост","state":"Karachay-Cherkessia","territory":"","country":"Russia","latitude":43.7507413,"longitude":41.9113844,"population":3174,"stateCapital":false,"nationalCapital":false,"pk":null,"quiz":"asia","code":null,"archived":false,"percentageOfSessions":null}, {"name":"Кара-Паго","state":"Karachay-Cherkessia","territory":"","country":"Russia","latitude":44.1315548,"longitude":41.9456764,"population":699,"stateCapital":false,"nationalCapital":false,"pk":null,"quiz":"asia","code":null,"archived":false,"percentageOfSessions":null}, {"name":"Карачаевск","state":"Karachay-Cherkessia","territory":"","country":"Russia","latitude":43.7715594,"longitude":41.911979,"population":21483,"stateCapital":false,"nationalCapital":false,"pk":null,"quiz":"asia","code":null,"archived":false,"percentageOfSessions":null}, {"name":"Кардоникская","state":"Karachay-Cherkessia","territory":"","country":"Russia","latitude":43.8623604,"longitude":41.715429,"population":7091,"stateCapital":false,"nationalCapital":false,"pk":null,"quiz":"asia","code":null,"archived":false,"percentageOfSessions":null}, {"name":"Карт-Джурт","state":"Karachay-Cherkessia","territory":"","country":"Russia","latitude":43.5080533,"longitude":42.1147994,"population":800,"stateCapital":false,"nationalCapital":false,"pk":null,"quiz":"asia","code":null,"archived":false,"percentageOfSessions":null}, {"name":"Киево-Жураки","state":"Karachay-Cherkessia","territory":"","country":"Russia","latitude":44.4662091,"longitude":41.7855406,"population":463,"stateCapital":false,"nationalCapital":false,"pk":null,"quiz":"asia","code":null,"archived":false,"percentageOfSessions":null}, {"name":"Кичи-Балык","state":"Karachay-Cherkessia","territory":"","country":"Russia","latitude":43.7905973,"longitude":42.6507536,"population":645,"stateCapital":false,"nationalCapital":false,"pk":null,"quiz":"asia","code":null,"archived":false,"percentageOfSessions":null}, {"name":"Кобу-Баши","state":"Karachay-Cherkessia","territory":"","country":"Russia","latitude":43.9305394,"longitude":41.3183212,"population":524,"stateCapital":false,"nationalCapital":false,"pk":null,"quiz":"asia","code":null,"archived":false,"percentageOfSessions":null}, {"name":"Койдан","state":"Karachay-Cherkessia","territory":"","country":"Russia","latitude":44.1082288,"longitude":42.1495982,"population":944,"stateCapital":false,"nationalCapital":false,"pk":null,"quiz":"asia","code":null,"archived":false,"percentageOfSessions":null}, {"name":"Коммунстрой","state":"Karachay-Cherkessia","territory":"","country":"Russia","latitude":43.8942433,"longitude":42.6046248,"population":134,"stateCapital":false,"nationalCapital":false,"pk":null,"quiz":"asia","code":null,"archived":false,"percentageOfSessions":null}, {"name":"Кош-Хабль","state":"Karachay-Cherkessia","territory":"","country":"Russia","latitude":44.1450754,"longitude":41.8535372,"population":2780,"stateCapital":false,"nationalCapital":false,"pk":null,"quiz":"asia","code":null,"archived":false,"percentageOfSessions":null}, {"name":"Красивый","state":"Karachay-Cherkessia","territory":"","country":"Russia","latitude":44.3152159,"longitude":42.2442573,"population":79,"stateCapital":false,"nationalCapital":false,"pk":null,"quiz":"asia","code":null,"archived":false,"percentageOfSessions":null}, {"name":"Красногорская","state":"Karachay-Cherkessia","territory":"","country":"Russia","latitude":43.943854,"longitude":41.8895619,"population":2283,"stateCapital":false,"nationalCapital":false,"pk":null,"quiz":"asia","code":null,"archived":false,"percentageOfSessions":null}, {"name":"Красный Восток","state":"Karachay-Cherkessia","territory":"","country":"Russia","latitude":43.9595289,"longitude":42.3002975,"population":3335,"stateCapital":false,"nationalCapital":false,"pk":null,"quiz":"asia","code":null,"archived":false,"percentageOfSessions":null}, {"name":"Красный Курган","state":"Karachay-Cherkessia","territory":"","country":"Russia","latitude":43.9452908,"longitude":42.6061624,"population":3761,"stateCapital":false,"nationalCapital":false,"pk":null,"quiz":"asia","code":null,"archived":false,"percentageOfSessions":null}, {"name":"Кубан-Халк","state":"Karachay-Cherkessia","territory":"","country":"Russia","latitude":44.3825545,"longitude":41.957024,"population":976,"stateCapital":false,"nationalCapital":false,"pk":null,"quiz":"asia","code":null,"archived":false,"percentageOfSessions":null}, {"name":"Кубина","state":"Karachay-Cherkessia","territory":"","country":"Russia","latitude":44.053139,"longitude":41.9469828,"population":3101,"stateCapital":false,"nationalCapital":false,"pk":null,"quiz":"asia","code":null,"archived":false,"percentageOfSessions":null}, {"name":"Кубрань","state":"Karachay-Cherkessia","territory":"","country":"Russia","latitude":43.8384449,"longitude":41.9201809,"population":131,"stateCapital":false,"nationalCapital":false,"pk":null,"quiz":"asia","code":null,"archived":false,"percentageOfSessions":null}, {"name":"Кумыш","state":"Karachay-Cherkessia","territory":"","country":"Russia","latitude":43.8807534,"longitude":41.8973566,"population":4896,"stateCapital":false,"nationalCapital":false,"pk":null,"quiz":"asia","code":null,"archived":false,"percentageOfSessions":null}, {"name":"Курджиново","state":"Karachay-Cherkessia","territory":"","country":"Russia","latitude":43.9840103,"longitude":40.9542005,"population":5994,"stateCapital":false,"nationalCapital":false,"pk":null,"quiz":"asia","code":null,"archived":false,"percentageOfSessions":null}, {"name":"Кызыл-Кала","state":"Karachay-Cherkessia","territory":"","country":"Russia","latitude":43.9123431,"longitude":42.0240372,"population":830,"stateCapital":false,"nationalCapital":false,"pk":null,"quiz":"asia","code":null,"archived":false,"percentageOfSessions":null}, {"name":"Кызыл-Октябрь","state":"Karachay-Cherkessia","territory":"","country":"Russia","latitude":43.8261382,"longitude":41.7849647,"population":3515,"stateCapital":false,"nationalCapital":false,"pk":null,"quiz":"asia","code":null,"archived":false,"percentageOfSessions":null}, {"name":"Кызыл-Покун","state":"Karachay-Cherkessia","territory":"","country":"Russia","latitude":43.9327861,"longitude":42.3213046,"population":927,"stateCapital":false,"nationalCapital":false,"pk":null,"quiz":"asia","code":null,"archived":false,"percentageOfSessions":null}, {"name":"Кызыл-Тогай","state":"Karachay-Cherkessia","territory":"","country":"Russia","latitude":44.3328417,"longitude":41.7924258,"population":230,"stateCapital":false,"nationalCapital":false,"pk":null,"quiz":"asia","code":null,"archived":false,"percentageOfSessions":null}, {"name":"Кызыл-Уруп","state":"Karachay-Cherkessia","territory":"","country":"Russia","latitude":44.0057103,"longitude":41.2210981,"population":1261,"stateCapital":false,"nationalCapital":false,"pk":null,"quiz":"asia","code":null,"archived":false,"percentageOfSessions":null}, {"name":"Кызыл-Юрт","state":"Karachay-Cherkessia","territory":"","country":"Russia","latitude":44.1822612,"longitude":41.8728679,"population":651,"stateCapital":false,"nationalCapital":false,"pk":null,"quiz":"asia","code":null,"archived":false,"percentageOfSessions":null}, {"name":"Лесо-Кяфарь","state":"Karachay-Cherkessia","territory":"","country":"Russia","latitude":43.7900234,"longitude":41.4496546,"population":48,"stateCapital":false,"nationalCapital":false,"pk":null,"quiz":"asia","code":null,"archived":false,"percentageOfSessions":null}, {"name":"Майский","state":"Karachay-Cherkessia","territory":"","country":"Russia","latitude":44.3031625,"longitude":42.4159186,"population":813,"stateCapital":false,"nationalCapital":false,"pk":null,"quiz":"asia","code":null,"archived":false,"percentageOfSessions":null}, {"name":"Мало-Абазинск","state":"Karachay-Cherkessia","territory":"","country":"Russia","latitude":44.3835679,"longitude":41.6759994,"population":564,"stateCapital":false,"nationalCapital":false,"pk":null,"quiz":"asia","code":null,"archived":false,"percentageOfSessions":null}, {"name":"Малокурганный","state":"Karachay-Cherkessia","territory":"","country":"Russia","latitude":43.8410191,"longitude":41.9033072,"population":1121,"stateCapital":false,"nationalCapital":false,"pk":null,"quiz":"asia","code":null,"archived":false,"percentageOfSessions":null}, {"name":"Малый Зеленчук","state":"Karachay-Cherkessia","territory":"","country":"Russia","latitude":44.1658892,"longitude":41.8695446,"population":1693,"stateCapital":false,"nationalCapital":false,"pk":null,"quiz":"asia","code":null,"archived":false,"percentageOfSessions":null}, {"name":"Мара-Аягъы","state":"Karachay-Cherkessia","territory":"","country":"Russia","latitude":43.7857257,"longitude":41.9224427,"population":3980,"stateCapital":false,"nationalCapital":false,"pk":null,"quiz":"asia","code":null,"archived":false,"percentageOfSessions":null}, {"name":"Маруха","state":"Karachay-Cherkessia","territory":"","country":"Russia","latitude":43.7601605,"longitude":41.6303393,"population":1768,"stateCapital":false,"nationalCapital":false,"pk":null,"quiz":"asia","code":null,"archived":false,"percentageOfSessions":null}, {"name":"Медногорский","state":"Karachay-Cherkessia","territory":"","country":"Russia","latitude":43.9161378,"longitude":41.185108,"population":5960,"stateCapital":false,"nationalCapital":false,"pk":null,"quiz":"asia","code":null,"archived":false,"percentageOfSessions":null}, {"name":"Мичуринский","state":"Karachay-Cherkessia","territory":"","country":"Russia","latitude":44.2750845,"longitude":42.3144668,"population":839,"stateCapital":false,"nationalCapital":false,"pk":null,"quiz":"asia","code":null,"archived":false,"percentageOfSessions":null}, {"name":"Нижний Архыз","state":"Karachay-Cherkessia","territory":"","country":"Russia","latitude":43.6769758,"longitude":41.4574037,"population":536,"stateCapital":false,"nationalCapital":false,"pk":null,"quiz":"asia","code":null,"archived":false,"percentageOfSessions":null}, {"name":"Нижняя Ермоловка","state":"Karachay-Cherkessia","territory":"","country":"Russia","latitude":43.7631246,"longitude":41.5147441,"population":374,"stateCapital":false,"nationalCapital":false,"pk":null,"quiz":"asia","code":null,"archived":false,"percentageOfSessions":null}, {"name":"Нижняя Мара","state":"Karachay-Cherkessia","territory":"","country":"Russia","latitude":43.7618538,"longitude":42.0859855,"population":669,"stateCapital":false,"nationalCapital":false,"pk":null,"quiz":"asia","code":null,"archived":false,"percentageOfSessions":null}, {"name":"Нижняя Теберда","state":"Karachay-Cherkessia","territory":"","country":"Russia","latitude":43.6409003,"longitude":41.8789833,"population":1128,"stateCapital":false,"nationalCapital":false,"pk":null,"quiz":"asia","code":null,"archived":false,"percentageOfSessions":null}, {"name":"Николаевское","state":"Karachay-Cherkessia","territory":"","country":"Russia","latitude":44.1228495,"longitude":42.1255105,"population":1720,"stateCapital":false,"nationalCapital":false,"pk":null,"quiz":"asia","code":null,"archived":false,"percentageOfSessions":null}, {"name":"Новая Джегута","state":"Karachay-Cherkessia","territory":"","country":"Russia","latitude":44.01247,"longitude":42.0385372,"population":4008,"stateCapital":false,"nationalCapital":false,"pk":null,"quiz":"asia","code":null,"archived":false,"percentageOfSessions":null}, {"name":"Новая Теберда","state":"Karachay-Cherkessia","territory":"","country":"Russia","latitude":43.672734,"longitude":41.895026,"population":719,"stateCapital":false,"nationalCapital":false,"pk":null,"quiz":"asia","code":null,"archived":false,"percentageOfSessions":null}, {"name":"Ново-Исправненский","state":"Karachay-Cherkessia","territory":"","country":"Russia","latitude":43.9792785,"longitude":41.5450845,"population":458,"stateCapital":false,"nationalCapital":false,"pk":null,"quiz":"asia","code":null,"archived":false,"percentageOfSessions":null}, {"name":"Ново-Кувинск","state":"Karachay-Cherkessia","territory":"","country":"Russia","latitude":44.3983118,"longitude":41.782404,"population":709,"stateCapital":false,"nationalCapital":false,"pk":null,"quiz":"asia","code":null,"archived":false,"percentageOfSessions":null}, {"name":"Ново-Хумаринский","state":"Karachay-Cherkessia","territory":"","country":"Russia","latitude":44.2190605,"longitude":41.8954655,"population":410,"stateCapital":false,"nationalCapital":false,"pk":null,"quiz":"asia","code":null,"archived":false,"percentageOfSessions":null}, {"name":"Новый","state":"Karachay-Cherkessia","territory":"","country":"Russia","latitude":44.2541402,"longitude":42.5382059,"population":194,"stateCapital":false,"nationalCapital":false,"pk":null,"quiz":"asia","code":null,"archived":false,"percentageOfSessions":null}, {"name":"Новый Карачай","state":"Karachay-Cherkessia","territory":"","country":"Russia","latitude":43.8174938,"longitude":41.9056552,"population":3035,"stateCapital":false,"nationalCapital":false,"pk":null,"quiz":"asia","code":null,"archived":false,"percentageOfSessions":null}, {"name":"Октябрьский","state":"Karachay-Cherkessia","territory":"","country":"Russia","latitude":44.2525418,"longitude":42.4884456,"population":1563,"stateCapital":false,"nationalCapital":false,"pk":null,"quiz":"asia","code":null,"archived":false,"percentageOfSessions":null}, {"name":"Орджоникидзевский","state":"Karachay-Cherkessia","territory":"","country":"Russia","latitude":43.845836,"longitude":41.897158,"population":3039,"stateCapital":false,"nationalCapital":false,"pk":null,"quiz":"asia","code":null,"archived":false,"percentageOfSessions":null}, {"name":"Первомайский","state":"Karachay-Cherkessia","territory":"","country":"Russia","latitude":44.0868753,"longitude":41.0235196,"population":0,"stateCapital":false,"nationalCapital":false,"pk":null,"quiz":"asia","code":null,"archived":false,"percentageOfSessions":null}, {"name":"Первомайское","state":"Karachay-Cherkessia","territory":"","country":"Russia","latitude":43.9399973,"longitude":42.4924063,"population":5904,"stateCapital":false,"nationalCapital":false,"pk":null,"quiz":"asia","code":null,"archived":false,"percentageOfSessions":null}, {"name":"Подскальное","state":"Karachay-Cherkessia","territory":"","country":"Russia","latitude":44.0803398,"longitude":40.9484517,"population":221,"stateCapital":false,"nationalCapital":false,"pk":null,"quiz":"asia","code":null,"archived":false,"percentageOfSessions":null}, {"name":"Правокубанский","state":"Karachay-Cherkessia","territory":"","country":"Russia","latitude":43.906948,"longitude":41.8848413,"population":3187,"stateCapital":false,"nationalCapital":false,"pk":null,"quiz":"asia","code":null,"archived":false,"percentageOfSessions":null}, {"name":"Преградная","state":"Karachay-Cherkessia","territory":"","country":"Russia","latitude":43.9528755,"longitude":41.1917906,"population":7466,"stateCapital":false,"nationalCapital":false,"pk":null,"quiz":"asia","code":null,"archived":false,"percentageOfSessions":null}, {"name":"Предгорное","state":"Karachay-Cherkessia","territory":"","country":"Russia","latitude":44.0650762,"longitude":40.9367539,"population":458,"stateCapital":false,"nationalCapital":false,"pk":null,"quiz":"asia","code":null,"archived":false,"percentageOfSessions":null}, {"name":"Привольное","state":"Karachay-Cherkessia","territory":"","country":"Russia","latitude":44.1613607,"longitude":42.1479338,"population":797,"stateCapital":false,"nationalCapital":false,"pk":null,"quiz":"asia","code":null,"archived":false,"percentageOfSessions":null}, {"name":"Пригородное","state":"Karachay-Cherkessia","territory":"","country":"Russia","latitude":44.2357559,"longitude":42.1158546,"population":978,"stateCapital":false,"nationalCapital":false,"pk":null,"quiz":"asia","code":null,"archived":false,"percentageOfSessions":null}, {"name":"Пристань","state":"Karachay-Cherkessia","territory":"","country":"Russia","latitude":44.1021592,"longitude":42.2032731,"population":844,"stateCapital":false,"nationalCapital":false,"pk":null,"quiz":"asia","code":null,"archived":false,"percentageOfSessions":null}, {"name":"Псаучье-Дахе","state":"Karachay-Cherkessia","territory":"","country":"Russia","latitude":44.2134287,"longitude":41.8803351,"population":2000,"stateCapital":false,"nationalCapital":false,"pk":null,"quiz":"asia","code":null,"archived":false,"percentageOfSessions":null}, {"name":"Псемен","state":"Karachay-Cherkessia","territory":"","country":"Russia","latitude":43.9794924,"longitude":40.9743989,"population":899,"stateCapital":false,"nationalCapital":false,"pk":null,"quiz":"asia","code":null,"archived":false,"percentageOfSessions":null}, {"name":"Псыж","state":"Karachay-Cherkessia","territory":"","country":"Russia","latitude":44.2389044,"longitude":42.0170923,"population":8182,"stateCapital":false,"nationalCapital":false,"pk":null,"quiz":"asia","code":null,"archived":false,"percentageOfSessions":null}, {"name":"Пхия","state":"Karachay-Cherkessia","territory":"","country":"Russia","latitude":43.5920267,"longitude":40.9431944,"population":151,"stateCapital":false,"nationalCapital":false,"pk":null,"quiz":"asia","code":null,"archived":false,"percentageOfSessions":null}, {"name":"Римгорское","state":"Karachay-Cherkessia","territory":"","country":"Russia","latitude":43.9563825,"longitude":42.5219195,"population":1777,"stateCapital":false,"nationalCapital":false,"pk":null,"quiz":"asia","code":null,"archived":false,"percentageOfSessions":null}, {"name":"Родниковский","state":"Karachay-Cherkessia","territory":"","country":"Russia","latitude":44.2918131,"longitude":42.3760074,"population":291,"stateCapital":false,"nationalCapital":false,"pk":null,"quiz":"asia","code":null,"archived":false,"percentageOfSessions":null}, {"name":"Рожкао","state":"Karachay-Cherkessia","territory":"","country":"Russia","latitude":43.8150721,"longitude":40.9116068,"population":108,"stateCapital":false,"nationalCapital":false,"pk":null,"quiz":"asia","code":null,"archived":false,"percentageOfSessions":null}, {"name":"Садовое","state":"Karachay-Cherkessia","territory":"","country":"Russia","latitude":44.3254642,"longitude":42.0372903,"population":1672,"stateCapital":false,"nationalCapital":false,"pk":null,"quiz":"asia","code":null,"archived":false,"percentageOfSessions":null}, {"name":"Сары-Тюз","state":"Karachay-Cherkessia","territory":"","country":"Russia","latitude":43.9045672,"longitude":41.8934243,"population":4297,"stateCapital":false,"nationalCapital":false,"pk":null,"quiz":"asia","code":null,"archived":false,"percentageOfSessions":null}, {"name":"Светлое","state":"Karachay-Cherkessia","territory":"","country":"Russia","latitude":44.1553878,"longitude":42.225911,"population":778,"stateCapital":false,"nationalCapital":false,"pk":null,"quiz":"asia","code":null,"archived":false,"percentageOfSessions":null}, {"name":"Солнечный","state":"Karachay-Cherkessia","territory":"","country":"Russia","latitude":44.2147052,"longitude":42.4715798,"population":336,"stateCapital":false,"nationalCapital":false,"pk":null,"quiz":"asia","code":null,"archived":false,"percentageOfSessions":null}, {"name":"Спарта","state":"Karachay-Cherkessia","territory":"","country":"Russia","latitude":44.4130889,"longitude":41.7970199,"population":569,"stateCapital":false,"nationalCapital":false,"pk":null,"quiz":"asia","code":null,"archived":false,"percentageOfSessions":null}, {"name":"Старо-Кувинск","state":"Karachay-Cherkessia","territory":"","country":"Russia","latitude":44.3509318,"longitude":41.7774241,"population":1373,"stateCapital":false,"nationalCapital":false,"pk":null,"quiz":"asia","code":null,"archived":false,"percentageOfSessions":null}, {"name":"Сторожевая","state":"Karachay-Cherkessia","territory":"","country":"Russia","latitude":43.888099,"longitude":41.4534086,"population":9952,"stateCapital":false,"nationalCapital":false,"pk":null,"quiz":"asia","code":null,"archived":false,"percentageOfSessions":null}, {"name":"Счастливое","state":"Karachay-Cherkessia","territory":"","country":"Russia","latitude":44.1622074,"longitude":42.2551792,"population":1632,"stateCapital":false,"nationalCapital":false,"pk":null,"quiz":"asia","code":null,"archived":false,"percentageOfSessions":null}, {"name":"Таллык","state":"Karachay-Cherkessia","territory":"","country":"Russia","latitude":44.1535792,"longitude":42.3482061,"population":788,"stateCapital":false,"nationalCapital":false,"pk":null,"quiz":"asia","code":null,"archived":false,"percentageOfSessions":null}, {"name":"Тапанта","state":"Karachay-Cherkessia","territory":"","country":"Russia","latitude":44.3507476,"longitude":41.6718095,"population":506,"stateCapital":false,"nationalCapital":false,"pk":null,"quiz":"asia","code":null,"archived":false,"percentageOfSessions":null}, {"name":"Теберда","state":"Karachay-Cherkessia","territory":"","country":"Russia","latitude":43.4410989,"longitude":41.7436988,"population":9058,"stateCapital":false,"nationalCapital":false,"pk":null,"quiz":"asia","code":null,"archived":false,"percentageOfSessions":null}, {"name":"Терезе","state":"Karachay-Cherkessia","territory":"","country":"Russia","latitude":43.9273503,"longitude":42.4283998,"population":7059,"stateCapital":false,"nationalCapital":false,"pk":null,"quiz":"asia","code":null,"archived":false,"percentageOfSessions":null}, {"name":"Ударный","state":"Karachay-Cherkessia","territory":"","country":"Russia","latitude":44.349224,"longitude":42.5031194,"population":1083,"stateCapital":false,"nationalCapital":false,"pk":null,"quiz":"asia","code":null,"archived":false,"percentageOfSessions":null}, {"name":"Уруп","state":"Karachay-Cherkessia","territory":"","country":"Russia","latitude":43.8539191,"longitude":41.1422786,"population":1530,"stateCapital":false,"nationalCapital":false,"pk":null,"quiz":"asia","code":null,"archived":false,"percentageOfSessions":null}, {"name":"Усть-Джегута","state":"Karachay-Cherkessia","territory":"","country":"Russia","latitude":44.0858961,"longitude":41.9722557,"population":30566,"stateCapital":false,"nationalCapital":false,"pk":null,"quiz":"asia","code":null,"archived":false,"percentageOfSessions":null}, {"name":"Учкекен","state":"Karachay-Cherkessia","territory":"","country":"Russia","latitude":43.9465576,"longitude":42.5147956,"population":16512,"stateCapital":false,"nationalCapital":false,"pk":null,"quiz":"asia","code":null,"archived":false,"percentageOfSessions":null}, {"name":"Учкулан","state":"Karachay-Cherkessia","territory":"","country":"Russia","latitude":43.4539941,"longitude":42.0961667,"population":773,"stateCapital":false,"nationalCapital":false,"pk":null,"quiz":"asia","code":null,"archived":false,"percentageOfSessions":null}, {"name":"Фроловский","state":"Karachay-Cherkessia","territory":"","country":"Russia","latitude":44.163618,"longitude":41.6920349,"population":195,"stateCapital":false,"nationalCapital":false,"pk":null,"quiz":"asia","code":null,"archived":false,"percentageOfSessions":null}, {"name":"Хабез","state":"Karachay-Cherkessia","territory":"","country":"Russia","latitude":44.0461094,"longitude":41.7695948,"population":6240,"stateCapital":false,"nationalCapital":false,"pk":null,"quiz":"asia","code":null,"archived":false,"percentageOfSessions":null}, {"name":"Хасаут","state":"Karachay-Cherkessia","territory":"","country":"Russia","latitude":43.7057601,"longitude":42.5152798,"population":84,"stateCapital":false,"nationalCapital":false,"pk":null,"quiz":"asia","code":null,"archived":false,"percentageOfSessions":null}, {"name":"Хасаут-Греческое","state":"Karachay-Cherkessia","territory":"","country":"Russia","latitude":43.7166755,"longitude":41.6726925,"population":601,"stateCapital":false,"nationalCapital":false,"pk":null,"quiz":"asia","code":null,"archived":false,"percentageOfSessions":null}, {"name":"Холоднородниковский","state":"Karachay-Cherkessia","territory":"","country":"Russia","latitude":44.1396,"longitude":42.2993,"population":133,"stateCapital":false,"nationalCapital":false,"pk":null,"quiz":"asia","code":null,"archived":false,"percentageOfSessions":null}, {"name":"Холоднородниковское","state":"Karachay-Cherkessia","territory":"","country":"Russia","latitude":44.1402681,"longitude":42.2601789,"population":930,"stateCapital":false,"nationalCapital":false,"pk":null,"quiz":"asia","code":null,"archived":false,"percentageOfSessions":null}, {"name":"Хумара","state":"Karachay-Cherkessia","territory":"","country":"Russia","latitude":43.8591588,"longitude":41.9148391,"population":1558,"stateCapital":false,"nationalCapital":false,"pk":null,"quiz":"asia","code":null,"archived":false,"percentageOfSessions":null}, {"name":"Хурзук","state":"Karachay-Cherkessia","territory":"","country":"Russia","latitude":43.4261723,"longitude":42.1549945,"population":1381,"stateCapital":false,"nationalCapital":false,"pk":null,"quiz":"asia","code":null,"archived":false,"percentageOfSessions":null}, {"name":"Хуса-Кардоник","state":"Karachay-Cherkessia","territory":"","country":"Russia","latitude":43.7861712,"longitude":41.5744331,"population":404,"stateCapital":false,"nationalCapital":false,"pk":null,"quiz":"asia","code":null,"archived":false,"percentageOfSessions":null}, {"name":"Чапаевское","state":"Karachay-Cherkessia","territory":"","country":"Russia","latitude":44.280174,"longitude":42.0616936,"population":5154,"stateCapital":false,"nationalCapital":false,"pk":null,"quiz":"asia","code":null,"archived":false,"percentageOfSessions":null}, {"name":"Черкесск","state":"Karachay-Cherkessia","territory":"","country":"Russia","latitude":44.2285229,"longitude":42.048257,"population":129069,"stateCapital":true,"nationalCapital":false,"pk":null,"quiz":"asia","code":null,"archived":false,"percentageOfSessions":null}, {"name":"Эльбрусский","state":"Karachay-Cherkessia","territory":"","country":"Russia","latitude":43.5555567,"longitude":42.134002,"population":320,"stateCapital":false,"nationalCapital":false,"pk":null,"quiz":"asia","code":null,"archived":false,"percentageOfSessions":null}, {"name":"Эльбурган","state":"Karachay-Cherkessia","territory":"","country":"Russia","latitude":44.0877378,"longitude":41.8018671,"population":2495,"stateCapital":false,"nationalCapital":false,"pk":null,"quiz":"asia","code":null,"archived":false,"percentageOfSessions":null}, {"name":"Элькуш","state":"Karachay-Cherkessia","territory":"","country":"Russia","latitude":43.8634135,"longitude":42.6446145,"population":446,"stateCapital":false,"nationalCapital":false,"pk":null,"quiz":"asia","code":null,"archived":false,"percentageOfSessions":null}, {"name":"Эльтаркач","state":"Karachay-Cherkessia","territory":"","country":"Russia","latitude":43.9861362,"longitude":42.1270483,"population":3173,"stateCapital":false,"nationalCapital":false,"pk":null,"quiz":"asia","code":null,"archived":false,"percentageOfSessions":null}, {"name":"Эркен-Халк","state":"Karachay-Cherkessia","territory":"","country":"Russia","latitude":44.373018,"longitude":41.9379287,"population":1726,"stateCapital":false,"nationalCapital":false,"pk":null,"quiz":"asia","code":null,"archived":false,"percentageOfSessions":null}, {"name":"Эркен-Шахар","state":"Karachay-Cherkessia","territory":"","country":"Russia","latitude":44.3768288,"longitude":41.9579221,"population":4184,"stateCapital":false,"nationalCapital":false,"pk":null,"quiz":"asia","code":null,"archived":false,"percentageOfSessions":null}, {"name":"Эркен-Юрт","state":"Karachay-Cherkessia","territory":"","country":"Russia","latitude":44.4475791,"longitude":41.9138091,"population":2206,"stateCapital":false,"nationalCapital":false,"pk":null,"quiz":"asia","code":null,"archived":false,"percentageOfSessions":null}, {"name":"Эрсакон","state":"Karachay-Cherkessia","territory":"","country":"Russia","latitude":44.4314618,"longitude":41.7733043,"population":2626,"stateCapital":false,"nationalCapital":false,"pk":null,"quiz":"asia","code":null,"archived":false,"percentageOfSessions":null}],"startTimeMs":0}