{"cities":[{"name":"17 Лет Октября","state":"Adygea","territory":"","country":"Russia","latitude":44.6314515,"longitude":40.1916559,"population":174,"stateCapital":false,"nationalCapital":false,"pk":null,"quiz":"asia","code":null,"archived":false,"percentageOfSessions":null}, {"name":"Абадзехская","state":"Adygea","territory":"","country":"Russia","latitude":44.3905588,"longitude":40.2196309,"population":3623,"stateCapital":false,"nationalCapital":false,"pk":null,"quiz":"asia","code":null,"archived":false,"percentageOfSessions":null}, {"name":"Адамий","state":"Adygea","territory":"","country":"Russia","latitude":45.0676583,"longitude":39.4984622,"population":1354,"stateCapital":false,"nationalCapital":false,"pk":null,"quiz":"asia","code":null,"archived":false,"percentageOfSessions":null}, {"name":"Адыгейск","state":"Adygea","territory":"","country":"Russia","latitude":44.8833775,"longitude":39.1909625,"population":12237,"stateCapital":false,"nationalCapital":false,"pk":null,"quiz":"asia","code":null,"archived":false,"percentageOfSessions":null}, {"name":"Апостолиди","state":"Adygea","territory":"","country":"Russia","latitude":44.8952109,"longitude":38.9678332,"population":75,"stateCapital":false,"nationalCapital":false,"pk":null,"quiz":"asia","code":null,"archived":false,"percentageOfSessions":null}, {"name":"Ассоколай","state":"Adygea","territory":"","country":"Russia","latitude":44.8452834,"longitude":39.4676134,"population":1563,"stateCapital":false,"nationalCapital":false,"pk":null,"quiz":"asia","code":null,"archived":false,"percentageOfSessions":null}, {"name":"Афипсип","state":"Adygea","territory":"","country":"Russia","latitude":44.9981935,"longitude":38.7779196,"population":2121,"stateCapital":false,"nationalCapital":false,"pk":null,"quiz":"asia","code":null,"archived":false,"percentageOfSessions":null}, {"name":"Безводная","state":"Adygea","territory":"","country":"Russia","latitude":44.3769714,"longitude":39.9156027,"population":52,"stateCapital":false,"nationalCapital":false,"pk":null,"quiz":"asia","code":null,"archived":false,"percentageOfSessions":null}, {"name":"Белое","state":"Adygea","territory":"","country":"Russia","latitude":45.0478333,"longitude":39.6505455,"population":2926,"stateCapital":false,"nationalCapital":false,"pk":null,"quiz":"asia","code":null,"archived":false,"percentageOfSessions":null}, {"name":"Бжедугхабль","state":"Adygea","territory":"","country":"Russia","latitude":44.9744017,"longitude":39.7040377,"population":902,"stateCapital":false,"nationalCapital":false,"pk":null,"quiz":"asia","code":null,"archived":false,"percentageOfSessions":null}, {"name":"Блечепсин","state":"Adygea","territory":"","country":"Russia","latitude":44.822246,"longitude":40.4931803,"population":3148,"stateCapital":false,"nationalCapital":false,"pk":null,"quiz":"asia","code":null,"archived":false,"percentageOfSessions":null}, {"name":"Богурсуков","state":"Adygea","territory":"","country":"Russia","latitude":45.0407899,"longitude":39.7044343,"population":151,"stateCapital":false,"nationalCapital":false,"pk":null,"quiz":"asia","code":null,"archived":false,"percentageOfSessions":null}, {"name":"Большесидоровское","state":"Adygea","territory":"","country":"Russia","latitude":45.0371627,"longitude":39.8358997,"population":1499,"stateCapital":false,"nationalCapital":false,"pk":null,"quiz":"asia","code":null,"archived":false,"percentageOfSessions":null}, {"name":"Верхненазаровское","state":"Adygea","territory":"","country":"Russia","latitude":45.0061923,"longitude":39.7510983,"population":552,"stateCapital":false,"nationalCapital":false,"pk":null,"quiz":"asia","code":null,"archived":false,"percentageOfSessions":null}, {"name":"Веселый","state":"Adygea","territory":"","country":"Russia","latitude":44.6732604,"longitude":39.9368419,"population":638,"stateCapital":false,"nationalCapital":false,"pk":null,"quiz":"asia","code":null,"archived":false,"percentageOfSessions":null}, {"name":"Веселый","state":"Adygea","territory":"","country":"Russia","latitude":44.4019187,"longitude":40.1958133,"population":15,"stateCapital":false,"nationalCapital":false,"pk":null,"quiz":"asia","code":null,"archived":false,"percentageOfSessions":null}, {"name":"Веселый","state":"Adygea","territory":"","country":"Russia","latitude":44.4019187,"longitude":40.1958133,"population":308,"stateCapital":false,"nationalCapital":false,"pk":null,"quiz":"asia","code":null,"archived":false,"percentageOfSessions":null}, {"name":"Веселый","state":"Adygea","territory":"","country":"Russia","latitude":45.058226,"longitude":40.0650771,"population":283,"stateCapital":false,"nationalCapital":false,"pk":null,"quiz":"asia","code":null,"archived":false,"percentageOfSessions":null}, {"name":"Владимировское","state":"Adygea","territory":"","country":"Russia","latitude":44.7547566,"longitude":40.1916035,"population":78,"stateCapital":false,"nationalCapital":false,"pk":null,"quiz":"asia","code":null,"archived":false,"percentageOfSessions":null}, {"name":"Водный","state":"Adygea","territory":"","country":"Russia","latitude":45.1846912,"longitude":39.5705945,"population":0,"stateCapital":false,"nationalCapital":false,"pk":null,"quiz":"asia","code":null,"archived":false,"percentageOfSessions":null}, {"name":"Вольно-Веселый","state":"Adygea","territory":"","country":"Russia","latitude":44.9071909,"longitude":40.2626133,"population":84,"stateCapital":false,"nationalCapital":false,"pk":null,"quiz":"asia","code":null,"archived":false,"percentageOfSessions":null}, {"name":"Вольное","state":"Adygea","territory":"","country":"Russia","latitude":44.6282921,"longitude":40.6994921,"population":3679,"stateCapital":false,"nationalCapital":false,"pk":null,"quiz":"asia","code":null,"archived":false,"percentageOfSessions":null}, {"name":"Вольный","state":"Adygea","territory":"","country":"Russia","latitude":44.6852142,"longitude":40.1855922,"population":255,"stateCapital":false,"nationalCapital":false,"pk":null,"quiz":"asia","code":null,"archived":false,"percentageOfSessions":null}, {"name":"Вочепший","state":"Adygea","territory":"","country":"Russia","latitude":44.8760249,"longitude":39.2815483,"population":1395,"stateCapital":false,"nationalCapital":false,"pk":null,"quiz":"asia","code":null,"archived":false,"percentageOfSessions":null}, {"name":"Габукай","state":"Adygea","territory":"","country":"Russia","latitude":44.9270383,"longitude":39.566152,"population":1878,"stateCapital":false,"nationalCapital":false,"pk":null,"quiz":"asia","code":null,"archived":false,"percentageOfSessions":null}, {"name":"Гатлукай","state":"Adygea","territory":"","country":"Russia","latitude":44.8920216,"longitude":39.2366196,"population":1513,"stateCapital":false,"nationalCapital":false,"pk":null,"quiz":"asia","code":null,"archived":false,"percentageOfSessions":null}, {"name":"Псекупс","state":"Adygea","territory":"","country":"Russia","latitude":44.8311631,"longitude":39.2111962,"population":909,"stateCapital":false,"nationalCapital":false,"pk":null,"quiz":"asia","code":null,"archived":false,"percentageOfSessions":null}, {"name":"Георгиевское","state":"Adygea","territory":"","country":"Russia","latitude":44.7664746,"longitude":40.4110689,"population":215,"stateCapital":false,"nationalCapital":false,"pk":null,"quiz":"asia","code":null,"archived":false,"percentageOfSessions":null}, {"name":"Гиагинская","state":"Adygea","territory":"","country":"Russia","latitude":44.8755853,"longitude":40.0564982,"population":14121,"stateCapital":false,"nationalCapital":false,"pk":null,"quiz":"asia","code":null,"archived":false,"percentageOfSessions":null}, {"name":"Гончарка","state":"Adygea","territory":"","country":"Russia","latitude":44.8072587,"longitude":39.9574004,"population":1537,"stateCapital":false,"nationalCapital":false,"pk":null,"quiz":"asia","code":null,"archived":false,"percentageOfSessions":null}, {"name":"Городской","state":"Adygea","territory":"","country":"Russia","latitude":44.9911573,"longitude":39.4337427,"population":288,"stateCapital":false,"nationalCapital":false,"pk":null,"quiz":"asia","code":null,"archived":false,"percentageOfSessions":null}, {"name":"Гражданский","state":"Adygea","territory":"","country":"Russia","latitude":44.6853003,"longitude":40.1469165,"population":345,"stateCapital":false,"nationalCapital":false,"pk":null,"quiz":"asia","code":null,"archived":false,"percentageOfSessions":null}, {"name":"Грозный","state":"Adygea","territory":"","country":"Russia","latitude":44.5591673,"longitude":40.1313188,"population":414,"stateCapital":false,"nationalCapital":false,"pk":null,"quiz":"asia","code":null,"archived":false,"percentageOfSessions":null}, {"name":"Грозный","state":"Adygea","territory":"","country":"Russia","latitude":44.5591673,"longitude":40.1313188,"population":640,"stateCapital":false,"nationalCapital":false,"pk":null,"quiz":"asia","code":null,"archived":false,"percentageOfSessions":null}, {"name":"Гузерипль","state":"Adygea","territory":"","country":"Russia","latitude":43.9954192,"longitude":40.1338029,"population":106,"stateCapital":false,"nationalCapital":false,"pk":null,"quiz":"asia","code":null,"archived":false,"percentageOfSessions":null}, {"name":"Дагестанская","state":"Adygea","territory":"","country":"Russia","latitude":44.3751915,"longitude":40.0219095,"population":530,"stateCapital":false,"nationalCapital":false,"pk":null,"quiz":"asia","code":null,"archived":false,"percentageOfSessions":null}, {"name":"Даховская","state":"Adygea","territory":"","country":"Russia","latitude":44.2310538,"longitude":40.2034043,"population":1427,"stateCapital":false,"nationalCapital":false,"pk":null,"quiz":"asia","code":null,"archived":false,"percentageOfSessions":null}, {"name":"Джамбичи","state":"Adygea","territory":"","country":"Russia","latitude":45.0865614,"longitude":39.8588438,"population":623,"stateCapital":false,"nationalCapital":false,"pk":null,"quiz":"asia","code":null,"archived":false,"percentageOfSessions":null}, {"name":"Джерокай","state":"Adygea","territory":"","country":"Russia","latitude":44.9908397,"longitude":40.3113481,"population":1157,"stateCapital":false,"nationalCapital":false,"pk":null,"quiz":"asia","code":null,"archived":false,"percentageOfSessions":null}, {"name":"Джиджихабль","state":"Adygea","territory":"","country":"Russia","latitude":44.9476064,"longitude":39.40618,"population":749,"stateCapital":false,"nationalCapital":false,"pk":null,"quiz":"asia","code":null,"archived":false,"percentageOfSessions":null}, {"name":"Дмитриевский","state":"Adygea","territory":"","country":"Russia","latitude":44.940082,"longitude":40.3665564,"population":509,"stateCapital":false,"nationalCapital":false,"pk":null,"quiz":"asia","code":null,"archived":false,"percentageOfSessions":null}, {"name":"Днепровский","state":"Adygea","territory":"","country":"Russia","latitude":44.7542604,"longitude":40.3001973,"population":174,"stateCapital":false,"nationalCapital":false,"pk":null,"quiz":"asia","code":null,"archived":false,"percentageOfSessions":null}, {"name":"Догужиев","state":"Adygea","territory":"","country":"Russia","latitude":45.1283333,"longitude":39.7558333,"population":18,"stateCapital":false,"nationalCapital":false,"pk":null,"quiz":"asia","code":null,"archived":false,"percentageOfSessions":null}, {"name":"Дондуковская","state":"Adygea","territory":"","country":"Russia","latitude":44.8793351,"longitude":40.3583202,"population":6603,"stateCapital":false,"nationalCapital":false,"pk":null,"quiz":"asia","code":null,"archived":false,"percentageOfSessions":null}, {"name":"Дорошенко","state":"Adygea","territory":"","country":"Russia","latitude":44.9993792,"longitude":40.1506284,"population":156,"stateCapital":false,"nationalCapital":false,"pk":null,"quiz":"asia","code":null,"archived":false,"percentageOfSessions":null}, {"name":"Дружба","state":"Adygea","territory":"","country":"Russia","latitude":44.9354291,"longitude":40.3783326,"population":782,"stateCapital":false,"nationalCapital":false,"pk":null,"quiz":"asia","code":null,"archived":false,"percentageOfSessions":null}, {"name":"Дружный","state":"Adygea","territory":"","country":"Russia","latitude":44.9558667,"longitude":38.8930742,"population":412,"stateCapital":false,"nationalCapital":false,"pk":null,"quiz":"asia","code":null,"archived":false,"percentageOfSessions":null}, {"name":"Дукмасов","state":"Adygea","territory":"","country":"Russia","latitude":45.0055877,"longitude":39.9145884,"population":520,"stateCapital":false,"nationalCapital":false,"pk":null,"quiz":"asia","code":null,"archived":false,"percentageOfSessions":null}, {"name":"Дьяков","state":"Adygea","territory":"","country":"Russia","latitude":44.6622072,"longitude":40.1498437,"population":135,"stateCapital":false,"nationalCapital":false,"pk":null,"quiz":"asia","code":null,"archived":false,"percentageOfSessions":null}, {"name":"Егерухай","state":"Adygea","territory":"","country":"Russia","latitude":45.0066289,"longitude":40.3903611,"population":1617,"stateCapital":false,"nationalCapital":false,"pk":null,"quiz":"asia","code":null,"archived":false,"percentageOfSessions":null}, {"name":"Екатериновский","state":"Adygea","territory":"","country":"Russia","latitude":44.7625053,"longitude":40.3591653,"population":157,"stateCapital":false,"nationalCapital":false,"pk":null,"quiz":"asia","code":null,"archived":false,"percentageOfSessions":null}, {"name":"Еленовское","state":"Adygea","territory":"","country":"Russia","latitude":45.1016137,"longitude":39.7009238,"population":2605,"stateCapital":false,"nationalCapital":false,"pk":null,"quiz":"asia","code":null,"archived":false,"percentageOfSessions":null}, {"name":"Задунаевский","state":"Adygea","territory":"","country":"Russia","latitude":44.9717525,"longitude":40.1592943,"population":38,"stateCapital":false,"nationalCapital":false,"pk":null,"quiz":"asia","code":null,"archived":false,"percentageOfSessions":null}, {"name":"Гавердовский","state":"Adygea","territory":"","country":"Russia","latitude":44.6204404,"longitude":40.0158778,"population":3625,"stateCapital":false,"nationalCapital":false,"pk":null,"quiz":"asia","code":null,"archived":false,"percentageOfSessions":null}, {"name":"Зарево","state":"Adygea","territory":"","country":"Russia","latitude":44.9928211,"longitude":40.0769158,"population":1027,"stateCapital":false,"nationalCapital":false,"pk":null,"quiz":"asia","code":null,"archived":false,"percentageOfSessions":null}, {"name":"Заря","state":"Adygea","territory":"","country":"Russia","latitude":44.8929,"longitude":39.3315,"population":0,"stateCapital":false,"nationalCapital":false,"pk":null,"quiz":"asia","code":null,"archived":false,"percentageOfSessions":null}, {"name":"Игнатьевский","state":"Adygea","territory":"","country":"Russia","latitude":44.8438781,"longitude":40.4575599,"population":997,"stateCapital":false,"nationalCapital":false,"pk":null,"quiz":"asia","code":null,"archived":false,"percentageOfSessions":null}, {"name":"Кабехабль","state":"Adygea","territory":"","country":"Russia","latitude":45.0445695,"longitude":40.1841524,"population":931,"stateCapital":false,"nationalCapital":false,"pk":null,"quiz":"asia","code":null,"archived":false,"percentageOfSessions":null}, {"name":"Казазов","state":"Adygea","territory":"","country":"Russia","latitude":44.9031428,"longitude":39.1770909,"population":272,"stateCapital":false,"nationalCapital":false,"pk":null,"quiz":"asia","code":null,"archived":false,"percentageOfSessions":null}, {"name":"Казенно-Кужорский","state":"Adygea","territory":"","country":"Russia","latitude":44.6663772,"longitude":40.6673361,"population":808,"stateCapital":false,"nationalCapital":false,"pk":null,"quiz":"asia","code":null,"archived":false,"percentageOfSessions":null}, {"name":"Калинин","state":"Adygea","territory":"","country":"Russia","latitude":44.7029825,"longitude":40.1339464,"population":236,"stateCapital":false,"nationalCapital":false,"pk":null,"quiz":"asia","code":null,"archived":false,"percentageOfSessions":null}, {"name":"Каменномостский","state":"Adygea","territory":"","country":"Russia","latitude":44.2930144,"longitude":40.1815174,"population":7213,"stateCapital":false,"nationalCapital":false,"pk":null,"quiz":"asia","code":null,"archived":false,"percentageOfSessions":null}, {"name":"Кармир-Астх","state":"Adygea","territory":"","country":"Russia","latitude":44.6124778,"longitude":40.2293293,"population":23,"stateCapital":false,"nationalCapital":false,"pk":null,"quiz":"asia","code":null,"archived":false,"percentageOfSessions":null}, {"name":"Кармолино-Гидроицкий","state":"Adygea","territory":"","country":"Russia","latitude":44.5761335,"longitude":40.6831048,"population":193,"stateCapital":false,"nationalCapital":false,"pk":null,"quiz":"asia","code":null,"archived":false,"percentageOfSessions":null}, {"name":"Карцев","state":"Adygea","territory":"","country":"Russia","latitude":44.7498725,"longitude":40.3586901,"population":70,"stateCapital":false,"nationalCapital":false,"pk":null,"quiz":"asia","code":null,"archived":false,"percentageOfSessions":null}, {"name":"Касаткин","state":"Adygea","territory":"","country":"Russia","latitude":44.9399595,"longitude":40.0117383,"population":144,"stateCapital":false,"nationalCapital":false,"pk":null,"quiz":"asia","code":null,"archived":false,"percentageOfSessions":null}, {"name":"Келеметов","state":"Adygea","territory":"","country":"Russia","latitude":44.9524129,"longitude":40.1076112,"population":33,"stateCapital":false,"nationalCapital":false,"pk":null,"quiz":"asia","code":null,"archived":false,"percentageOfSessions":null}, {"name":"Келермесская","state":"Adygea","territory":"","country":"Russia","latitude":44.7834831,"longitude":40.1323915,"population":2749,"stateCapital":false,"nationalCapital":false,"pk":null,"quiz":"asia","code":null,"archived":false,"percentageOfSessions":null}, {"name":"Киров","state":"Adygea","territory":"","country":"Russia","latitude":45.0922812,"longitude":40.2666344,"population":117,"stateCapital":false,"nationalCapital":false,"pk":null,"quiz":"asia","code":null,"archived":false,"percentageOfSessions":null}, {"name":"Козет","state":"Adygea","territory":"","country":"Russia","latitude":44.9960955,"longitude":38.9988045,"population":1766,"stateCapital":false,"nationalCapital":false,"pk":null,"quiz":"asia","code":null,"archived":false,"percentageOfSessions":null}, {"name":"Козополянский","state":"Adygea","territory":"","country":"Russia","latitude":44.7569207,"longitude":40.3539558,"population":77,"stateCapital":false,"nationalCapital":false,"pk":null,"quiz":"asia","code":null,"archived":false,"percentageOfSessions":null}, {"name":"Колос","state":"Adygea","territory":"","country":"Russia","latitude":44.9130185,"longitude":39.3904871,"population":173,"stateCapital":false,"nationalCapital":false,"pk":null,"quiz":"asia","code":null,"archived":false,"percentageOfSessions":null}, {"name":"Колхозный","state":"Adygea","territory":"","country":"Russia","latitude":44.7553103,"longitude":40.2929814,"population":76,"stateCapital":false,"nationalCapital":false,"pk":null,"quiz":"asia","code":null,"archived":false,"percentageOfSessions":null}, {"name":"Коминтерн","state":"Adygea","territory":"","country":"Russia","latitude":44.703878,"longitude":40.1977885,"population":271,"stateCapital":false,"nationalCapital":false,"pk":null,"quiz":"asia","code":null,"archived":false,"percentageOfSessions":null}, {"name":"Комсомольский","state":"Adygea","territory":"","country":"Russia","latitude":44.9034507,"longitude":40.4226974,"population":169,"stateCapital":false,"nationalCapital":false,"pk":null,"quiz":"asia","code":null,"archived":false,"percentageOfSessions":null}, {"name":"Западный","state":"Adygea","territory":"","country":"Russia","latitude":44.6292869,"longitude":40.075328,"population":3163,"stateCapital":false,"nationalCapital":false,"pk":null,"quiz":"asia","code":null,"archived":false,"percentageOfSessions":null}, {"name":"Кочкин","state":"Adygea","territory":"","country":"Russia","latitude":44.8347222,"longitude":39.3713889,"population":7,"stateCapital":false,"nationalCapital":false,"pk":null,"quiz":"asia","code":null,"archived":false,"percentageOfSessions":null}, {"name":"Кочкин","state":"Adygea","territory":"","country":"Russia","latitude":44.8347222,"longitude":39.3713889,"population":0,"stateCapital":false,"nationalCapital":false,"pk":null,"quiz":"asia","code":null,"archived":false,"percentageOfSessions":null}, {"name":"Кошехабль","state":"Adygea","territory":"","country":"Russia","latitude":44.8964998,"longitude":40.4963631,"population":7239,"stateCapital":false,"nationalCapital":false,"pk":null,"quiz":"asia","code":null,"archived":false,"percentageOfSessions":null}, {"name":"Красная Улька","state":"Adygea","territory":"","country":"Russia","latitude":44.6966686,"longitude":40.1737667,"population":379,"stateCapital":false,"nationalCapital":false,"pk":null,"quiz":"asia","code":null,"archived":false,"percentageOfSessions":null}, {"name":"Красноармейский","state":"Adygea","territory":"","country":"Russia","latitude":44.8421451,"longitude":39.0462996,"population":52,"stateCapital":false,"nationalCapital":false,"pk":null,"quiz":"asia","code":null,"archived":false,"percentageOfSessions":null}, {"name":"Красногвардейское","state":"Adygea","territory":"","country":"Russia","latitude":45.1443556,"longitude":39.5861478,"population":9459,"stateCapital":false,"nationalCapital":false,"pk":null,"quiz":"asia","code":null,"archived":false,"percentageOfSessions":null}, {"name":"Красное","state":"Adygea","territory":"","country":"Russia","latitude":44.8742358,"longitude":39.4562751,"population":299,"stateCapital":false,"nationalCapital":false,"pk":null,"quiz":"asia","code":null,"archived":false,"percentageOfSessions":null}, {"name":"Краснооктябрьский","state":"Adygea","territory":"","country":"Russia","latitude":44.5790331,"longitude":40.083075,"population":5875,"stateCapital":false,"nationalCapital":false,"pk":null,"quiz":"asia","code":null,"archived":false,"percentageOfSessions":null}, {"name":"Красный","state":"Adygea","territory":"","country":"Russia","latitude":44.7754088,"longitude":40.5201635,"population":209,"stateCapital":false,"nationalCapital":false,"pk":null,"quiz":"asia","code":null,"archived":false,"percentageOfSessions":null}, {"name":"Красный","state":"Adygea","territory":"","country":"Russia","latitude":44.8534,"longitude":39.1675,"population":384,"stateCapital":false,"nationalCapital":false,"pk":null,"quiz":"asia","code":null,"archived":false,"percentageOfSessions":null}, {"name":"Красный Мост","state":"Adygea","territory":"","country":"Russia","latitude":44.5378933,"longitude":40.107215,"population":42,"stateCapital":false,"nationalCapital":false,"pk":null,"quiz":"asia","code":null,"archived":false,"percentageOfSessions":null}, {"name":"Красный Пахарь","state":"Adygea","territory":"","country":"Russia","latitude":44.7409301,"longitude":40.2990528,"population":26,"stateCapital":false,"nationalCapital":false,"pk":null,"quiz":"asia","code":null,"archived":false,"percentageOfSessions":null}, {"name":"Красный Фарс","state":"Adygea","territory":"","country":"Russia","latitude":44.9152161,"longitude":40.3553153,"population":176,"stateCapital":false,"nationalCapital":false,"pk":null,"quiz":"asia","code":null,"archived":false,"percentageOfSessions":null}, {"name":"Красный Хлебороб","state":"Adygea","territory":"","country":"Russia","latitude":44.8880021,"longitude":40.2267075,"population":53,"stateCapital":false,"nationalCapital":false,"pk":null,"quiz":"asia","code":null,"archived":false,"percentageOfSessions":null}, {"name":"Кубаньстрой","state":"Adygea","territory":"","country":"Russia","latitude":44.9969221,"longitude":38.7925183,"population":395,"stateCapital":false,"nationalCapital":false,"pk":null,"quiz":"asia","code":null,"archived":false,"percentageOfSessions":null}, {"name":"Кужорская","state":"Adygea","territory":"","country":"Russia","latitude":44.6726684,"longitude":40.3008521,"population":3531,"stateCapital":false,"nationalCapital":false,"pk":null,"quiz":"asia","code":null,"archived":false,"percentageOfSessions":null}, {"name":"Кунчукохабль","state":"Adygea","territory":"","country":"Russia","latitude":44.9834202,"longitude":39.4758839,"population":553,"stateCapital":false,"nationalCapital":false,"pk":null,"quiz":"asia","code":null,"archived":false,"percentageOfSessions":null}, {"name":"Курджипская","state":"Adygea","territory":"","country":"Russia","latitude":44.461832,"longitude":40.0538557,"population":1576,"stateCapital":false,"nationalCapital":false,"pk":null,"quiz":"asia","code":null,"archived":false,"percentageOfSessions":null}, {"name":"Курский","state":"Adygea","territory":"","country":"Russia","latitude":44.7806528,"longitude":40.3654326,"population":119,"stateCapital":false,"nationalCapital":false,"pk":null,"quiz":"asia","code":null,"archived":false,"percentageOfSessions":null}, {"name":"Лейбоабазов","state":"Adygea","territory":"","country":"Russia","latitude":44.9881728,"longitude":40.1574458,"population":100,"stateCapital":false,"nationalCapital":false,"pk":null,"quiz":"asia","code":null,"archived":false,"percentageOfSessions":null}, {"name":"Лесной","state":"Adygea","territory":"","country":"Russia","latitude":44.7973046,"longitude":40.1863493,"population":184,"stateCapital":false,"nationalCapital":false,"pk":null,"quiz":"asia","code":null,"archived":false,"percentageOfSessions":null}, {"name":"Лесной","state":"Adygea","territory":"","country":"Russia","latitude":45.1675,"longitude":39.6283333,"population":0,"stateCapital":false,"nationalCapital":false,"pk":null,"quiz":"asia","code":null,"archived":false,"percentageOfSessions":null}, {"name":"Лесхозный","state":"Adygea","territory":"","country":"Russia","latitude":45.0800961,"longitude":40.1331617,"population":7,"stateCapital":false,"nationalCapital":false,"pk":null,"quiz":"asia","code":null,"archived":false,"percentageOfSessions":null}, {"name":"Косинов","state":"Adygea","territory":"","country":"Russia","latitude":44.7297235,"longitude":40.0856256,"population":314,"stateCapital":false,"nationalCapital":false,"pk":null,"quiz":"asia","code":null,"archived":false,"percentageOfSessions":null}, {"name":"Майский","state":"Adygea","territory":"","country":"Russia","latitude":44.7804469,"longitude":40.5490781,"population":2500,"stateCapital":false,"nationalCapital":false,"pk":null,"quiz":"asia","code":null,"archived":false,"percentageOfSessions":null}, {"name":"Мамацев","state":"Adygea","territory":"","country":"Russia","latitude":44.9427634,"longitude":39.9922666,"population":250,"stateCapital":false,"nationalCapital":false,"pk":null,"quiz":"asia","code":null,"archived":false,"percentageOfSessions":null}, {"name":"Мамхег","state":"Adygea","territory":"","country":"Russia","latitude":45.0091962,"longitude":40.2191022,"population":2011,"stateCapital":false,"nationalCapital":false,"pk":null,"quiz":"asia","code":null,"archived":false,"percentageOfSessions":null}, {"name":"Мафэхабль","state":"Adygea","territory":"","country":"Russia","latitude":44.6373985,"longitude":40.1822661,"population":96,"stateCapital":false,"nationalCapital":false,"pk":null,"quiz":"asia","code":null,"archived":false,"percentageOfSessions":null}, {"name":"Махошеполяна","state":"Adygea","territory":"","country":"Russia","latitude":44.4550635,"longitude":40.2981463,"population":14,"stateCapital":false,"nationalCapital":false,"pk":null,"quiz":"asia","code":null,"archived":false,"percentageOfSessions":null}, {"name":"Меркулаевка","state":"Adygea","territory":"","country":"Russia","latitude":44.1664824,"longitude":40.2454038,"population":57,"stateCapital":false,"nationalCapital":false,"pk":null,"quiz":"asia","code":null,"archived":false,"percentageOfSessions":null}, {"name":"Мирный","state":"Adygea","territory":"","country":"Russia","latitude":45.0601845,"longitude":39.5771626,"population":13,"stateCapital":false,"nationalCapital":false,"pk":null,"quiz":"asia","code":null,"archived":false,"percentageOfSessions":null}, {"name":"Мирный","state":"Adygea","territory":"","country":"Russia","latitude":44.5452853,"longitude":39.9591652,"population":24,"stateCapital":false,"nationalCapital":false,"pk":null,"quiz":"asia","code":null,"archived":false,"percentageOfSessions":null}, {"name":"Михайлов","state":"Adygea","territory":"","country":"Russia","latitude":44.9766459,"longitude":40.1504061,"population":92,"stateCapital":false,"nationalCapital":false,"pk":null,"quiz":"asia","code":null,"archived":false,"percentageOfSessions":null}, {"name":"Михельсоновский","state":"Adygea","territory":"","country":"Russia","latitude":44.7666773,"longitude":40.3067884,"population":23,"stateCapital":false,"nationalCapital":false,"pk":null,"quiz":"asia","code":null,"archived":false,"percentageOfSessions":null}, {"name":"Мичурина","state":"Adygea","territory":"","country":"Russia","latitude":44.461789,"longitude":40.15791,"population":70,"stateCapital":false,"nationalCapital":false,"pk":null,"quiz":"asia","code":null,"archived":false,"percentageOfSessions":null}, {"name":"Мокроназаров","state":"Adygea","territory":"","country":"Russia","latitude":44.9834018,"longitude":39.9570219,"population":347,"stateCapital":false,"nationalCapital":false,"pk":null,"quiz":"asia","code":null,"archived":false,"percentageOfSessions":null}, {"name":"Набережный","state":"Adygea","territory":"","country":"Russia","latitude":45.2108769,"longitude":39.6330147,"population":98,"stateCapital":false,"nationalCapital":false,"pk":null,"quiz":"asia","code":null,"archived":false,"percentageOfSessions":null}, {"name":"Натухай","state":"Adygea","territory":"","country":"Russia","latitude":44.8661894,"longitude":38.9896915,"population":341,"stateCapital":false,"nationalCapital":false,"pk":null,"quiz":"asia","code":null,"archived":false,"percentageOfSessions":null}, {"name":"Натырбово","state":"Adygea","territory":"","country":"Russia","latitude":44.7311521,"longitude":40.6223502,"population":3027,"stateCapital":false,"nationalCapital":false,"pk":null,"quiz":"asia","code":null,"archived":false,"percentageOfSessions":null}, {"name":"Начерезий","state":"Adygea","territory":"","country":"Russia","latitude":44.9230692,"longitude":39.3844346,"population":351,"stateCapital":false,"nationalCapital":false,"pk":null,"quiz":"asia","code":null,"archived":false,"percentageOfSessions":null}, {"name":"Нечаевский","state":"Adygea","territory":"","country":"Russia","latitude":44.8860176,"longitude":40.4049613,"population":27,"stateCapital":false,"nationalCapital":false,"pk":null,"quiz":"asia","code":null,"archived":false,"percentageOfSessions":null}, {"name":"Нешукай","state":"Adygea","territory":"","country":"Russia","latitude":44.9055516,"longitude":39.4173172,"population":934,"stateCapital":false,"nationalCapital":false,"pk":null,"quiz":"asia","code":null,"archived":false,"percentageOfSessions":null}, {"name":"Нижний Айрюм","state":"Adygea","territory":"","country":"Russia","latitude":44.9025623,"longitude":40.187684,"population":283,"stateCapital":false,"nationalCapital":false,"pk":null,"quiz":"asia","code":null,"archived":false,"percentageOfSessions":null}, {"name":"Новая Адыгея","state":"Adygea","territory":"","country":"Russia","latitude":45.0247666,"longitude":38.9331639,"population":2051,"stateCapital":false,"nationalCapital":false,"pk":null,"quiz":"asia","code":null,"archived":false,"percentageOfSessions":null}, {"name":"Новоалексеевский","state":"Adygea","territory":"","country":"Russia","latitude":44.9281809,"longitude":40.3703861,"population":390,"stateCapital":false,"nationalCapital":false,"pk":null,"quiz":"asia","code":null,"archived":false,"percentageOfSessions":null}, {"name":"Новобжегокай","state":"Adygea","territory":"","country":"Russia","latitude":44.9324563,"longitude":38.8389336,"population":375,"stateCapital":false,"nationalCapital":false,"pk":null,"quiz":"asia","code":null,"archived":false,"percentageOfSessions":null}, {"name":"Нововочепший","state":"Adygea","territory":"","country":"Russia","latitude":44.9007657,"longitude":39.2772317,"population":169,"stateCapital":false,"nationalCapital":false,"pk":null,"quiz":"asia","code":null,"archived":false,"percentageOfSessions":null}, {"name":"Новомогилевский","state":"Adygea","territory":"","country":"Russia","latitude":44.8349027,"longitude":39.0585697,"population":28,"stateCapital":false,"nationalCapital":false,"pk":null,"quiz":"asia","code":null,"archived":false,"percentageOfSessions":null}, {"name":"Новопрохладное","state":"Adygea","territory":"","country":"Russia","latitude":44.1381529,"longitude":40.287934,"population":183,"stateCapital":false,"nationalCapital":false,"pk":null,"quiz":"asia","code":null,"archived":false,"percentageOfSessions":null}, {"name":"Новорусов","state":"Adygea","territory":"","country":"Russia","latitude":44.9851472,"longitude":40.1458367,"population":96,"stateCapital":false,"nationalCapital":false,"pk":null,"quiz":"asia","code":null,"archived":false,"percentageOfSessions":null}, {"name":"Новосвободная","state":"Adygea","territory":"","country":"Russia","latitude":44.3519581,"longitude":40.4111629,"population":633,"stateCapital":false,"nationalCapital":false,"pk":null,"quiz":"asia","code":null,"archived":false,"percentageOfSessions":null}, {"name":"Новосевастопольское","state":"Adygea","territory":"","country":"Russia","latitude":45.0633333,"longitude":39.7106344,"population":696,"stateCapital":false,"nationalCapital":false,"pk":null,"quiz":"asia","code":null,"archived":false,"percentageOfSessions":null}, {"name":"Новый","state":"Adygea","territory":"","country":"Russia","latitude":44.9322694,"longitude":40.1777039,"population":1356,"stateCapital":false,"nationalCapital":false,"pk":null,"quiz":"asia","code":null,"archived":false,"percentageOfSessions":null}, {"name":"Новый","state":"Adygea","territory":"","country":"Russia","latitude":45.0068977,"longitude":38.9797495,"population":1895,"stateCapital":false,"nationalCapital":false,"pk":null,"quiz":"asia","code":null,"archived":false,"percentageOfSessions":null}, {"name":"Новый Сад","state":"Adygea","territory":"","country":"Russia","latitude":44.9048061,"longitude":38.9085396,"population":1315,"stateCapital":false,"nationalCapital":false,"pk":null,"quiz":"asia","code":null,"archived":false,"percentageOfSessions":null}, {"name":"Образцовое","state":"Adygea","territory":"","country":"Russia","latitude":44.8849533,"longitude":40.1896569,"population":342,"stateCapital":false,"nationalCapital":false,"pk":null,"quiz":"asia","code":null,"archived":false,"percentageOfSessions":null}, {"name":"Октябрьский","state":"Adygea","territory":"","country":"Russia","latitude":44.6454039,"longitude":40.2248376,"population":53,"stateCapital":false,"nationalCapital":false,"pk":null,"quiz":"asia","code":null,"archived":false,"percentageOfSessions":null}, {"name":"Орехов","state":"Adygea","territory":"","country":"Russia","latitude":44.9890594,"longitude":39.9425985,"population":152,"stateCapital":false,"nationalCapital":false,"pk":null,"quiz":"asia","code":null,"archived":false,"percentageOfSessions":null}, {"name":"Отрадный","state":"Adygea","territory":"","country":"Russia","latitude":44.9387296,"longitude":40.3496531,"population":183,"stateCapital":false,"nationalCapital":false,"pk":null,"quiz":"asia","code":null,"archived":false,"percentageOfSessions":null}, {"name":"Отрадный","state":"Adygea","territory":"","country":"Russia","latitude":44.8746676,"longitude":38.9540019,"population":677,"stateCapital":false,"nationalCapital":false,"pk":null,"quiz":"asia","code":null,"archived":false,"percentageOfSessions":null}, {"name":"Панахес","state":"Adygea","territory":"","country":"Russia","latitude":44.9851992,"longitude":38.7225135,"population":1522,"stateCapital":false,"nationalCapital":false,"pk":null,"quiz":"asia","code":null,"archived":false,"percentageOfSessions":null}, {"name":"Папенков","state":"Adygea","territory":"","country":"Russia","latitude":45.075,"longitude":39.5863889,"population":27,"stateCapital":false,"nationalCapital":false,"pk":null,"quiz":"asia","code":null,"archived":false,"percentageOfSessions":null}, {"name":"Пентюхов","state":"Adygea","territory":"","country":"Russia","latitude":44.9530995,"longitude":39.960497,"population":114,"stateCapital":false,"nationalCapital":false,"pk":null,"quiz":"asia","code":null,"archived":false,"percentageOfSessions":null}, {"name":"Первомайский","state":"Adygea","territory":"","country":"Russia","latitude":44.9545,"longitude":40.0517,"population":0,"stateCapital":false,"nationalCapital":false,"pk":null,"quiz":"asia","code":null,"archived":false,"percentageOfSessions":null}, {"name":"Первомайский","state":"Adygea","territory":"","country":"Russia","latitude":44.4052307,"longitude":40.1802688,"population":1281,"stateCapital":false,"nationalCapital":false,"pk":null,"quiz":"asia","code":null,"archived":false,"percentageOfSessions":null}, {"name":"Перекатный","state":"Adygea","territory":"","country":"Russia","latitude":45.0330637,"longitude":38.9531817,"population":231,"stateCapital":false,"nationalCapital":false,"pk":null,"quiz":"asia","code":null,"archived":false,"percentageOfSessions":null}, {"name":"Петров","state":"Adygea","territory":"","country":"Russia","latitude":44.9344944,"longitude":39.5020738,"population":289,"stateCapital":false,"nationalCapital":false,"pk":null,"quiz":"asia","code":null,"archived":false,"percentageOfSessions":null}, {"name":"Пикалин","state":"Adygea","territory":"","country":"Russia","latitude":44.9518323,"longitude":39.9889139,"population":59,"stateCapital":false,"nationalCapital":false,"pk":null,"quiz":"asia","code":null,"archived":false,"percentageOfSessions":null}, {"name":"Плодопитомник","state":"Adygea","territory":"","country":"Russia","latitude":44.9325796,"longitude":40.3657039,"population":94,"stateCapital":false,"nationalCapital":false,"pk":null,"quiz":"asia","code":null,"archived":false,"percentageOfSessions":null}, {"name":"Победа","state":"Adygea","territory":"","country":"Russia","latitude":44.2925746,"longitude":40.3107356,"population":167,"stateCapital":false,"nationalCapital":false,"pk":null,"quiz":"asia","code":null,"archived":false,"percentageOfSessions":null}, {"name":"Победа","state":"Adygea","territory":"","country":"Russia","latitude":44.2925746,"longitude":40.3107356,"population":913,"stateCapital":false,"nationalCapital":false,"pk":null,"quiz":"asia","code":null,"archived":false,"percentageOfSessions":null}, {"name":"Майкоп","state":"Adygea","territory":"","country":"Russia","latitude":44.6062079,"longitude":40.104053,"population":144249,"stateCapital":true,"nationalCapital":false,"pk":null,"quiz":"asia","code":null,"archived":false,"percentageOfSessions":null}, {"name":"Подгорный","state":"Adygea","territory":"","country":"Russia","latitude":44.4585066,"longitude":40.1802187,"population":121,"stateCapital":false,"nationalCapital":false,"pk":null,"quiz":"asia","code":null,"archived":false,"percentageOfSessions":null}, {"name":"Политотдел","state":"Adygea","territory":"","country":"Russia","latitude":44.9496221,"longitude":40.347473,"population":245,"stateCapital":false,"nationalCapital":false,"pk":null,"quiz":"asia","code":null,"archived":false,"percentageOfSessions":null}, {"name":"Понежукай","state":"Adygea","territory":"","country":"Russia","latitude":44.8876896,"longitude":39.3828521,"population":3456,"stateCapital":false,"nationalCapital":false,"pk":null,"quiz":"asia","code":null,"archived":false,"percentageOfSessions":null}, {"name":"Преображенское","state":"Adygea","territory":"","country":"Russia","latitude":45.0853321,"longitude":39.6261505,"population":1386,"stateCapital":false,"nationalCapital":false,"pk":null,"quiz":"asia","code":null,"archived":false,"percentageOfSessions":null}, {"name":"Прикубанский","state":"Adygea","territory":"","country":"Russia","latitude":44.9533608,"longitude":39.0261809,"population":1051,"stateCapital":false,"nationalCapital":false,"pk":null,"quiz":"asia","code":null,"archived":false,"percentageOfSessions":null}, {"name":"Приречный","state":"Adygea","territory":"","country":"Russia","latitude":44.5722862,"longitude":40.077653,"population":321,"stateCapital":false,"nationalCapital":false,"pk":null,"quiz":"asia","code":null,"archived":false,"percentageOfSessions":null}, {"name":"Причтовский","state":"Adygea","territory":"","country":"Russia","latitude":44.5296226,"longitude":40.1414034,"population":384,"stateCapital":false,"nationalCapital":false,"pk":null,"quiz":"asia","code":null,"archived":false,"percentageOfSessions":null}, {"name":"Прогресс","state":"Adygea","territory":"","country":"Russia","latitude":44.8765685,"longitude":40.1985554,"population":963,"stateCapital":false,"nationalCapital":false,"pk":null,"quiz":"asia","code":null,"archived":false,"percentageOfSessions":null}, {"name":"Пролетарский","state":"Adygea","territory":"","country":"Russia","latitude":44.6178149,"longitude":40.1744894,"population":1031,"stateCapital":false,"nationalCapital":false,"pk":null,"quiz":"asia","code":null,"archived":false,"percentageOfSessions":null}, {"name":"Псейтук","state":"Adygea","territory":"","country":"Russia","latitude":45.0537683,"longitude":38.7045336,"population":617,"stateCapital":false,"nationalCapital":false,"pk":null,"quiz":"asia","code":null,"archived":false,"percentageOfSessions":null}, {"name":"Подгорный","state":"Adygea","territory":"","country":"Russia","latitude":44.694483,"longitude":40.0782428,"population":739,"stateCapital":false,"nationalCapital":false,"pk":null,"quiz":"asia","code":null,"archived":false,"percentageOfSessions":null}, {"name":"Пустоселов","state":"Adygea","territory":"","country":"Russia","latitude":45.1393175,"longitude":39.7187509,"population":10,"stateCapital":false,"nationalCapital":false,"pk":null,"quiz":"asia","code":null,"archived":false,"percentageOfSessions":null}, {"name":"Пчегатлукай","state":"Adygea","territory":"","country":"Russia","latitude":44.8843636,"longitude":39.2647569,"population":832,"stateCapital":false,"nationalCapital":false,"pk":null,"quiz":"asia","code":null,"archived":false,"percentageOfSessions":null}, {"name":"Пшизов","state":"Adygea","territory":"","country":"Russia","latitude":45.0918655,"longitude":40.1060073,"population":957,"stateCapital":false,"nationalCapital":false,"pk":null,"quiz":"asia","code":null,"archived":false,"percentageOfSessions":null}, {"name":"Пшикуйхабль","state":"Adygea","territory":"","country":"Russia","latitude":44.9411604,"longitude":39.3694757,"population":281,"stateCapital":false,"nationalCapital":false,"pk":null,"quiz":"asia","code":null,"archived":false,"percentageOfSessions":null}, {"name":"Пшичо","state":"Adygea","territory":"","country":"Russia","latitude":45.0617635,"longitude":40.1806452,"population":1101,"stateCapital":false,"nationalCapital":false,"pk":null,"quiz":"asia","code":null,"archived":false,"percentageOfSessions":null}, {"name":"Родниковый","state":"Adygea","territory":"","country":"Russia","latitude":44.6794845,"longitude":40.0083589,"population":1282,"stateCapital":false,"nationalCapital":false,"pk":null,"quiz":"asia","code":null,"archived":false,"percentageOfSessions":null}, {"name":"Садовое","state":"Adygea","territory":"","country":"Russia","latitude":44.995184,"longitude":39.7000404,"population":1315,"stateCapital":false,"nationalCapital":false,"pk":null,"quiz":"asia","code":null,"archived":false,"percentageOfSessions":null}, {"name":"Садовый","state":"Adygea","territory":"","country":"Russia","latitude":44.8360567,"longitude":40.2368888,"population":195,"stateCapital":false,"nationalCapital":false,"pk":null,"quiz":"asia","code":null,"archived":false,"percentageOfSessions":null}, {"name":"Садовый","state":"Adygea","territory":"","country":"Russia","latitude":44.5515727,"longitude":40.1077507,"population":399,"stateCapital":false,"nationalCapital":false,"pk":null,"quiz":"asia","code":null,"archived":false,"percentageOfSessions":null}, {"name":"Садовый","state":"Adygea","territory":"","country":"Russia","latitude":44.5515727,"longitude":40.1077507,"population":155,"stateCapital":false,"nationalCapital":false,"pk":null,"quiz":"asia","code":null,"archived":false,"percentageOfSessions":null}, {"name":"Саратовский","state":"Adygea","territory":"","country":"Russia","latitude":45.0987014,"longitude":39.7633052,"population":474,"stateCapital":false,"nationalCapital":false,"pk":null,"quiz":"asia","code":null,"archived":false,"percentageOfSessions":null}, {"name":"Свободный","state":"Adygea","territory":"","country":"Russia","latitude":45.186376,"longitude":39.587734,"population":8,"stateCapital":false,"nationalCapital":false,"pk":null,"quiz":"asia","code":null,"archived":false,"percentageOfSessions":null}, {"name":"Свободный Труд","state":"Adygea","territory":"","country":"Russia","latitude":44.9833458,"longitude":40.2951936,"population":343,"stateCapital":false,"nationalCapital":false,"pk":null,"quiz":"asia","code":null,"archived":false,"percentageOfSessions":null}, {"name":"Севастопольская","state":"Adygea","territory":"","country":"Russia","latitude":44.3505652,"longitude":40.3135333,"population":644,"stateCapital":false,"nationalCapital":false,"pk":null,"quiz":"asia","code":null,"archived":false,"percentageOfSessions":null}, {"name":"Северный","state":"Adygea","territory":"","country":"Russia","latitude":44.6584211,"longitude":40.1136559,"population":1285,"stateCapital":false,"nationalCapital":false,"pk":null,"quiz":"asia","code":null,"archived":false,"percentageOfSessions":null}, {"name":"Северо-Восточные Сады","state":"Adygea","territory":"","country":"Russia","latitude":44.6377814,"longitude":40.1351738,"population":3393,"stateCapital":false,"nationalCapital":false,"pk":null,"quiz":"asia","code":null,"archived":false,"percentageOfSessions":null}, {"name":"Семено-Макаренский","state":"Adygea","territory":"","country":"Russia","latitude":44.9193228,"longitude":40.244612,"population":114,"stateCapital":false,"nationalCapital":false,"pk":null,"quiz":"asia","code":null,"archived":false,"percentageOfSessions":null}, {"name":"Сергиевское","state":"Adygea","territory":"","country":"Russia","latitude":44.8046875,"longitude":40.3469946,"population":1369,"stateCapital":false,"nationalCapital":false,"pk":null,"quiz":"asia","code":null,"archived":false,"percentageOfSessions":null}, {"name":"Смольчев-Малиновский","state":"Adygea","territory":"","country":"Russia","latitude":44.8659673,"longitude":40.4286975,"population":104,"stateCapital":false,"nationalCapital":false,"pk":null,"quiz":"asia","code":null,"archived":false,"percentageOfSessions":null}, {"name":"Советский","state":"Adygea","territory":"","country":"Russia","latitude":44.6692308,"longitude":40.0987981,"population":472,"stateCapital":false,"nationalCapital":false,"pk":null,"quiz":"asia","code":null,"archived":false,"percentageOfSessions":null}, {"name":"Совхозный","state":"Adygea","territory":"","country":"Russia","latitude":44.5406972,"longitude":40.1543008,"population":1346,"stateCapital":false,"nationalCapital":false,"pk":null,"quiz":"asia","code":null,"archived":false,"percentageOfSessions":null}, {"name":"Соколов","state":"Adygea","territory":"","country":"Russia","latitude":45.0237694,"longitude":40.3688209,"population":0,"stateCapital":false,"nationalCapital":false,"pk":null,"quiz":"asia","code":null,"archived":false,"percentageOfSessions":null}, {"name":"Спокойный","state":"Adygea","territory":"","country":"Russia","latitude":44.5565592,"longitude":40.0596199,"population":38,"stateCapital":false,"nationalCapital":false,"pk":null,"quiz":"asia","code":null,"archived":false,"percentageOfSessions":null}, {"name":"Старобжегокай","state":"Adygea","territory":"","country":"Russia","latitude":45.0348293,"longitude":38.8942222,"population":1993,"stateCapital":false,"nationalCapital":false,"pk":null,"quiz":"asia","code":null,"archived":false,"percentageOfSessions":null}, {"name":"Старомогилевский","state":"Adygea","territory":"","country":"Russia","latitude":44.8320455,"longitude":39.1137195,"population":39,"stateCapital":false,"nationalCapital":false,"pk":null,"quiz":"asia","code":null,"archived":false,"percentageOfSessions":null}, {"name":"Суповский","state":"Adygea","territory":"","country":"Russia","latitude":44.9002003,"longitude":38.9432816,"population":508,"stateCapital":false,"nationalCapital":false,"pk":null,"quiz":"asia","code":null,"archived":false,"percentageOfSessions":null}, {"name":"Супс","state":"Adygea","territory":"","country":"Russia","latitude":44.9294888,"longitude":38.9464935,"population":70,"stateCapital":false,"nationalCapital":false,"pk":null,"quiz":"asia","code":null,"archived":false,"percentageOfSessions":null}, {"name":"Табачный","state":"Adygea","territory":"","country":"Russia","latitude":44.556397,"longitude":40.091464,"population":1760,"stateCapital":false,"nationalCapital":false,"pk":null,"quiz":"asia","code":null,"archived":false,"percentageOfSessions":null}, {"name":"Тамбовский","state":"Adygea","territory":"","country":"Russia","latitude":44.7578529,"longitude":40.3730467,"population":632,"stateCapital":false,"nationalCapital":false,"pk":null,"quiz":"asia","code":null,"archived":false,"percentageOfSessions":null}, {"name":"Тауйхабль","state":"Adygea","territory":"","country":"Russia","latitude":44.9645103,"longitude":39.3717343,"population":204,"stateCapital":false,"nationalCapital":false,"pk":null,"quiz":"asia","code":null,"archived":false,"percentageOfSessions":null}, {"name":"Тахтамукай","state":"Adygea","territory":"","country":"Russia","latitude":44.9212862,"longitude":38.994718,"population":5214,"stateCapital":false,"nationalCapital":false,"pk":null,"quiz":"asia","code":null,"archived":false,"percentageOfSessions":null}, {"name":"Тимирязева","state":"Adygea","territory":"","country":"Russia","latitude":44.4686027,"longitude":40.1662848,"population":1142,"stateCapital":false,"nationalCapital":false,"pk":null,"quiz":"asia","code":null,"archived":false,"percentageOfSessions":null}, {"name":"Тихонов","state":"Adygea","territory":"","country":"Russia","latitude":44.9649363,"longitude":39.9545044,"population":376,"stateCapital":false,"nationalCapital":false,"pk":null,"quiz":"asia","code":null,"archived":false,"percentageOfSessions":null}, {"name":"Ткачев","state":"Adygea","territory":"","country":"Russia","latitude":44.7261111,"longitude":40.2011111,"population":214,"stateCapital":false,"nationalCapital":false,"pk":null,"quiz":"asia","code":null,"archived":false,"percentageOfSessions":null}, {"name":"Тлюстенхабль","state":"Adygea","territory":"","country":"Russia","latitude":44.9811,"longitude":39.0891847,"population":5403,"stateCapital":false,"nationalCapital":false,"pk":null,"quiz":"asia","code":null,"archived":false,"percentageOfSessions":null}, {"name":"Трехречный","state":"Adygea","territory":"","country":"Russia","latitude":44.6625935,"longitude":40.3793289,"population":570,"stateCapital":false,"nationalCapital":false,"pk":null,"quiz":"asia","code":null,"archived":false,"percentageOfSessions":null}, {"name":"Тугургой","state":"Adygea","territory":"","country":"Russia","latitude":44.9518893,"longitude":39.1144255,"population":330,"stateCapital":false,"nationalCapital":false,"pk":null,"quiz":"asia","code":null,"archived":false,"percentageOfSessions":null}, {"name":"Тульский","state":"Adygea","territory":"","country":"Russia","latitude":44.5093616,"longitude":40.1762144,"population":10732,"stateCapital":false,"nationalCapital":false,"pk":null,"quiz":"asia","code":null,"archived":false,"percentageOfSessions":null}, {"name":"Удобный","state":"Adygea","territory":"","country":"Russia","latitude":44.551336,"longitude":40.1575538,"population":1326,"stateCapital":false,"nationalCapital":false,"pk":null,"quiz":"asia","code":null,"archived":false,"percentageOfSessions":null}, {"name":"Ульский","state":"Adygea","territory":"","country":"Russia","latitude":45.0349599,"longitude":40.0673267,"population":147,"stateCapital":false,"nationalCapital":false,"pk":null,"quiz":"asia","code":null,"archived":false,"percentageOfSessions":null}, {"name":"Уляп","state":"Adygea","territory":"","country":"Russia","latitude":45.0607604,"longitude":39.9463641,"population":1298,"stateCapital":false,"nationalCapital":false,"pk":null,"quiz":"asia","code":null,"archived":false,"percentageOfSessions":null}, {"name":"Усть-Сахрай","state":"Adygea","territory":"","country":"Russia","latitude":44.210155,"longitude":40.2797426,"population":298,"stateCapital":false,"nationalCapital":false,"pk":null,"quiz":"asia","code":null,"archived":false,"percentageOfSessions":null}, {"name":"Фарсовский","state":"Adygea","territory":"","country":"Russia","latitude":44.738352,"longitude":40.3688906,"population":13,"stateCapital":false,"nationalCapital":false,"pk":null,"quiz":"asia","code":null,"archived":false,"percentageOfSessions":null}, {"name":"Хакодзь","state":"Adygea","territory":"","country":"Russia","latitude":44.314736,"longitude":40.0105268,"population":0,"stateCapital":false,"nationalCapital":false,"pk":null,"quiz":"asia","code":null,"archived":false,"percentageOfSessions":null}, {"name":"Хакуринохабль","state":"Adygea","territory":"","country":"Russia","latitude":45.020114,"longitude":40.2291119,"population":4038,"stateCapital":false,"nationalCapital":false,"pk":null,"quiz":"asia","code":null,"archived":false,"percentageOfSessions":null}, {"name":"Хамышки","state":"Adygea","territory":"","country":"Russia","latitude":44.0934684,"longitude":40.136806,"population":792,"stateCapital":false,"nationalCapital":false,"pk":null,"quiz":"asia","code":null,"archived":false,"percentageOfSessions":null}, {"name":"Ханская","state":"Adygea","territory":"","country":"Russia","latitude":44.6740242,"longitude":39.9534608,"population":11245,"stateCapital":false,"nationalCapital":false,"pk":null,"quiz":"asia","code":null,"archived":false,"percentageOfSessions":null}, {"name":"Хапачев","state":"Adygea","territory":"","country":"Russia","latitude":45.0924907,"longitude":40.23152,"population":217,"stateCapital":false,"nationalCapital":false,"pk":null,"quiz":"asia","code":null,"archived":false,"percentageOfSessions":null}, {"name":"Хатажукай","state":"Adygea","territory":"","country":"Russia","latitude":45.0734649,"longitude":40.1912103,"population":1108,"stateCapital":false,"nationalCapital":false,"pk":null,"quiz":"asia","code":null,"archived":false,"percentageOfSessions":null}, {"name":"Хатукай","state":"Adygea","territory":"","country":"Russia","latitude":45.1883996,"longitude":39.6593529,"population":4911,"stateCapital":false,"nationalCapital":false,"pk":null,"quiz":"asia","code":null,"archived":false,"percentageOfSessions":null}, {"name":"Хачемзий","state":"Adygea","territory":"","country":"Russia","latitude":44.9518138,"longitude":40.3177296,"population":716,"stateCapital":false,"nationalCapital":false,"pk":null,"quiz":"asia","code":null,"archived":false,"percentageOfSessions":null}, {"name":"Хаштук","state":"Adygea","territory":"","country":"Russia","latitude":45.042028,"longitude":38.752614,"population":279,"stateCapital":false,"nationalCapital":false,"pk":null,"quiz":"asia","code":null,"archived":false,"percentageOfSessions":null}, {"name":"Ходзь","state":"Adygea","territory":"","country":"Russia","latitude":44.5187624,"longitude":40.7103047,"population":2952,"stateCapital":false,"nationalCapital":false,"pk":null,"quiz":"asia","code":null,"archived":false,"percentageOfSessions":null}, {"name":"Хомуты","state":"Adygea","territory":"","country":"Russia","latitude":44.9985505,"longitude":38.8700719,"population":574,"stateCapital":false,"nationalCapital":false,"pk":null,"quiz":"asia","code":null,"archived":false,"percentageOfSessions":null}, {"name":"Цветочный","state":"Adygea","territory":"","country":"Russia","latitude":44.4958499,"longitude":40.1383705,"population":1402,"stateCapital":false,"nationalCapital":false,"pk":null,"quiz":"asia","code":null,"archived":false,"percentageOfSessions":null}, {"name":"Чабанов","state":"Adygea","territory":"","country":"Russia","latitude":44.8563586,"longitude":39.6124257,"population":36,"stateCapital":false,"nationalCapital":false,"pk":null,"quiz":"asia","code":null,"archived":false,"percentageOfSessions":null}, {"name":"Черемушкин","state":"Adygea","territory":"","country":"Russia","latitude":44.7932885,"longitude":40.0509517,"population":94,"stateCapital":false,"nationalCapital":false,"pk":null,"quiz":"asia","code":null,"archived":false,"percentageOfSessions":null}, {"name":"Чернышев","state":"Adygea","territory":"","country":"Russia","latitude":45.051079,"longitude":40.0360256,"population":839,"stateCapital":false,"nationalCapital":false,"pk":null,"quiz":"asia","code":null,"archived":false,"percentageOfSessions":null}, {"name":"Четук","state":"Adygea","territory":"","country":"Russia","latitude":44.8742076,"longitude":39.1525945,"population":162,"stateCapital":false,"nationalCapital":false,"pk":null,"quiz":"asia","code":null,"archived":false,"percentageOfSessions":null}, {"name":"Чехрак","state":"Adygea","territory":"","country":"Russia","latitude":44.7476963,"longitude":40.5226386,"population":504,"stateCapital":false,"nationalCapital":false,"pk":null,"quiz":"asia","code":null,"archived":false,"percentageOfSessions":null}, {"name":"Чехрак","state":"Adygea","territory":"","country":"Russia","latitude":44.7476963,"longitude":40.5226386,"population":17,"stateCapital":false,"nationalCapital":false,"pk":null,"quiz":"asia","code":null,"archived":false,"percentageOfSessions":null}, {"name":"Чикалов","state":"Adygea","territory":"","country":"Russia","latitude":44.9584943,"longitude":39.965781,"population":123,"stateCapital":false,"nationalCapital":false,"pk":null,"quiz":"asia","code":null,"archived":false,"percentageOfSessions":null}, {"name":"Чумаков","state":"Adygea","territory":"","country":"Russia","latitude":45.0575168,"longitude":39.5047722,"population":69,"stateCapital":false,"nationalCapital":false,"pk":null,"quiz":"asia","code":null,"archived":false,"percentageOfSessions":null}, {"name":"Шаумян","state":"Adygea","territory":"","country":"Russia","latitude":44.5272763,"longitude":40.1492408,"population":388,"stateCapital":false,"nationalCapital":false,"pk":null,"quiz":"asia","code":null,"archived":false,"percentageOfSessions":null}, {"name":"Шевченко","state":"Adygea","territory":"","country":"Russia","latitude":44.8965271,"longitude":39.5230081,"population":618,"stateCapital":false,"nationalCapital":false,"pk":null,"quiz":"asia","code":null,"archived":false,"percentageOfSessions":null}, {"name":"Шелковников","state":"Adygea","territory":"","country":"Russia","latitude":44.577676,"longitude":40.7176991,"population":268,"stateCapital":false,"nationalCapital":false,"pk":null,"quiz":"asia","code":null,"archived":false,"percentageOfSessions":null}, {"name":"Шенджий","state":"Adygea","territory":"","country":"Russia","latitude":44.8835123,"longitude":39.067371,"population":2000,"stateCapital":false,"nationalCapital":false,"pk":null,"quiz":"asia","code":null,"archived":false,"percentageOfSessions":null}, {"name":"Шишкинский","state":"Adygea","territory":"","country":"Russia","latitude":44.7804293,"longitude":40.3504558,"population":42,"stateCapital":false,"nationalCapital":false,"pk":null,"quiz":"asia","code":null,"archived":false,"percentageOfSessions":null}, {"name":"Штурбино","state":"Adygea","territory":"","country":"Russia","latitude":45.0610414,"longitude":39.9089274,"population":474,"stateCapital":false,"nationalCapital":false,"pk":null,"quiz":"asia","code":null,"archived":false,"percentageOfSessions":null}, {"name":"Шундук","state":"Adygea","territory":"","country":"Russia","latitude":44.9229211,"longitude":39.347026,"population":17,"stateCapital":false,"nationalCapital":false,"pk":null,"quiz":"asia","code":null,"archived":false,"percentageOfSessions":null}, {"name":"Шунтук","state":"Adygea","territory":"","country":"Russia","latitude":44.4540279,"longitude":40.173767,"population":850,"stateCapital":false,"nationalCapital":false,"pk":null,"quiz":"asia","code":null,"archived":false,"percentageOfSessions":null}, {"name":"Энем","state":"Adygea","territory":"","country":"Russia","latitude":44.9230727,"longitude":38.9071424,"population":17890,"stateCapital":false,"nationalCapital":false,"pk":null,"quiz":"asia","code":null,"archived":false,"percentageOfSessions":null}, {"name":"Яблоновский","state":"Adygea","territory":"","country":"Russia","latitude":44.9864341,"longitude":38.9382841,"population":26171,"stateCapital":false,"nationalCapital":false,"pk":null,"quiz":"asia","code":null,"archived":false,"percentageOfSessions":null}],"startTimeMs":0}