{"cities":[{"name":"8 Марта","state":"Krasnodar","territory":"","country":"Russia","latitude":44.8869609,"longitude":38.6757983,"population":48,"stateCapital":false,"nationalCapital":false,"pk":null,"quiz":"asia","code":null,"archived":false,"percentageOfSessions":null}, {"name":"Абинск","state":"Krasnodar","territory":"","country":"Russia","latitude":44.8649528,"longitude":38.1578189,"population":34928,"stateCapital":false,"nationalCapital":false,"pk":null,"quiz":"asia","code":null,"archived":false,"percentageOfSessions":null}, {"name":"Абрау-Дюрсо","state":"Krasnodar","territory":"","country":"Russia","latitude":44.7017651,"longitude":37.6018692,"population":3519,"stateCapital":false,"nationalCapital":false,"pk":null,"quiz":"asia","code":null,"archived":false,"percentageOfSessions":null}, {"name":"Авиация","state":"Krasnodar","territory":"","country":"Russia","latitude":45.0268388,"longitude":39.5473081,"population":113,"stateCapital":false,"nationalCapital":false,"pk":null,"quiz":"asia","code":null,"archived":false,"percentageOfSessions":null}, {"name":"Агой","state":"Krasnodar","territory":"","country":"Russia","latitude":44.1454417,"longitude":39.0380211,"population":2662,"stateCapital":false,"nationalCapital":false,"pk":null,"quiz":"asia","code":null,"archived":false,"percentageOfSessions":null}, {"name":"Агроном","state":"Krasnodar","territory":"","country":"Russia","latitude":45.1391989,"longitude":39.1917634,"population":3800,"stateCapital":false,"nationalCapital":false,"pk":null,"quiz":"asia","code":null,"archived":false,"percentageOfSessions":null}, {"name":"Агуй-Шапсуг","state":"Krasnodar","territory":"","country":"Russia","latitude":44.1839184,"longitude":39.07253,"population":1940,"stateCapital":false,"nationalCapital":false,"pk":null,"quiz":"asia","code":null,"archived":false,"percentageOfSessions":null}, {"name":"Адагум","state":"Krasnodar","territory":"","country":"Russia","latitude":45.1002161,"longitude":37.7212131,"population":2827,"stateCapital":false,"nationalCapital":false,"pk":null,"quiz":"asia","code":null,"archived":false,"percentageOfSessions":null}, {"name":"Адербиевка","state":"Krasnodar","territory":"","country":"Russia","latitude":44.60482,"longitude":38.104103,"population":1374,"stateCapital":false,"nationalCapital":false,"pk":null,"quiz":"asia","code":null,"archived":false,"percentageOfSessions":null}, {"name":"Аджановка","state":"Krasnodar","territory":"","country":"Russia","latitude":45.969532,"longitude":38.294453,"population":213,"stateCapital":false,"nationalCapital":false,"pk":null,"quiz":"asia","code":null,"archived":false,"percentageOfSessions":null}, {"name":"Азовская","state":"Krasnodar","territory":"","country":"Russia","latitude":44.790831,"longitude":38.6206822,"population":4266,"stateCapital":false,"nationalCapital":false,"pk":null,"quiz":"asia","code":null,"archived":false,"percentageOfSessions":null}, {"name":"Аибга","state":"Krasnodar","territory":"","country":"Russia","latitude":43.5870331,"longitude":40.197303,"population":155,"stateCapital":false,"nationalCapital":false,"pk":null,"quiz":"asia","code":null,"archived":false,"percentageOfSessions":null}, {"name":"Аккерменка","state":"Krasnodar","territory":"","country":"Russia","latitude":45.0099539,"longitude":37.6805495,"population":25,"stateCapital":false,"nationalCapital":false,"pk":null,"quiz":"asia","code":null,"archived":false,"percentageOfSessions":null}, {"name":"Акредасов","state":"Krasnodar","territory":"","country":"Russia","latitude":44.636983,"longitude":39.5016539,"population":27,"stateCapital":false,"nationalCapital":false,"pk":null,"quiz":"asia","code":null,"archived":false,"percentageOfSessions":null}, {"name":"Албаши","state":"Krasnodar","territory":"","country":"Russia","latitude":46.2559082,"longitude":38.6181139,"population":469,"stateCapital":false,"nationalCapital":false,"pk":null,"quiz":"asia","code":null,"archived":false,"percentageOfSessions":null}, {"name":"Александровка","state":"Krasnodar","territory":"","country":"Russia","latitude":46.6451191,"longitude":38.3979282,"population":2331,"stateCapital":false,"nationalCapital":false,"pk":null,"quiz":"asia","code":null,"archived":false,"percentageOfSessions":null}, {"name":"Александровка","state":"Krasnodar","territory":"","country":"Russia","latitude":46.638447,"longitude":39.757931,"population":23,"stateCapital":false,"nationalCapital":false,"pk":null,"quiz":"asia","code":null,"archived":false,"percentageOfSessions":null}, {"name":"Александровская","state":"Krasnodar","territory":"","country":"Russia","latitude":46.213718,"longitude":39.064148,"population":652,"stateCapital":false,"nationalCapital":false,"pk":null,"quiz":"asia","code":null,"archived":false,"percentageOfSessions":null}, {"name":"Александровский","state":"Krasnodar","territory":"","country":"Russia","latitude":45.0446851,"longitude":38.573586,"population":0,"stateCapital":false,"nationalCapital":false,"pk":null,"quiz":"asia","code":null,"archived":false,"percentageOfSessions":null}, {"name":"Александровский","state":"Krasnodar","territory":"","country":"Russia","latitude":45.2536258,"longitude":40.0660292,"population":1702,"stateCapital":false,"nationalCapital":false,"pk":null,"quiz":"asia","code":null,"archived":false,"percentageOfSessions":null}, {"name":"Александроневская","state":"Krasnodar","territory":"","country":"Russia","latitude":45.694649,"longitude":39.887306,"population":739,"stateCapital":false,"nationalCapital":false,"pk":null,"quiz":"asia","code":null,"archived":false,"percentageOfSessions":null}, {"name":"Алексеевская","state":"Krasnodar","territory":"","country":"Russia","latitude":45.7693502,"longitude":40.1539829,"population":3358,"stateCapital":false,"nationalCapital":false,"pk":null,"quiz":"asia","code":null,"archived":false,"percentageOfSessions":null}, {"name":"Алексеевский","state":"Krasnodar","territory":"","country":"Russia","latitude":45.2281117,"longitude":40.6211099,"population":486,"stateCapital":false,"nationalCapital":false,"pk":null,"quiz":"asia","code":null,"archived":false,"percentageOfSessions":null}, {"name":"Алексеевское","state":"Krasnodar","territory":"","country":"Russia","latitude":46.75367,"longitude":39.710697,"population":354,"stateCapital":false,"nationalCapital":false,"pk":null,"quiz":"asia","code":null,"archived":false,"percentageOfSessions":null}, {"name":"Алексеевское","state":"Krasnodar","territory":"","country":"Russia","latitude":43.9393111,"longitude":39.3815032,"population":405,"stateCapital":false,"nationalCapital":false,"pk":null,"quiz":"asia","code":null,"archived":false,"percentageOfSessions":null}, {"name":"Алексее-Тенгинская","state":"Krasnodar","territory":"","country":"Russia","latitude":45.2073992,"longitude":40.1806448,"population":1235,"stateCapital":false,"nationalCapital":false,"pk":null,"quiz":"asia","code":null,"archived":false,"percentageOfSessions":null}, {"name":"Алтубинал","state":"Krasnodar","territory":"","country":"Russia","latitude":44.1815507,"longitude":39.4913203,"population":26,"stateCapital":false,"nationalCapital":false,"pk":null,"quiz":"asia","code":null,"archived":false,"percentageOfSessions":null}, {"name":"Альтмец","state":"Krasnodar","territory":"","country":"Russia","latitude":43.7231222,"longitude":39.6741127,"population":197,"stateCapital":false,"nationalCapital":false,"pk":null,"quiz":"asia","code":null,"archived":false,"percentageOfSessions":null}, {"name":"Амосов","state":"Krasnodar","territory":"","country":"Russia","latitude":45.0010795,"longitude":39.8708184,"population":110,"stateCapital":false,"nationalCapital":false,"pk":null,"quiz":"asia","code":null,"archived":false,"percentageOfSessions":null}, {"name":"Ананьевский","state":"Krasnodar","territory":"","country":"Russia","latitude":45.0127902,"longitude":38.5487695,"population":325,"stateCapital":false,"nationalCapital":false,"pk":null,"quiz":"asia","code":null,"archived":false,"percentageOfSessions":null}, {"name":"Анапа","state":"Krasnodar","territory":"","country":"Russia","latitude":44.894272,"longitude":37.316887,"population":58990,"stateCapital":false,"nationalCapital":false,"pk":null,"quiz":"asia","code":null,"archived":false,"percentageOfSessions":null}, {"name":"Анапская","state":"Krasnodar","territory":"","country":"Russia","latitude":44.9002856,"longitude":37.3832216,"population":16107,"stateCapital":false,"nationalCapital":false,"pk":null,"quiz":"asia","code":null,"archived":false,"percentageOfSessions":null}, {"name":"Анапский","state":"Krasnodar","territory":"","country":"Russia","latitude":45.781364,"longitude":39.4902,"population":648,"stateCapital":false,"nationalCapital":false,"pk":null,"quiz":"asia","code":null,"archived":false,"percentageOfSessions":null}, {"name":"Анапский","state":"Krasnodar","territory":"","country":"Russia","latitude":45.0702704,"longitude":37.755292,"population":448,"stateCapital":false,"nationalCapital":false,"pk":null,"quiz":"asia","code":null,"archived":false,"percentageOfSessions":null}, {"name":"Анастасиевка","state":"Krasnodar","territory":"","country":"Russia","latitude":44.1698073,"longitude":39.2818161,"population":316,"stateCapital":false,"nationalCapital":false,"pk":null,"quiz":"asia","code":null,"archived":false,"percentageOfSessions":null}, {"name":"Анастасиевская","state":"Krasnodar","territory":"","country":"Russia","latitude":45.215729,"longitude":37.894539,"population":10569,"stateCapital":false,"nationalCapital":false,"pk":null,"quiz":"asia","code":null,"archived":false,"percentageOfSessions":null}, {"name":"Ангелинский","state":"Krasnodar","territory":"","country":"Russia","latitude":45.5380016,"longitude":38.41445,"population":316,"stateCapital":false,"nationalCapital":false,"pk":null,"quiz":"asia","code":null,"archived":false,"percentageOfSessions":null}, {"name":"Андреевская","state":"Krasnodar","territory":"","country":"Russia","latitude":45.3197939,"longitude":38.66404,"population":1747,"stateCapital":false,"nationalCapital":false,"pk":null,"quiz":"asia","code":null,"archived":false,"percentageOfSessions":null}, {"name":"Андрее-Дмитриевский","state":"Krasnodar","territory":"","country":"Russia","latitude":44.9518107,"longitude":40.838896,"population":414,"stateCapital":false,"nationalCapital":false,"pk":null,"quiz":"asia","code":null,"archived":false,"percentageOfSessions":null}, {"name":"Андрюки","state":"Krasnodar","territory":"","country":"Russia","latitude":44.1255684,"longitude":40.8343271,"population":2779,"stateCapital":false,"nationalCapital":false,"pk":null,"quiz":"asia","code":null,"archived":false,"percentageOfSessions":null}, {"name":"Андрющенко","state":"Krasnodar","territory":"","country":"Russia","latitude":46.1849233,"longitude":39.4391596,"population":223,"stateCapital":false,"nationalCapital":false,"pk":null,"quiz":"asia","code":null,"archived":false,"percentageOfSessions":null}, {"name":"Апшеронск","state":"Krasnodar","territory":"","country":"Russia","latitude":44.4618046,"longitude":39.741048,"population":40225,"stateCapital":false,"nationalCapital":false,"pk":null,"quiz":"asia","code":null,"archived":false,"percentageOfSessions":null}, {"name":"Армавир","state":"Krasnodar","territory":"","country":"Russia","latitude":44.9993585,"longitude":41.1294061,"population":188832,"stateCapital":false,"nationalCapital":false,"pk":null,"quiz":"asia","code":null,"archived":false,"percentageOfSessions":null}, {"name":"Армянский","state":"Krasnodar","territory":"","country":"Russia","latitude":44.2421174,"longitude":39.8206025,"population":41,"stateCapital":false,"nationalCapital":false,"pk":null,"quiz":"asia","code":null,"archived":false,"percentageOfSessions":null}, {"name":"Армянский","state":"Krasnodar","territory":"","country":"Russia","latitude":44.8626505,"longitude":37.9925727,"population":1481,"stateCapital":false,"nationalCapital":false,"pk":null,"quiz":"asia","code":null,"archived":false,"percentageOfSessions":null}, {"name":"Артющенко","state":"Krasnodar","territory":"","country":"Russia","latitude":45.1354162,"longitude":36.8123352,"population":90,"stateCapital":false,"nationalCapital":false,"pk":null,"quiz":"asia","code":null,"archived":false,"percentageOfSessions":null}, {"name":"Архангельская","state":"Krasnodar","territory":"","country":"Russia","latitude":45.679554,"longitude":40.275406,"population":8714,"stateCapital":false,"nationalCapital":false,"pk":null,"quiz":"asia","code":null,"archived":false,"percentageOfSessions":null}, {"name":"Архиповское","state":"Krasnodar","territory":"","country":"Russia","latitude":45.0057795,"longitude":39.8539863,"population":747,"stateCapital":false,"nationalCapital":false,"pk":null,"quiz":"asia","code":null,"archived":false,"percentageOfSessions":null}, {"name":"Архипо-Осиповка","state":"Krasnodar","territory":"","country":"Russia","latitude":44.3703184,"longitude":38.533611,"population":7853,"stateCapital":false,"nationalCapital":false,"pk":null,"quiz":"asia","code":null,"archived":false,"percentageOfSessions":null}, {"name":"Асфальтовая Гора","state":"Krasnodar","territory":"","country":"Russia","latitude":44.4621917,"longitude":39.4470784,"population":365,"stateCapital":false,"nationalCapital":false,"pk":null,"quiz":"asia","code":null,"archived":false,"percentageOfSessions":null}, {"name":"Атаманка","state":"Krasnodar","territory":"","country":"Russia","latitude":45.802987,"longitude":40.2397202,"population":13,"stateCapital":false,"nationalCapital":false,"pk":null,"quiz":"asia","code":null,"archived":false,"percentageOfSessions":null}, {"name":"Атаманская","state":"Krasnodar","territory":"","country":"Russia","latitude":46.1766163,"longitude":39.6358378,"population":3952,"stateCapital":false,"nationalCapital":false,"pk":null,"quiz":"asia","code":null,"archived":false,"percentageOfSessions":null}, {"name":"Аушед","state":"Krasnodar","territory":"","country":"Russia","latitude":45.0509734,"longitude":38.3965579,"population":69,"stateCapital":false,"nationalCapital":false,"pk":null,"quiz":"asia","code":null,"archived":false,"percentageOfSessions":null}, {"name":"Афанасьевский Постик","state":"Krasnodar","territory":"","country":"Russia","latitude":44.4276918,"longitude":39.1572435,"population":50,"stateCapital":false,"nationalCapital":false,"pk":null,"quiz":"asia","code":null,"archived":false,"percentageOfSessions":null}, {"name":"Афипский","state":"Krasnodar","territory":"","country":"Russia","latitude":44.9040435,"longitude":38.8426821,"population":18969,"stateCapital":false,"nationalCapital":false,"pk":null,"quiz":"asia","code":null,"archived":false,"percentageOfSessions":null}, {"name":"Афонка","state":"Krasnodar","territory":"","country":"Russia","latitude":44.7325774,"longitude":37.9299436,"population":75,"stateCapital":false,"nationalCapital":false,"pk":null,"quiz":"asia","code":null,"archived":false,"percentageOfSessions":null}, {"name":"Ахметовская","state":"Krasnodar","territory":"","country":"Russia","latitude":44.155001,"longitude":41.0465713,"population":1408,"stateCapital":false,"nationalCapital":false,"pk":null,"quiz":"asia","code":null,"archived":false,"percentageOfSessions":null}, {"name":"Ахтанизовская","state":"Krasnodar","territory":"","country":"Russia","latitude":45.3213372,"longitude":37.1049025,"population":3254,"stateCapital":false,"nationalCapital":false,"pk":null,"quiz":"asia","code":null,"archived":false,"percentageOfSessions":null}, {"name":"Ахтарский","state":"Krasnodar","territory":"","country":"Russia","latitude":46.010063,"longitude":38.35091,"population":3330,"stateCapital":false,"nationalCapital":false,"pk":null,"quiz":"asia","code":null,"archived":false,"percentageOfSessions":null}, {"name":"Ахтырский","state":"Krasnodar","territory":"","country":"Russia","latitude":44.8422046,"longitude":38.2954504,"population":20100,"stateCapital":false,"nationalCapital":false,"pk":null,"quiz":"asia","code":null,"archived":false,"percentageOfSessions":null}, {"name":"Ахштырь","state":"Krasnodar","territory":"","country":"Russia","latitude":43.5106507,"longitude":40.0019021,"population":168,"stateCapital":false,"nationalCapital":false,"pk":null,"quiz":"asia","code":null,"archived":false,"percentageOfSessions":null}, {"name":"Ачкасово","state":"Krasnodar","territory":"","country":"Russia","latitude":45.855225,"longitude":40.226269,"population":48,"stateCapital":false,"nationalCapital":false,"pk":null,"quiz":"asia","code":null,"archived":false,"percentageOfSessions":null}, {"name":"Ачуево","state":"Krasnodar","territory":"","country":"Russia","latitude":45.710182,"longitude":37.775433,"population":456,"stateCapital":false,"nationalCapital":false,"pk":null,"quiz":"asia","code":null,"archived":false,"percentageOfSessions":null}, {"name":"Бабиче-Кореновский","state":"Krasnodar","territory":"","country":"Russia","latitude":45.5500418,"longitude":39.3336194,"population":1242,"stateCapital":false,"nationalCapital":false,"pk":null,"quiz":"asia","code":null,"archived":false,"percentageOfSessions":null}, {"name":"Баговская","state":"Krasnodar","territory":"","country":"Russia","latitude":44.1720545,"longitude":40.6126601,"population":1272,"stateCapital":false,"nationalCapital":false,"pk":null,"quiz":"asia","code":null,"archived":false,"percentageOfSessions":null}, {"name":"Базы Отдыха Ласточка","state":"Krasnodar","territory":"","country":"Russia","latitude":44.2294007,"longitude":38.8660323,"population":34,"stateCapital":false,"nationalCapital":false,"pk":null,"quiz":"asia","code":null,"archived":false,"percentageOfSessions":null}, {"name":"Байбарис","state":"Krasnodar","territory":"","country":"Russia","latitude":44.097634,"longitude":41.3197703,"population":9,"stateCapital":false,"nationalCapital":false,"pk":null,"quiz":"asia","code":null,"archived":false,"percentageOfSessions":null}, {"name":"Бакинская","state":"Krasnodar","territory":"","country":"Russia","latitude":44.7562124,"longitude":39.2888196,"population":2519,"stateCapital":false,"nationalCapital":false,"pk":null,"quiz":"asia","code":null,"archived":false,"percentageOfSessions":null}, {"name":"Балка Грузская","state":"Krasnodar","territory":"","country":"Russia","latitude":45.982819,"longitude":40.278648,"population":108,"stateCapital":false,"nationalCapital":false,"pk":null,"quiz":"asia","code":null,"archived":false,"percentageOfSessions":null}, {"name":"Балковская","state":"Krasnodar","territory":"","country":"Russia","latitude":45.811337,"longitude":39.729847,"population":1435,"stateCapital":false,"nationalCapital":false,"pk":null,"quiz":"asia","code":null,"archived":false,"percentageOfSessions":null}, {"name":"Бальчанский","state":"Krasnodar","territory":"","country":"Russia","latitude":46.0911765,"longitude":39.5435207,"population":215,"stateCapital":false,"nationalCapital":false,"pk":null,"quiz":"asia","code":null,"archived":false,"percentageOfSessions":null}, {"name":"Баракаевская","state":"Krasnodar","territory":"","country":"Russia","latitude":44.2907011,"longitude":40.5204853,"population":734,"stateCapital":false,"nationalCapital":false,"pk":null,"quiz":"asia","code":null,"archived":false,"percentageOfSessions":null}, {"name":"Бараниковский","state":"Krasnodar","territory":"","country":"Russia","latitude":45.342903,"longitude":38.02618,"population":2925,"stateCapital":false,"nationalCapital":false,"pk":null,"quiz":"asia","code":null,"archived":false,"percentageOfSessions":null}, {"name":"Барановка","state":"Krasnodar","territory":"","country":"Russia","latitude":43.6453563,"longitude":39.7463915,"population":996,"stateCapital":false,"nationalCapital":false,"pk":null,"quiz":"asia","code":null,"archived":false,"percentageOfSessions":null}, {"name":"Барановка","state":"Krasnodar","territory":"","country":"Russia","latitude":43.6453563,"longitude":39.7463915,"population":2270,"stateCapital":false,"nationalCapital":false,"pk":null,"quiz":"asia","code":null,"archived":false,"percentageOfSessions":null}, {"name":"Баранцовское","state":"Krasnodar","territory":"","country":"Russia","latitude":45.0621318,"longitude":37.6626259,"population":167,"stateCapital":false,"nationalCapital":false,"pk":null,"quiz":"asia","code":null,"archived":false,"percentageOfSessions":null}, {"name":"Барыбинский","state":"Krasnodar","territory":"","country":"Russia","latitude":45.687981,"longitude":39.052475,"population":280,"stateCapital":false,"nationalCapital":false,"pk":null,"quiz":"asia","code":null,"archived":false,"percentageOfSessions":null}, {"name":"Батарейка","state":"Krasnodar","territory":"","country":"Russia","latitude":45.3927113,"longitude":36.8248825,"population":640,"stateCapital":false,"nationalCapital":false,"pk":null,"quiz":"asia","code":null,"archived":false,"percentageOfSessions":null}, {"name":"Батога","state":"Krasnodar","territory":"","country":"Russia","latitude":45.822441,"longitude":38.467857,"population":113,"stateCapital":false,"nationalCapital":false,"pk":null,"quiz":"asia","code":null,"archived":false,"percentageOfSessions":null}, {"name":"Батуринская","state":"Krasnodar","territory":"","country":"Russia","latitude":45.790146,"longitude":39.366337,"population":3264,"stateCapital":false,"nationalCapital":false,"pk":null,"quiz":"asia","code":null,"archived":false,"percentageOfSessions":null}, {"name":"Беднягина","state":"Krasnodar","territory":"","country":"Russia","latitude":45.5181953,"longitude":38.992341,"population":2417,"stateCapital":false,"nationalCapital":false,"pk":null,"quiz":"asia","code":null,"archived":false,"percentageOfSessions":null}, {"name":"Безводный","state":"Krasnodar","territory":"","country":"Russia","latitude":45.004604,"longitude":37.82053,"population":125,"stateCapital":false,"nationalCapital":false,"pk":null,"quiz":"asia","code":null,"archived":false,"percentageOfSessions":null}, {"name":"Безлесный","state":"Krasnodar","territory":"","country":"Russia","latitude":45.4200443,"longitude":39.9911489,"population":1437,"stateCapital":false,"nationalCapital":false,"pk":null,"quiz":"asia","code":null,"archived":false,"percentageOfSessions":null}, {"name":"Безымянное","state":"Krasnodar","territory":"","country":"Russia","latitude":44.5496019,"longitude":39.1266688,"population":883,"stateCapital":false,"nationalCapital":false,"pk":null,"quiz":"asia","code":null,"archived":false,"percentageOfSessions":null}, {"name":"Бейсуг","state":"Krasnodar","territory":"","country":"Russia","latitude":45.700424,"longitude":39.853245,"population":2480,"stateCapital":false,"nationalCapital":false,"pk":null,"quiz":"asia","code":null,"archived":false,"percentageOfSessions":null}, {"name":"Бейсуг","state":"Krasnodar","territory":"","country":"Russia","latitude":45.923767,"longitude":38.713089,"population":94,"stateCapital":false,"nationalCapital":false,"pk":null,"quiz":"asia","code":null,"archived":false,"percentageOfSessions":null}, {"name":"Бейсугское","state":"Krasnodar","territory":"","country":"Russia","latitude":45.883202,"longitude":38.703033,"population":345,"stateCapital":false,"nationalCapital":false,"pk":null,"quiz":"asia","code":null,"archived":false,"percentageOfSessions":null}, {"name":"Бейсужек","state":"Krasnodar","territory":"","country":"Russia","latitude":45.893585,"longitude":39.53492,"population":211,"stateCapital":false,"nationalCapital":false,"pk":null,"quiz":"asia","code":null,"archived":false,"percentageOfSessions":null}, {"name":"Бейсужек Второй","state":"Krasnodar","territory":"","country":"Russia","latitude":45.486597,"longitude":39.7146004,"population":1993,"stateCapital":false,"nationalCapital":false,"pk":null,"quiz":"asia","code":null,"archived":false,"percentageOfSessions":null}, {"name":"Белая Глина","state":"Krasnodar","territory":"","country":"Russia","latitude":46.078419,"longitude":40.863701,"population":17320,"stateCapital":false,"nationalCapital":false,"pk":null,"quiz":"asia","code":null,"archived":false,"percentageOfSessions":null}, {"name":"Белецкий","state":"Krasnodar","territory":"","country":"Russia","latitude":44.803022,"longitude":41.4716636,"population":217,"stateCapital":false,"nationalCapital":false,"pk":null,"quiz":"asia","code":null,"archived":false,"percentageOfSessions":null}, {"name":"Беликов","state":"Krasnodar","territory":"","country":"Russia","latitude":45.491161,"longitude":37.973366,"population":954,"stateCapital":false,"nationalCapital":false,"pk":null,"quiz":"asia","code":null,"archived":false,"percentageOfSessions":null}, {"name":"Белозерный","state":"Krasnodar","territory":"","country":"Russia","latitude":45.0694049,"longitude":38.7207728,"population":4342,"stateCapital":false,"nationalCapital":false,"pk":null,"quiz":"asia","code":null,"archived":false,"percentageOfSessions":null}, {"name":"Белореченск","state":"Krasnodar","territory":"","country":"Russia","latitude":44.7614149,"longitude":39.8712943,"population":53892,"stateCapital":false,"nationalCapital":false,"pk":null,"quiz":"asia","code":null,"archived":false,"percentageOfSessions":null}, {"name":"Белый","state":"Krasnodar","territory":"","country":"Russia","latitude":46.295685,"longitude":39.595322,"population":1228,"stateCapital":false,"nationalCapital":false,"pk":null,"quiz":"asia","code":null,"archived":false,"percentageOfSessions":null}, {"name":"Белый","state":"Krasnodar","territory":"","country":"Russia","latitude":45.1705358,"longitude":37.2735164,"population":1874,"stateCapital":false,"nationalCapital":false,"pk":null,"quiz":"asia","code":null,"archived":false,"percentageOfSessions":null}, {"name":"Беляевский","state":"Krasnodar","territory":"","country":"Russia","latitude":45.0176875,"longitude":39.487365,"population":120,"stateCapital":false,"nationalCapital":false,"pk":null,"quiz":"asia","code":null,"archived":false,"percentageOfSessions":null}, {"name":"Беноково","state":"Krasnodar","territory":"","country":"Russia","latitude":44.4192422,"longitude":40.6791433,"population":1839,"stateCapital":false,"nationalCapital":false,"pk":null,"quiz":"asia","code":null,"archived":false,"percentageOfSessions":null}, {"name":"Беранда","state":"Krasnodar","territory":"","country":"Russia","latitude":43.7708157,"longitude":39.5269395,"population":450,"stateCapital":false,"nationalCapital":false,"pk":null,"quiz":"asia","code":null,"archived":false,"percentageOfSessions":null}, {"name":"Береговое","state":"Krasnodar","territory":"","country":"Russia","latitude":44.418835,"longitude":38.3600985,"population":1153,"stateCapital":false,"nationalCapital":false,"pk":null,"quiz":"asia","code":null,"archived":false,"percentageOfSessions":null}, {"name":"Береговой","state":"Krasnodar","territory":"","country":"Russia","latitude":46.6627832,"longitude":38.113697,"population":76,"stateCapital":false,"nationalCapital":false,"pk":null,"quiz":"asia","code":null,"archived":false,"percentageOfSessions":null}, {"name":"Береговой","state":"Krasnodar","territory":"","country":"Russia","latitude":45.3540097,"longitude":36.8147637,"population":203,"stateCapital":false,"nationalCapital":false,"pk":null,"quiz":"asia","code":null,"archived":false,"percentageOfSessions":null}, {"name":"Бережиновский","state":"Krasnodar","territory":"","country":"Russia","latitude":44.5759687,"longitude":41.412541,"population":53,"stateCapital":false,"nationalCapital":false,"pk":null,"quiz":"asia","code":null,"archived":false,"percentageOfSessions":null}, {"name":"Бережной","state":"Krasnodar","territory":"","country":"Russia","latitude":44.9103824,"longitude":38.1246568,"population":151,"stateCapital":false,"nationalCapital":false,"pk":null,"quiz":"asia","code":null,"archived":false,"percentageOfSessions":null}, {"name":"Бережной","state":"Krasnodar","territory":"","country":"Russia","latitude":44.9245659,"longitude":39.9084238,"population":31,"stateCapital":false,"nationalCapital":false,"pk":null,"quiz":"asia","code":null,"archived":false,"percentageOfSessions":null}, {"name":"Березанская","state":"Krasnodar","territory":"","country":"Russia","latitude":45.703762,"longitude":39.598011,"population":6968,"stateCapital":false,"nationalCapital":false,"pk":null,"quiz":"asia","code":null,"archived":false,"percentageOfSessions":null}, {"name":"Березанский","state":"Krasnodar","territory":"","country":"Russia","latitude":46.302315,"longitude":39.157143,"population":83,"stateCapital":false,"nationalCapital":false,"pk":null,"quiz":"asia","code":null,"archived":false,"percentageOfSessions":null}, {"name":"Березовый","state":"Krasnodar","territory":"","country":"Russia","latitude":45.1506248,"longitude":38.9950563,"population":6743,"stateCapital":false,"nationalCapital":false,"pk":null,"quiz":"asia","code":null,"archived":false,"percentageOfSessions":null}, {"name":"Бесленеевская","state":"Krasnodar","territory":"","country":"Russia","latitude":44.2275304,"longitude":40.7120891,"population":1413,"stateCapital":false,"nationalCapital":false,"pk":null,"quiz":"asia","code":null,"archived":false,"percentageOfSessions":null}, {"name":"Бесскорбная","state":"Krasnodar","territory":"","country":"Russia","latitude":44.6454448,"longitude":41.3127996,"population":5892,"stateCapital":false,"nationalCapital":false,"pk":null,"quiz":"asia","code":null,"archived":false,"percentageOfSessions":null}, {"name":"Бесстрашная","state":"Krasnodar","territory":"","country":"Russia","latitude":44.2489617,"longitude":41.1439178,"population":637,"stateCapital":false,"nationalCapital":false,"pk":null,"quiz":"asia","code":null,"archived":false,"percentageOfSessions":null}, {"name":"Бестужевское","state":"Krasnodar","territory":"","country":"Russia","latitude":43.484848,"longitude":39.9419706,"population":287,"stateCapital":false,"nationalCapital":false,"pk":null,"quiz":"asia","code":null,"archived":false,"percentageOfSessions":null}, {"name":"Бетта","state":"Krasnodar","territory":"","country":"Russia","latitude":44.3728016,"longitude":38.3956135,"population":796,"stateCapital":false,"nationalCapital":false,"pk":null,"quiz":"asia","code":null,"archived":false,"percentageOfSessions":null}, {"name":"Бжедуховская","state":"Krasnodar","territory":"","country":"Russia","latitude":44.8385988,"longitude":39.6835224,"population":2034,"stateCapital":false,"nationalCapital":false,"pk":null,"quiz":"asia","code":null,"archived":false,"percentageOfSessions":null}, {"name":"Бжид","state":"Krasnodar","territory":"","country":"Russia","latitude":44.3542948,"longitude":38.6650448,"population":571,"stateCapital":false,"nationalCapital":false,"pk":null,"quiz":"asia","code":null,"archived":false,"percentageOfSessions":null}, {"name":"Бзогу","state":"Krasnodar","territory":"","country":"Russia","latitude":43.8139232,"longitude":39.7154164,"population":12,"stateCapital":false,"nationalCapital":false,"pk":null,"quiz":"asia","code":null,"archived":false,"percentageOfSessions":null}, {"name":"Бичевый","state":"Krasnodar","territory":"","country":"Russia","latitude":46.245106,"longitude":39.595146,"population":1292,"stateCapital":false,"nationalCapital":false,"pk":null,"quiz":"asia","code":null,"archived":false,"percentageOfSessions":null}, {"name":"Благовещенская","state":"Krasnodar","territory":"","country":"Russia","latitude":45.0572223,"longitude":37.1292392,"population":2780,"stateCapital":false,"nationalCapital":false,"pk":null,"quiz":"asia","code":null,"archived":false,"percentageOfSessions":null}, {"name":"Благодарное","state":"Krasnodar","territory":"","country":"Russia","latitude":44.4992234,"longitude":41.5380254,"population":1608,"stateCapital":false,"nationalCapital":false,"pk":null,"quiz":"asia","code":null,"archived":false,"percentageOfSessions":null}, {"name":"Благополучненский","state":"Krasnodar","territory":"","country":"Russia","latitude":46.674999,"longitude":39.441666,"population":14,"stateCapital":false,"nationalCapital":false,"pk":null,"quiz":"asia","code":null,"archived":false,"percentageOfSessions":null}, {"name":"Ближнеейский","state":"Krasnodar","territory":"","country":"Russia","latitude":46.6675378,"longitude":38.2547439,"population":313,"stateCapital":false,"nationalCapital":false,"pk":null,"quiz":"asia","code":null,"archived":false,"percentageOfSessions":null}, {"name":"Ближний","state":"Krasnodar","territory":"","country":"Russia","latitude":46.215889,"longitude":39.171417,"population":276,"stateCapital":false,"nationalCapital":false,"pk":null,"quiz":"asia","code":null,"archived":false,"percentageOfSessions":null}, {"name":"Богдасаров","state":"Krasnodar","territory":"","country":"Russia","latitude":45.15356,"longitude":38.3283343,"population":66,"stateCapital":false,"nationalCapital":false,"pk":null,"quiz":"asia","code":null,"archived":false,"percentageOfSessions":null}, {"name":"Богушевка","state":"Krasnodar","territory":"","country":"Russia","latitude":43.6039742,"longitude":39.7761156,"population":349,"stateCapital":false,"nationalCapital":false,"pk":null,"quiz":"asia","code":null,"archived":false,"percentageOfSessions":null}, {"name":"Бойкопонура","state":"Krasnodar","territory":"","country":"Russia","latitude":45.3576843,"longitude":38.7686755,"population":2018,"stateCapital":false,"nationalCapital":false,"pk":null,"quiz":"asia","code":null,"archived":false,"percentageOfSessions":null}, {"name":"Болгов","state":"Krasnodar","territory":"","country":"Russia","latitude":45.2304413,"longitude":39.9018104,"population":1911,"stateCapital":false,"nationalCapital":false,"pk":null,"quiz":"asia","code":null,"archived":false,"percentageOfSessions":null}, {"name":"Большая Лопатина","state":"Krasnodar","territory":"","country":"Russia","latitude":46.6446,"longitude":39.578327,"population":428,"stateCapital":false,"nationalCapital":false,"pk":null,"quiz":"asia","code":null,"archived":false,"percentageOfSessions":null}, {"name":"Большевик","state":"Krasnodar","territory":"","country":"Russia","latitude":46.514141,"longitude":38.234791,"population":300,"stateCapital":false,"nationalCapital":false,"pk":null,"quiz":"asia","code":null,"archived":false,"percentageOfSessions":null}, {"name":"Большевик","state":"Krasnodar","territory":"","country":"Russia","latitude":45.1215041,"longitude":40.922231,"population":458,"stateCapital":false,"nationalCapital":false,"pk":null,"quiz":"asia","code":null,"archived":false,"percentageOfSessions":null}, {"name":"Большевик","state":"Krasnodar","territory":"","country":"Russia","latitude":45.4534451,"longitude":39.1307592,"population":449,"stateCapital":false,"nationalCapital":false,"pk":null,"quiz":"asia","code":null,"archived":false,"percentageOfSessions":null}, {"name":"Большевик","state":"Krasnodar","territory":"","country":"Russia","latitude":45.7775,"longitude":40.195,"population":362,"stateCapital":false,"nationalCapital":false,"pk":null,"quiz":"asia","code":null,"archived":false,"percentageOfSessions":null}, {"name":"Большелугский","state":"Krasnodar","territory":"","country":"Russia","latitude":46.6171476,"longitude":38.2475886,"population":270,"stateCapital":false,"nationalCapital":false,"pk":null,"quiz":"asia","code":null,"archived":false,"percentageOfSessions":null}, {"name":"Большие Хутора","state":"Krasnodar","territory":"","country":"Russia","latitude":44.7457672,"longitude":37.6004182,"population":1267,"stateCapital":false,"nationalCapital":false,"pk":null,"quiz":"asia","code":null,"archived":false,"percentageOfSessions":null}, {"name":"Большие Челбасы","state":"Krasnodar","territory":"","country":"Russia","latitude":46.1024439,"longitude":39.1657425,"population":427,"stateCapital":false,"nationalCapital":false,"pk":null,"quiz":"asia","code":null,"archived":false,"percentageOfSessions":null}, {"name":"Большое Псеушхо","state":"Krasnodar","territory":"","country":"Russia","latitude":44.0767709,"longitude":39.3423166,"population":118,"stateCapital":false,"nationalCapital":false,"pk":null,"quiz":"asia","code":null,"archived":false,"percentageOfSessions":null}, {"name":"Большой Бейсуг","state":"Krasnodar","territory":"","country":"Russia","latitude":45.781036,"longitude":39.230648,"population":1580,"stateCapital":false,"nationalCapital":false,"pk":null,"quiz":"asia","code":null,"archived":false,"percentageOfSessions":null}, {"name":"Большой Бродовой","state":"Krasnodar","territory":"","country":"Russia","latitude":44.9711764,"longitude":39.8742959,"population":217,"stateCapital":false,"nationalCapital":false,"pk":null,"quiz":"asia","code":null,"archived":false,"percentageOfSessions":null}, {"name":"Большой Кичмай","state":"Krasnodar","territory":"","country":"Russia","latitude":43.834567,"longitude":39.5091447,"population":724,"stateCapital":false,"nationalCapital":false,"pk":null,"quiz":"asia","code":null,"archived":false,"percentageOfSessions":null}, {"name":"Большой Разнокол","state":"Krasnodar","territory":"","country":"Russia","latitude":45.1483257,"longitude":37.4617044,"population":630,"stateCapital":false,"nationalCapital":false,"pk":null,"quiz":"asia","code":null,"archived":false,"percentageOfSessions":null}, {"name":"Большой Утриш","state":"Krasnodar","territory":"","country":"Russia","latitude":44.7604842,"longitude":37.3854412,"population":198,"stateCapital":false,"nationalCapital":false,"pk":null,"quiz":"asia","code":null,"archived":false,"percentageOfSessions":null}, {"name":"Бондаренко","state":"Krasnodar","territory":"","country":"Russia","latitude":44.8803429,"longitude":38.7396205,"population":48,"stateCapital":false,"nationalCapital":false,"pk":null,"quiz":"asia","code":null,"archived":false,"percentageOfSessions":null}, {"name":"Бончковский","state":"Krasnodar","territory":"","country":"Russia","latitude":44.8927435,"longitude":38.7595782,"population":58,"stateCapital":false,"nationalCapital":false,"pk":null,"quiz":"asia","code":null,"archived":false,"percentageOfSessions":null}, {"name":"Борвинок","state":"Krasnodar","territory":"","country":"Russia","latitude":45.1781664,"longitude":40.9339157,"population":108,"stateCapital":false,"nationalCapital":false,"pk":null,"quiz":"asia","code":null,"archived":false,"percentageOfSessions":null}, {"name":"Борец Труда","state":"Krasnodar","territory":"","country":"Russia","latitude":46.225964,"longitude":38.839199,"population":158,"stateCapital":false,"nationalCapital":false,"pk":null,"quiz":"asia","code":null,"archived":false,"percentageOfSessions":null}, {"name":"Борисов","state":"Krasnodar","territory":"","country":"Russia","latitude":45.1939909,"longitude":40.4383654,"population":102,"stateCapital":false,"nationalCapital":false,"pk":null,"quiz":"asia","code":null,"archived":false,"percentageOfSessions":null}, {"name":"Борисовка","state":"Krasnodar","territory":"","country":"Russia","latitude":44.753941,"longitude":37.6986501,"population":3188,"stateCapital":false,"nationalCapital":false,"pk":null,"quiz":"asia","code":null,"archived":false,"percentageOfSessions":null}, {"name":"Борисовский","state":"Krasnodar","territory":"","country":"Russia","latitude":45.04166,"longitude":37.921024,"population":14,"stateCapital":false,"nationalCapital":false,"pk":null,"quiz":"asia","code":null,"archived":false,"percentageOfSessions":null}, {"name":"Бородинская","state":"Krasnodar","territory":"","country":"Russia","latitude":46.103329,"longitude":38.255276,"population":1786,"stateCapital":false,"nationalCapital":false,"pk":null,"quiz":"asia","code":null,"archived":false,"percentageOfSessions":null}, {"name":"Ботаника","state":"Krasnodar","territory":"","country":"Russia","latitude":45.2155367,"longitude":40.7942737,"population":998,"stateCapital":false,"nationalCapital":false,"pk":null,"quiz":"asia","code":null,"archived":false,"percentageOfSessions":null}, {"name":"Бочаров","state":"Krasnodar","territory":"","country":"Russia","latitude":44.6782069,"longitude":41.0592887,"population":25,"stateCapital":false,"nationalCapital":false,"pk":null,"quiz":"asia","code":null,"archived":false,"percentageOfSessions":null}, {"name":"Братковское","state":"Krasnodar","territory":"","country":"Russia","latitude":45.638191,"longitude":39.319633,"population":1371,"stateCapital":false,"nationalCapital":false,"pk":null,"quiz":"asia","code":null,"archived":false,"percentageOfSessions":null}, {"name":"Братский","state":"Krasnodar","territory":"","country":"Russia","latitude":45.1584624,"longitude":40.7846925,"population":44,"stateCapital":false,"nationalCapital":false,"pk":null,"quiz":"asia","code":null,"archived":false,"percentageOfSessions":null}, {"name":"Братский","state":"Krasnodar","territory":"","country":"Russia","latitude":46.5121837,"longitude":38.3129333,"population":521,"stateCapital":false,"nationalCapital":false,"pk":null,"quiz":"asia","code":null,"archived":false,"percentageOfSessions":null}, {"name":"Братский","state":"Krasnodar","territory":"","country":"Russia","latitude":45.678238,"longitude":39.476753,"population":339,"stateCapital":false,"nationalCapital":false,"pk":null,"quiz":"asia","code":null,"archived":false,"percentageOfSessions":null}, {"name":"Братский","state":"Krasnodar","territory":"","country":"Russia","latitude":44.7073438,"longitude":41.0435179,"population":6,"stateCapital":false,"nationalCapital":false,"pk":null,"quiz":"asia","code":null,"archived":false,"percentageOfSessions":null}, {"name":"Братский","state":"Krasnodar","territory":"","country":"Russia","latitude":46.033611,"longitude":40.108334,"population":1227,"stateCapital":false,"nationalCapital":false,"pk":null,"quiz":"asia","code":null,"archived":false,"percentageOfSessions":null}, {"name":"Братский","state":"Krasnodar","territory":"","country":"Russia","latitude":45.2328669,"longitude":39.9571984,"population":1452,"stateCapital":false,"nationalCapital":false,"pk":null,"quiz":"asia","code":null,"archived":false,"percentageOfSessions":null}, {"name":"Братское","state":"Krasnodar","territory":"","country":"Russia","latitude":46.692387,"longitude":39.993362,"population":76,"stateCapital":false,"nationalCapital":false,"pk":null,"quiz":"asia","code":null,"archived":false,"percentageOfSessions":null}, {"name":"Бригадный","state":"Krasnodar","territory":"","country":"Russia","latitude":45.98872,"longitude":38.263981,"population":120,"stateCapital":false,"nationalCapital":false,"pk":null,"quiz":"asia","code":null,"archived":false,"percentageOfSessions":null}, {"name":"Бриньковская","state":"Krasnodar","territory":"","country":"Russia","latitude":46.034657,"longitude":38.586945,"population":5109,"stateCapital":false,"nationalCapital":false,"pk":null,"quiz":"asia","code":null,"archived":false,"percentageOfSessions":null}, {"name":"Брюховецкая","state":"Krasnodar","territory":"","country":"Russia","latitude":45.8006166,"longitude":39.0003034,"population":22139,"stateCapital":false,"nationalCapital":false,"pk":null,"quiz":"asia","code":null,"archived":false,"percentageOfSessions":null}, {"name":"Бугунжа","state":"Krasnodar","territory":"","country":"Russia","latitude":44.0827042,"longitude":40.6510221,"population":9,"stateCapital":false,"nationalCapital":false,"pk":null,"quiz":"asia","code":null,"archived":false,"percentageOfSessions":null}, {"name":"Бужор","state":"Krasnodar","territory":"","country":"Russia","latitude":44.857334,"longitude":37.410103,"population":487,"stateCapital":false,"nationalCapital":false,"pk":null,"quiz":"asia","code":null,"archived":false,"percentageOfSessions":null}, {"name":"Бузиновская","state":"Krasnodar","territory":"","country":"Russia","latitude":45.6024626,"longitude":39.801979,"population":1783,"stateCapital":false,"nationalCapital":false,"pk":null,"quiz":"asia","code":null,"archived":false,"percentageOfSessions":null}, {"name":"Булгаков","state":"Krasnodar","territory":"","country":"Russia","latitude":45.189577,"longitude":40.503332,"population":145,"stateCapital":false,"nationalCapital":false,"pk":null,"quiz":"asia","code":null,"archived":false,"percentageOfSessions":null}, {"name":"Бураковский","state":"Krasnodar","territory":"","country":"Russia","latitude":45.4567729,"longitude":39.6093286,"population":1897,"stateCapital":false,"nationalCapital":false,"pk":null,"quiz":"asia","code":null,"archived":false,"percentageOfSessions":null}, {"name":"Бурдатский","state":"Krasnodar","territory":"","country":"Russia","latitude":46.216084,"longitude":39.576981,"population":88,"stateCapital":false,"nationalCapital":false,"pk":null,"quiz":"asia","code":null,"archived":false,"percentageOfSessions":null}, {"name":"Бурный","state":"Krasnodar","territory":"","country":"Russia","latitude":44.0172951,"longitude":40.7225673,"population":34,"stateCapital":false,"nationalCapital":false,"pk":null,"quiz":"asia","code":null,"archived":false,"percentageOfSessions":null}, {"name":"Бурсаки","state":"Krasnodar","territory":"","country":"Russia","latitude":46.1042546,"longitude":39.1064552,"population":72,"stateCapital":false,"nationalCapital":false,"pk":null,"quiz":"asia","code":null,"archived":false,"percentageOfSessions":null}, {"name":"Ванновское","state":"Krasnodar","territory":"","country":"Russia","latitude":45.3220803,"longitude":40.2240186,"population":1603,"stateCapital":false,"nationalCapital":false,"pk":null,"quiz":"asia","code":null,"archived":false,"percentageOfSessions":null}, {"name":"Варваровка","state":"Krasnodar","territory":"","country":"Russia","latitude":44.8261433,"longitude":37.3673168,"population":1980,"stateCapital":false,"nationalCapital":false,"pk":null,"quiz":"asia","code":null,"archived":false,"percentageOfSessions":null}, {"name":"Варваровка","state":"Krasnodar","territory":"","country":"Russia","latitude":43.6927427,"longitude":39.6994325,"population":281,"stateCapital":false,"nationalCapital":false,"pk":null,"quiz":"asia","code":null,"archived":false,"percentageOfSessions":null}, {"name":"Вардане-Верино","state":"Krasnodar","territory":"","country":"Russia","latitude":43.5011611,"longitude":39.9443179,"population":298,"stateCapital":false,"nationalCapital":false,"pk":null,"quiz":"asia","code":null,"archived":false,"percentageOfSessions":null}, {"name":"Варениковская","state":"Krasnodar","territory":"","country":"Russia","latitude":45.121292,"longitude":37.638737,"population":14881,"stateCapital":false,"nationalCapital":false,"pk":null,"quiz":"asia","code":null,"archived":false,"percentageOfSessions":null}, {"name":"Варнавинское","state":"Krasnodar","territory":"","country":"Russia","latitude":44.99377,"longitude":38.1938241,"population":1111,"stateCapital":false,"nationalCapital":false,"pk":null,"quiz":"asia","code":null,"archived":false,"percentageOfSessions":null}, {"name":"Васильевка","state":"Krasnodar","territory":"","country":"Russia","latitude":45.3357789,"longitude":38.792512,"population":129,"stateCapital":false,"nationalCapital":false,"pk":null,"quiz":"asia","code":null,"archived":false,"percentageOfSessions":null}, {"name":"Васильевка","state":"Krasnodar","territory":"","country":"Russia","latitude":44.7314434,"longitude":37.667064,"population":437,"stateCapital":false,"nationalCapital":false,"pk":null,"quiz":"asia","code":null,"archived":false,"percentageOfSessions":null}, {"name":"Васильевка","state":"Krasnodar","territory":"","country":"Russia","latitude":43.6634394,"longitude":39.7169156,"population":444,"stateCapital":false,"nationalCapital":false,"pk":null,"quiz":"asia","code":null,"archived":false,"percentageOfSessions":null}, {"name":"Васильевский","state":"Krasnodar","territory":"","country":"Russia","latitude":45.0924523,"longitude":38.5299187,"population":248,"stateCapital":false,"nationalCapital":false,"pk":null,"quiz":"asia","code":null,"archived":false,"percentageOfSessions":null}, {"name":"Васюринская","state":"Krasnodar","territory":"","country":"Russia","latitude":45.1183262,"longitude":39.4200463,"population":13339,"stateCapital":false,"nationalCapital":false,"pk":null,"quiz":"asia","code":null,"archived":false,"percentageOfSessions":null}, {"name":"Васюринская","state":"Krasnodar","territory":"","country":"Russia","latitude":45.1183262,"longitude":39.4200463,"population":124,"stateCapital":false,"nationalCapital":false,"pk":null,"quiz":"asia","code":null,"archived":false,"percentageOfSessions":null}, {"name":"Великовечное","state":"Krasnodar","territory":"","country":"Russia","latitude":44.9349789,"longitude":39.7550699,"population":5812,"stateCapital":false,"nationalCapital":false,"pk":null,"quiz":"asia","code":null,"archived":false,"percentageOfSessions":null}, {"name":"Венцы","state":"Krasnodar","territory":"","country":"Russia","latitude":45.3746771,"longitude":40.8350696,"population":3891,"stateCapital":false,"nationalCapital":false,"pk":null,"quiz":"asia","code":null,"archived":false,"percentageOfSessions":null}, {"name":"Вербин","state":"Krasnodar","territory":"","country":"Russia","latitude":45.0106496,"longitude":39.874444,"population":174,"stateCapital":false,"nationalCapital":false,"pk":null,"quiz":"asia","code":null,"archived":false,"percentageOfSessions":null}, {"name":"Вербовый","state":"Krasnodar","territory":"","country":"Russia","latitude":45.2413666,"longitude":40.4968523,"population":227,"stateCapital":false,"nationalCapital":false,"pk":null,"quiz":"asia","code":null,"archived":false,"percentageOfSessions":null}, {"name":"Веревкин","state":"Krasnodar","territory":"","country":"Russia","latitude":45.2190256,"longitude":40.3603256,"population":586,"stateCapital":false,"nationalCapital":false,"pk":null,"quiz":"asia","code":null,"archived":false,"percentageOfSessions":null}, {"name":"Верхнеадагум","state":"Krasnodar","territory":"","country":"Russia","latitude":44.882034,"longitude":37.922001,"population":266,"stateCapital":false,"nationalCapital":false,"pk":null,"quiz":"asia","code":null,"archived":false,"percentageOfSessions":null}, {"name":"Верхнеармянская Хобза","state":"Krasnodar","territory":"","country":"Russia","latitude":43.7478797,"longitude":39.5985179,"population":570,"stateCapital":false,"nationalCapital":false,"pk":null,"quiz":"asia","code":null,"archived":false,"percentageOfSessions":null}, {"name":"Верхнеармянское Лоо","state":"Krasnodar","territory":"","country":"Russia","latitude":43.7373737,"longitude":39.6201159,"population":639,"stateCapital":false,"nationalCapital":false,"pk":null,"quiz":"asia","code":null,"archived":false,"percentageOfSessions":null}, {"name":"Верхнебаканский","state":"Krasnodar","territory":"","country":"Russia","latitude":44.8393179,"longitude":37.6539276,"population":6773,"stateCapital":false,"nationalCapital":false,"pk":null,"quiz":"asia","code":null,"archived":false,"percentageOfSessions":null}, {"name":"Верхневеденеевский","state":"Krasnodar","territory":"","country":"Russia","latitude":44.8340956,"longitude":39.7824623,"population":621,"stateCapital":false,"nationalCapital":false,"pk":null,"quiz":"asia","code":null,"archived":false,"percentageOfSessions":null}, {"name":"Верхневеселое","state":"Krasnodar","territory":"","country":"Russia","latitude":43.4256612,"longitude":39.9798972,"population":2374,"stateCapital":false,"nationalCapital":false,"pk":null,"quiz":"asia","code":null,"archived":false,"percentageOfSessions":null}, {"name":"Верхнее Буу","state":"Krasnodar","territory":"","country":"Russia","latitude":43.7590226,"longitude":39.5604025,"population":908,"stateCapital":false,"nationalCapital":false,"pk":null,"quiz":"asia","code":null,"archived":false,"percentageOfSessions":null}, {"name":"Верхнее Джемете","state":"Krasnodar","territory":"","country":"Russia","latitude":44.9495922,"longitude":37.3235976,"population":135,"stateCapital":false,"nationalCapital":false,"pk":null,"quiz":"asia","code":null,"archived":false,"percentageOfSessions":null}, {"name":"Верхнее Учдере","state":"Krasnodar","territory":"","country":"Russia","latitude":43.6990931,"longitude":39.6373093,"population":184,"stateCapital":false,"nationalCapital":false,"pk":null,"quiz":"asia","code":null,"archived":false,"percentageOfSessions":null}, {"name":"Верхнениколаевское","state":"Krasnodar","territory":"","country":"Russia","latitude":43.5242684,"longitude":39.9365835,"population":1015,"stateCapital":false,"nationalCapital":false,"pk":null,"quiz":"asia","code":null,"archived":false,"percentageOfSessions":null}, {"name":"Верхнерусское Лоо","state":"Krasnodar","territory":"","country":"Russia","latitude":43.7730738,"longitude":39.6514076,"population":24,"stateCapital":false,"nationalCapital":false,"pk":null,"quiz":"asia","code":null,"archived":false,"percentageOfSessions":null}, {"name":"Верхнеякорная Щель","state":"Krasnodar","territory":"","country":"Russia","latitude":43.7807856,"longitude":39.5129341,"population":260,"stateCapital":false,"nationalCapital":false,"pk":null,"quiz":"asia","code":null,"archived":false,"percentageOfSessions":null}, {"name":"Верхние Тубы","state":"Krasnodar","territory":"","country":"Russia","latitude":44.0907127,"longitude":39.6993966,"population":60,"stateCapital":false,"nationalCapital":false,"pk":null,"quiz":"asia","code":null,"archived":false,"percentageOfSessions":null}, {"name":"Верхний","state":"Krasnodar","territory":"","country":"Russia","latitude":45.3841219,"longitude":39.4947999,"population":489,"stateCapital":false,"nationalCapital":false,"pk":null,"quiz":"asia","code":null,"archived":false,"percentageOfSessions":null}, {"name":"Верхний","state":"Krasnodar","territory":"","country":"Russia","latitude":45.480633,"longitude":37.722664,"population":365,"stateCapital":false,"nationalCapital":false,"pk":null,"quiz":"asia","code":null,"archived":false,"percentageOfSessions":null}, {"name":"Верхний","state":"Krasnodar","territory":"","country":"Russia","latitude":45.205858,"longitude":40.1624672,"population":33,"stateCapital":false,"nationalCapital":false,"pk":null,"quiz":"asia","code":null,"archived":false,"percentageOfSessions":null}, {"name":"Верхний Ханчакрак","state":"Krasnodar","territory":"","country":"Russia","latitude":45.1021907,"longitude":37.4123079,"population":301,"stateCapital":false,"nationalCapital":false,"pk":null,"quiz":"asia","code":null,"archived":false,"percentageOfSessions":null}, {"name":"Верхний Чекон","state":"Krasnodar","territory":"","country":"Russia","latitude":45.0752125,"longitude":37.5316067,"population":124,"stateCapital":false,"nationalCapital":false,"pk":null,"quiz":"asia","code":null,"archived":false,"percentageOfSessions":null}, {"name":"Верхний Юрт","state":"Krasnodar","territory":"","country":"Russia","latitude":43.6302888,"longitude":39.7770125,"population":2807,"stateCapital":false,"nationalCapital":false,"pk":null,"quiz":"asia","code":null,"archived":false,"percentageOfSessions":null}, {"name":"Верхняя Ставрополька","state":"Krasnodar","territory":"","country":"Russia","latitude":44.870266,"longitude":38.075428,"population":133,"stateCapital":false,"nationalCapital":false,"pk":null,"quiz":"asia","code":null,"archived":false,"percentageOfSessions":null}, {"name":"Верховское","state":"Krasnodar","territory":"","country":"Russia","latitude":43.6236689,"longitude":39.8154227,"population":184,"stateCapital":false,"nationalCapital":false,"pk":null,"quiz":"asia","code":null,"archived":false,"percentageOfSessions":null}, {"name":"Веселая","state":"Krasnodar","territory":"","country":"Russia","latitude":46.169853,"longitude":40.101692,"population":2110,"stateCapital":false,"nationalCapital":false,"pk":null,"quiz":"asia","code":null,"archived":false,"percentageOfSessions":null}, {"name":"Веселая Гора","state":"Krasnodar","territory":"","country":"Russia","latitude":45.1008166,"longitude":37.4751906,"population":162,"stateCapital":false,"nationalCapital":false,"pk":null,"quiz":"asia","code":null,"archived":false,"percentageOfSessions":null}, {"name":"Веселая Жизнь","state":"Krasnodar","territory":"","country":"Russia","latitude":46.224373,"longitude":39.830135,"population":367,"stateCapital":false,"nationalCapital":false,"pk":null,"quiz":"asia","code":null,"archived":false,"percentageOfSessions":null}, {"name":"Веселовка","state":"Krasnodar","territory":"","country":"Russia","latitude":45.1287877,"longitude":36.9052033,"population":1742,"stateCapital":false,"nationalCapital":false,"pk":null,"quiz":"asia","code":null,"archived":false,"percentageOfSessions":null}, {"name":"Веселое","state":"Krasnodar","territory":"","country":"Russia","latitude":43.41166,"longitude":40.0040868,"population":4140,"stateCapital":false,"nationalCapital":false,"pk":null,"quiz":"asia","code":null,"archived":false,"percentageOfSessions":null}, {"name":"Веселый","state":"Krasnodar","territory":"","country":"Russia","latitude":44.503545,"longitude":39.3539084,"population":76,"stateCapital":false,"nationalCapital":false,"pk":null,"quiz":"asia","code":null,"archived":false,"percentageOfSessions":null}, {"name":"Веселый","state":"Krasnodar","territory":"","country":"Russia","latitude":45.966606,"longitude":39.489746,"population":376,"stateCapital":false,"nationalCapital":false,"pk":null,"quiz":"asia","code":null,"archived":false,"percentageOfSessions":null}, {"name":"Веселый","state":"Krasnodar","territory":"","country":"Russia","latitude":44.947102,"longitude":38.101799,"population":161,"stateCapital":false,"nationalCapital":false,"pk":null,"quiz":"asia","code":null,"archived":false,"percentageOfSessions":null}, {"name":"Веселый","state":"Krasnodar","territory":"","country":"Russia","latitude":44.947102,"longitude":38.101799,"population":397,"stateCapital":false,"nationalCapital":false,"pk":null,"quiz":"asia","code":null,"archived":false,"percentageOfSessions":null}, {"name":"Веселый","state":"Krasnodar","territory":"","country":"Russia","latitude":44.947102,"longitude":38.101799,"population":251,"stateCapital":false,"nationalCapital":false,"pk":null,"quiz":"asia","code":null,"archived":false,"percentageOfSessions":null}, {"name":"Веселый","state":"Krasnodar","territory":"","country":"Russia","latitude":44.9614801,"longitude":40.5290546,"population":142,"stateCapital":false,"nationalCapital":false,"pk":null,"quiz":"asia","code":null,"archived":false,"percentageOfSessions":null}, {"name":"Веселый","state":"Krasnodar","territory":"","country":"Russia","latitude":44.4961373,"longitude":41.0859089,"population":523,"stateCapital":false,"nationalCapital":false,"pk":null,"quiz":"asia","code":null,"archived":false,"percentageOfSessions":null}, {"name":"Веселый","state":"Krasnodar","territory":"","country":"Russia","latitude":44.4961373,"longitude":41.0859089,"population":138,"stateCapital":false,"nationalCapital":false,"pk":null,"quiz":"asia","code":null,"archived":false,"percentageOfSessions":null}, {"name":"Веселый","state":"Krasnodar","territory":"","country":"Russia","latitude":44.3827809,"longitude":40.7530353,"population":231,"stateCapital":false,"nationalCapital":false,"pk":null,"quiz":"asia","code":null,"archived":false,"percentageOfSessions":null}, {"name":"Веселый","state":"Krasnodar","territory":"","country":"Russia","latitude":45.1348752,"longitude":41.2570883,"population":145,"stateCapital":false,"nationalCapital":false,"pk":null,"quiz":"asia","code":null,"archived":false,"percentageOfSessions":null}, {"name":"Веселый","state":"Krasnodar","territory":"","country":"Russia","latitude":44.2811777,"longitude":41.231106,"population":14,"stateCapital":false,"nationalCapital":false,"pk":null,"quiz":"asia","code":null,"archived":false,"percentageOfSessions":null}, {"name":"Веселый","state":"Krasnodar","territory":"","country":"Russia","latitude":44.2811777,"longitude":41.231106,"population":74,"stateCapital":false,"nationalCapital":false,"pk":null,"quiz":"asia","code":null,"archived":false,"percentageOfSessions":null}, {"name":"Веселый","state":"Krasnodar","territory":"","country":"Russia","latitude":44.8709499,"longitude":38.4931941,"population":83,"stateCapital":false,"nationalCapital":false,"pk":null,"quiz":"asia","code":null,"archived":false,"percentageOfSessions":null}, {"name":"Веселый","state":"Krasnodar","territory":"","country":"Russia","latitude":46.471298,"longitude":39.197201,"population":192,"stateCapital":false,"nationalCapital":false,"pk":null,"quiz":"asia","code":null,"archived":false,"percentageOfSessions":null}, {"name":"Веселый","state":"Krasnodar","territory":"","country":"Russia","latitude":45.2656624,"longitude":40.2977634,"population":106,"stateCapital":false,"nationalCapital":false,"pk":null,"quiz":"asia","code":null,"archived":false,"percentageOfSessions":null}, {"name":"Веселый","state":"Krasnodar","territory":"","country":"Russia","latitude":44.8533293,"longitude":41.496152,"population":1271,"stateCapital":false,"nationalCapital":false,"pk":null,"quiz":"asia","code":null,"archived":false,"percentageOfSessions":null}, {"name":"Вестник","state":"Krasnodar","territory":"","country":"Russia","latitude":45.099194,"longitude":37.456772,"population":618,"stateCapital":false,"nationalCapital":false,"pk":null,"quiz":"asia","code":null,"archived":false,"percentageOfSessions":null}, {"name":"Вимовец","state":"Krasnodar","territory":"","country":"Russia","latitude":45.3072222,"longitude":39.8963889,"population":1684,"stateCapital":false,"nationalCapital":false,"pk":null,"quiz":"asia","code":null,"archived":false,"percentageOfSessions":null}, {"name":"Виноградное","state":"Krasnodar","territory":"","country":"Russia","latitude":44.6373766,"longitude":37.9990716,"population":283,"stateCapital":false,"nationalCapital":false,"pk":null,"quiz":"asia","code":null,"archived":false,"percentageOfSessions":null}, {"name":"Виноградный","state":"Krasnodar","territory":"","country":"Russia","latitude":44.969028,"longitude":37.917717,"population":594,"stateCapital":false,"nationalCapital":false,"pk":null,"quiz":"asia","code":null,"archived":false,"percentageOfSessions":null}, {"name":"Виноградный","state":"Krasnodar","territory":"","country":"Russia","latitude":45.1932785,"longitude":36.8991668,"population":1988,"stateCapital":false,"nationalCapital":false,"pk":null,"quiz":"asia","code":null,"archived":false,"percentageOfSessions":null}, {"name":"Виноградный","state":"Krasnodar","territory":"","country":"Russia","latitude":45.0543913,"longitude":37.3196797,"population":3354,"stateCapital":false,"nationalCapital":false,"pk":null,"quiz":"asia","code":null,"archived":false,"percentageOfSessions":null}, {"name":"Витязево","state":"Krasnodar","territory":"","country":"Russia","latitude":44.9897066,"longitude":37.2607195,"population":7936,"stateCapital":false,"nationalCapital":false,"pk":null,"quiz":"asia","code":null,"archived":false,"percentageOfSessions":null}, {"name":"Вишневый","state":"Krasnodar","territory":"","country":"Russia","latitude":45.2808351,"longitude":38.0707256,"population":652,"stateCapital":false,"nationalCapital":false,"pk":null,"quiz":"asia","code":null,"archived":false,"percentageOfSessions":null}, {"name":"Вишняки","state":"Krasnodar","territory":"","country":"Russia","latitude":45.117837,"longitude":39.22183,"population":641,"stateCapital":false,"nationalCapital":false,"pk":null,"quiz":"asia","code":null,"archived":false,"percentageOfSessions":null}, {"name":"Владимировка","state":"Krasnodar","territory":"","country":"Russia","latitude":44.789809,"longitude":37.6748826,"population":1485,"stateCapital":false,"nationalCapital":false,"pk":null,"quiz":"asia","code":null,"archived":false,"percentageOfSessions":null}, {"name":"Владимирская","state":"Krasnodar","territory":"","country":"Russia","latitude":44.5446631,"longitude":40.8043345,"population":7217,"stateCapital":false,"nationalCapital":false,"pk":null,"quiz":"asia","code":null,"archived":false,"percentageOfSessions":null}, {"name":"Внуковский","state":"Krasnodar","territory":"","country":"Russia","latitude":45.5623,"longitude":40.5001,"population":442,"stateCapital":false,"nationalCapital":false,"pk":null,"quiz":"asia","code":null,"archived":false,"percentageOfSessions":null}, {"name":"Водный","state":"Krasnodar","territory":"","country":"Russia","latitude":45.2834034,"longitude":38.3593515,"population":571,"stateCapital":false,"nationalCapital":false,"pk":null,"quiz":"asia","code":null,"archived":false,"percentageOfSessions":null}, {"name":"Водный","state":"Krasnodar","territory":"","country":"Russia","latitude":45.444534,"longitude":38.054291,"population":427,"stateCapital":false,"nationalCapital":false,"pk":null,"quiz":"asia","code":null,"archived":false,"percentageOfSessions":null}, {"name":"Водокачка","state":"Krasnodar","territory":"","country":"Russia","latitude":44.8777836,"longitude":38.8467089,"population":125,"stateCapital":false,"nationalCapital":false,"pk":null,"quiz":"asia","code":null,"archived":false,"percentageOfSessions":null}, {"name":"Водораздельный","state":"Krasnodar","territory":"","country":"Russia","latitude":46.472328,"longitude":40.02351,"population":121,"stateCapital":false,"nationalCapital":false,"pk":null,"quiz":"asia","code":null,"archived":false,"percentageOfSessions":null}, {"name":"Водяная Балка","state":"Krasnodar","territory":"","country":"Russia","latitude":46.731052,"longitude":39.652374,"population":453,"stateCapital":false,"nationalCapital":false,"pk":null,"quiz":"asia","code":null,"archived":false,"percentageOfSessions":null}, {"name":"Водяная Балка","state":"Krasnodar","territory":"","country":"Russia","latitude":46.731052,"longitude":39.652374,"population":214,"stateCapital":false,"nationalCapital":false,"pk":null,"quiz":"asia","code":null,"archived":false,"percentageOfSessions":null}, {"name":"Водянский","state":"Krasnodar","territory":"","country":"Russia","latitude":46.7820966,"longitude":39.4658815,"population":1,"stateCapital":false,"nationalCapital":false,"pk":null,"quiz":"asia","code":null,"archived":false,"percentageOfSessions":null}, {"name":"Воздвиженская","state":"Krasnodar","territory":"","country":"Russia","latitude":45.1277875,"longitude":40.1517465,"population":1609,"stateCapital":false,"nationalCapital":false,"pk":null,"quiz":"asia","code":null,"archived":false,"percentageOfSessions":null}, {"name":"Воздвиженский","state":"Krasnodar","territory":"","country":"Russia","latitude":45.1721057,"longitude":40.8081423,"population":258,"stateCapital":false,"nationalCapital":false,"pk":null,"quiz":"asia","code":null,"archived":false,"percentageOfSessions":null}, {"name":"Вознесенская","state":"Krasnodar","territory":"","country":"Russia","latitude":44.5502639,"longitude":41.0254797,"population":6546,"stateCapital":false,"nationalCapital":false,"pk":null,"quiz":"asia","code":null,"archived":false,"percentageOfSessions":null}, {"name":"Возрождение","state":"Krasnodar","territory":"","country":"Russia","latitude":45.5148581,"longitude":40.4568524,"population":306,"stateCapital":false,"nationalCapital":false,"pk":null,"quiz":"asia","code":null,"archived":false,"percentageOfSessions":null}, {"name":"Возрождение","state":"Krasnodar","territory":"","country":"Russia","latitude":45.964191,"longitude":38.690643,"population":61,"stateCapital":false,"nationalCapital":false,"pk":null,"quiz":"asia","code":null,"archived":false,"percentageOfSessions":null}, {"name":"Возрождение","state":"Krasnodar","territory":"","country":"Russia","latitude":44.550869,"longitude":38.214794,"population":1546,"stateCapital":false,"nationalCapital":false,"pk":null,"quiz":"asia","code":null,"archived":false,"percentageOfSessions":null}, {"name":"Воликов","state":"Krasnodar","territory":"","country":"Russia","latitude":44.8694511,"longitude":38.727068,"population":16,"stateCapital":false,"nationalCapital":false,"pk":null,"quiz":"asia","code":null,"archived":false,"percentageOfSessions":null}, {"name":"Волковка","state":"Krasnodar","territory":"","country":"Russia","latitude":43.6919227,"longitude":39.6626875,"population":2351,"stateCapital":false,"nationalCapital":false,"pk":null,"quiz":"asia","code":null,"archived":false,"percentageOfSessions":null}, {"name":"Волконка","state":"Krasnodar","territory":"","country":"Russia","latitude":43.8792779,"longitude":39.4013361,"population":467,"stateCapital":false,"nationalCapital":false,"pk":null,"quiz":"asia","code":null,"archived":false,"percentageOfSessions":null}, {"name":"Волна","state":"Krasnodar","territory":"","country":"Russia","latitude":45.1265845,"longitude":36.7105844,"population":549,"stateCapital":false,"nationalCapital":false,"pk":null,"quiz":"asia","code":null,"archived":false,"percentageOfSessions":null}, {"name":"Волна Революции","state":"Krasnodar","territory":"","country":"Russia","latitude":45.3324294,"longitude":36.9482148,"population":493,"stateCapital":false,"nationalCapital":false,"pk":null,"quiz":"asia","code":null,"archived":false,"percentageOfSessions":null}, {"name":"Вольное","state":"Krasnodar","territory":"","country":"Russia","latitude":44.0809188,"longitude":39.1150297,"population":202,"stateCapital":false,"nationalCapital":false,"pk":null,"quiz":"asia","code":null,"archived":false,"percentageOfSessions":null}, {"name":"Вольное","state":"Krasnodar","territory":"","country":"Russia","latitude":44.9534724,"longitude":41.2041445,"population":3504,"stateCapital":false,"nationalCapital":false,"pk":null,"quiz":"asia","code":null,"archived":false,"percentageOfSessions":null}, {"name":"Вольность","state":"Krasnodar","territory":"","country":"Russia","latitude":44.7736038,"longitude":41.5788687,"population":195,"stateCapital":false,"nationalCapital":false,"pk":null,"quiz":"asia","code":null,"archived":false,"percentageOfSessions":null}, {"name":"Вольный","state":"Krasnodar","territory":"","country":"Russia","latitude":46.2057,"longitude":38.736099,"population":36,"stateCapital":false,"nationalCapital":false,"pk":null,"quiz":"asia","code":null,"archived":false,"percentageOfSessions":null}, {"name":"Воробьев","state":"Krasnodar","territory":"","country":"Russia","latitude":44.9544419,"longitude":38.4524048,"population":45,"stateCapital":false,"nationalCapital":false,"pk":null,"quiz":"asia","code":null,"archived":false,"percentageOfSessions":null}, {"name":"Воровского","state":"Krasnodar","territory":"","country":"Russia","latitude":46.655998,"longitude":39.587101,"population":173,"stateCapital":false,"nationalCapital":false,"pk":null,"quiz":"asia","code":null,"archived":false,"percentageOfSessions":null}, {"name":"Воронежская","state":"Krasnodar","territory":"","country":"Russia","latitude":45.2120476,"longitude":39.5670828,"population":8562,"stateCapital":false,"nationalCapital":false,"pk":null,"quiz":"asia","code":null,"archived":false,"percentageOfSessions":null}, {"name":"Воронежский","state":"Krasnodar","territory":"","country":"Russia","latitude":44.6600808,"longitude":41.3270165,"population":241,"stateCapital":false,"nationalCapital":false,"pk":null,"quiz":"asia","code":null,"archived":false,"percentageOfSessions":null}, {"name":"Воронцовка","state":"Krasnodar","territory":"","country":"Russia","latitude":46.6543722,"longitude":38.0816311,"population":2189,"stateCapital":false,"nationalCapital":false,"pk":null,"quiz":"asia","code":null,"archived":false,"percentageOfSessions":null}, {"name":"Воронцовка","state":"Krasnodar","territory":"","country":"Russia","latitude":43.6188971,"longitude":39.9181708,"population":127,"stateCapital":false,"nationalCapital":false,"pk":null,"quiz":"asia","code":null,"archived":false,"percentageOfSessions":null}, {"name":"Воронцовская","state":"Krasnodar","territory":"","country":"Russia","latitude":45.2207524,"longitude":38.7367836,"population":1162,"stateCapital":false,"nationalCapital":false,"pk":null,"quiz":"asia","code":null,"archived":false,"percentageOfSessions":null}, {"name":"Воскресенский","state":"Krasnodar","territory":"","country":"Russia","latitude":44.9677758,"longitude":37.3221782,"population":1509,"stateCapital":false,"nationalCapital":false,"pk":null,"quiz":"asia","code":null,"archived":false,"percentageOfSessions":null}, {"name":"Воскресенское","state":"Krasnodar","territory":"","country":"Russia","latitude":44.5108298,"longitude":41.4613625,"population":173,"stateCapital":false,"nationalCapital":false,"pk":null,"quiz":"asia","code":null,"archived":false,"percentageOfSessions":null}, {"name":"Восточная","state":"Krasnodar","territory":"","country":"Russia","latitude":45.3674271,"longitude":39.7768125,"population":2064,"stateCapital":false,"nationalCapital":false,"pk":null,"quiz":"asia","code":null,"archived":false,"percentageOfSessions":null}, {"name":"Восточный","state":"Krasnodar","territory":"","country":"Russia","latitude":45.1850932,"longitude":38.7750541,"population":56,"stateCapital":false,"nationalCapital":false,"pk":null,"quiz":"asia","code":null,"archived":false,"percentageOfSessions":null}, {"name":"Восточный","state":"Krasnodar","territory":"","country":"Russia","latitude":46.1908208,"longitude":40.9547169,"population":313,"stateCapital":false,"nationalCapital":false,"pk":null,"quiz":"asia","code":null,"archived":false,"percentageOfSessions":null}, {"name":"Восточный","state":"Krasnodar","territory":"","country":"Russia","latitude":44.7375284,"longitude":39.9668341,"population":593,"stateCapital":false,"nationalCapital":false,"pk":null,"quiz":"asia","code":null,"archived":false,"percentageOfSessions":null}, {"name":"Восточный","state":"Krasnodar","territory":"","country":"Russia","latitude":45.3850313,"longitude":39.0927674,"population":36,"stateCapital":false,"nationalCapital":false,"pk":null,"quiz":"asia","code":null,"archived":false,"percentageOfSessions":null}, {"name":"Восточный","state":"Krasnodar","territory":"","country":"Russia","latitude":45.5555694,"longitude":40.5147836,"population":126,"stateCapital":false,"nationalCapital":false,"pk":null,"quiz":"asia","code":null,"archived":false,"percentageOfSessions":null}, {"name":"Восточный","state":"Krasnodar","territory":"","country":"Russia","latitude":46.332184,"longitude":38.865776,"population":17,"stateCapital":false,"nationalCapital":false,"pk":null,"quiz":"asia","code":null,"archived":false,"percentageOfSessions":null}, {"name":"Восточный","state":"Krasnodar","territory":"","country":"Russia","latitude":45.3500675,"longitude":38.4712176,"population":175,"stateCapital":false,"nationalCapital":false,"pk":null,"quiz":"asia","code":null,"archived":false,"percentageOfSessions":null}, {"name":"Восточный","state":"Krasnodar","territory":"","country":"Russia","latitude":45.0259717,"longitude":40.7573537,"population":130,"stateCapital":false,"nationalCapital":false,"pk":null,"quiz":"asia","code":null,"archived":false,"percentageOfSessions":null}, {"name":"Восточный","state":"Krasnodar","territory":"","country":"Russia","latitude":46.599201,"longitude":39.5532,"population":175,"stateCapital":false,"nationalCapital":false,"pk":null,"quiz":"asia","code":null,"archived":false,"percentageOfSessions":null}, {"name":"Восточный","state":"Krasnodar","territory":"","country":"Russia","latitude":46.270828,"longitude":39.523571,"population":349,"stateCapital":false,"nationalCapital":false,"pk":null,"quiz":"asia","code":null,"archived":false,"percentageOfSessions":null}, {"name":"Восточный","state":"Krasnodar","territory":"","country":"Russia","latitude":44.5939436,"longitude":40.613393,"population":1092,"stateCapital":false,"nationalCapital":false,"pk":null,"quiz":"asia","code":null,"archived":false,"percentageOfSessions":null}, {"name":"Восточный","state":"Krasnodar","territory":"","country":"Russia","latitude":44.8569536,"longitude":38.8526922,"population":271,"stateCapital":false,"nationalCapital":false,"pk":null,"quiz":"asia","code":null,"archived":false,"percentageOfSessions":null}, {"name":"Восточный","state":"Krasnodar","territory":"","country":"Russia","latitude":46.400127,"longitude":39.143639,"population":286,"stateCapital":false,"nationalCapital":false,"pk":null,"quiz":"asia","code":null,"archived":false,"percentageOfSessions":null}, {"name":"Восточный","state":"Krasnodar","territory":"","country":"Russia","latitude":45.4342736,"longitude":40.2683259,"population":273,"stateCapital":false,"nationalCapital":false,"pk":null,"quiz":"asia","code":null,"archived":false,"percentageOfSessions":null}, {"name":"Восточный","state":"Krasnodar","territory":"","country":"Russia","latitude":45.8335878,"longitude":40.153437,"population":987,"stateCapital":false,"nationalCapital":false,"pk":null,"quiz":"asia","code":null,"archived":false,"percentageOfSessions":null}, {"name":"Восточный","state":"Krasnodar","territory":"","country":"Russia","latitude":46.6277325,"longitude":38.5558869,"population":290,"stateCapital":false,"nationalCapital":false,"pk":null,"quiz":"asia","code":null,"archived":false,"percentageOfSessions":null}, {"name":"Восточный Сосык","state":"Krasnodar","territory":"","country":"Russia","latitude":46.444801,"longitude":39.219799,"population":1163,"stateCapital":false,"nationalCapital":false,"pk":null,"quiz":"asia","code":null,"archived":false,"percentageOfSessions":null}, {"name":"Восход","state":"Krasnodar","territory":"","country":"Russia","latitude":45.2317972,"longitude":40.9723861,"population":2860,"stateCapital":false,"nationalCapital":false,"pk":null,"quiz":"asia","code":null,"archived":false,"percentageOfSessions":null}, {"name":"Восход","state":"Krasnodar","territory":"","country":"Russia","latitude":45.817699,"longitude":40.909599,"population":438,"stateCapital":false,"nationalCapital":false,"pk":null,"quiz":"asia","code":null,"archived":false,"percentageOfSessions":null}, {"name":"Вперед","state":"Krasnodar","territory":"","country":"Russia","latitude":44.534964,"longitude":39.7009566,"population":1592,"stateCapital":false,"nationalCapital":false,"pk":null,"quiz":"asia","code":null,"archived":false,"percentageOfSessions":null}, {"name":"Вперед","state":"Krasnodar","territory":"","country":"Russia","latitude":45.885334,"longitude":40.541405,"population":268,"stateCapital":false,"nationalCapital":false,"pk":null,"quiz":"asia","code":null,"archived":false,"percentageOfSessions":null}, {"name":"Вперед","state":"Krasnodar","territory":"","country":"Russia","latitude":45.9066292,"longitude":40.4726405,"population":0,"stateCapital":false,"nationalCapital":false,"pk":null,"quiz":"asia","code":null,"archived":false,"percentageOfSessions":null}, {"name":"Встречный","state":"Krasnodar","territory":"","country":"Russia","latitude":45.921696,"longitude":38.967113,"population":2,"stateCapital":false,"nationalCapital":false,"pk":null,"quiz":"asia","code":null,"archived":false,"percentageOfSessions":null}, {"name":"Выселки","state":"Krasnodar","territory":"","country":"Russia","latitude":45.5806221,"longitude":39.6574237,"population":19426,"stateCapital":false,"nationalCapital":false,"pk":null,"quiz":"asia","code":null,"archived":false,"percentageOfSessions":null}, {"name":"Высокий","state":"Krasnodar","territory":"","country":"Russia","latitude":44.78571,"longitude":40.9108183,"population":1760,"stateCapital":false,"nationalCapital":false,"pk":null,"quiz":"asia","code":null,"archived":false,"percentageOfSessions":null}, {"name":"Высокий","state":"Krasnodar","territory":"","country":"Russia","latitude":44.3730866,"longitude":40.7420857,"population":121,"stateCapital":false,"nationalCapital":false,"pk":null,"quiz":"asia","code":null,"archived":false,"percentageOfSessions":null}, {"name":"Высокое","state":"Krasnodar","territory":"","country":"Russia","latitude":43.4742369,"longitude":39.9705726,"population":3910,"stateCapital":false,"nationalCapital":false,"pk":null,"quiz":"asia","code":null,"archived":false,"percentageOfSessions":null}, {"name":"Высотный","state":"Krasnodar","territory":"","country":"Russia","latitude":44.9527786,"longitude":39.6837543,"population":261,"stateCapital":false,"nationalCapital":false,"pk":null,"quiz":"asia","code":null,"archived":false,"percentageOfSessions":null}, {"name":"Высотный","state":"Krasnodar","territory":"","country":"Russia","latitude":46.1232929,"longitude":39.5758623,"population":12,"stateCapital":false,"nationalCapital":false,"pk":null,"quiz":"asia","code":null,"archived":false,"percentageOfSessions":null}, {"name":"Вышестеблиевская","state":"Krasnodar","territory":"","country":"Russia","latitude":45.1956477,"longitude":36.9977326,"population":3779,"stateCapital":false,"nationalCapital":false,"pk":null,"quiz":"asia","code":null,"archived":false,"percentageOfSessions":null}, {"name":"Газырь","state":"Krasnodar","territory":"","country":"Russia","latitude":45.74683,"longitude":39.934082,"population":1925,"stateCapital":false,"nationalCapital":false,"pk":null,"quiz":"asia","code":null,"archived":false,"percentageOfSessions":null}, {"name":"Гайдук","state":"Krasnodar","territory":"","country":"Russia","latitude":44.787028,"longitude":37.6968956,"population":7484,"stateCapital":false,"nationalCapital":false,"pk":null,"quiz":"asia","code":null,"archived":false,"percentageOfSessions":null}, {"name":"Гай-Кодзор","state":"Krasnodar","territory":"","country":"Russia","latitude":44.853226,"longitude":37.4373389,"population":2968,"stateCapital":false,"nationalCapital":false,"pk":null,"quiz":"asia","code":null,"archived":false,"percentageOfSessions":null}, {"name":"Галицын","state":"Krasnodar","territory":"","country":"Russia","latitude":45.484051,"longitude":38.051994,"population":1883,"stateCapital":false,"nationalCapital":false,"pk":null,"quiz":"asia","code":null,"archived":false,"percentageOfSessions":null}, {"name":"Галицыно","state":"Krasnodar","territory":"","country":"Russia","latitude":43.5434919,"longitude":39.9732651,"population":991,"stateCapital":false,"nationalCapital":false,"pk":null,"quiz":"asia","code":null,"archived":false,"percentageOfSessions":null}, {"name":"Ганжинский","state":"Krasnodar","territory":"","country":"Russia","latitude":44.9044763,"longitude":39.6824667,"population":160,"stateCapital":false,"nationalCapital":false,"pk":null,"quiz":"asia","code":null,"archived":false,"percentageOfSessions":null}, {"name":"Гапоновский","state":"Krasnodar","territory":"","country":"Russia","latitude":44.797306,"longitude":37.953205,"population":49,"stateCapital":false,"nationalCapital":false,"pk":null,"quiz":"asia","code":null,"archived":false,"percentageOfSessions":null}, {"name":"Гарбузовая Балка","state":"Krasnodar","territory":"","country":"Russia","latitude":45.849335,"longitude":38.815155,"population":785,"stateCapital":false,"nationalCapital":false,"pk":null,"quiz":"asia","code":null,"archived":false,"percentageOfSessions":null}, {"name":"Гаркуша","state":"Krasnodar","territory":"","country":"Russia","latitude":45.3198351,"longitude":36.8521778,"population":1066,"stateCapital":false,"nationalCapital":false,"pk":null,"quiz":"asia","code":null,"archived":false,"percentageOfSessions":null}, {"name":"Гвардейское","state":"Krasnodar","territory":"","country":"Russia","latitude":45.126945,"longitude":37.874168,"population":195,"stateCapital":false,"nationalCapital":false,"pk":null,"quiz":"asia","code":null,"archived":false,"percentageOfSessions":null}, {"name":"Геймановская","state":"Krasnodar","territory":"","country":"Russia","latitude":45.2654675,"longitude":40.2013622,"population":1695,"stateCapital":false,"nationalCapital":false,"pk":null,"quiz":"asia","code":null,"archived":false,"percentageOfSessions":null}, {"name":"Геленджик","state":"Krasnodar","territory":"","country":"Russia","latitude":44.5609447,"longitude":38.0766832,"population":54980,"stateCapital":false,"nationalCapital":false,"pk":null,"quiz":"asia","code":null,"archived":false,"percentageOfSessions":null}, {"name":"Георгиевское","state":"Krasnodar","territory":"","country":"Russia","latitude":44.1634687,"longitude":39.2505587,"population":1606,"stateCapital":false,"nationalCapital":false,"pk":null,"quiz":"asia","code":null,"archived":false,"percentageOfSessions":null}, {"name":"Гирей","state":"Krasnodar","territory":"","country":"Russia","latitude":45.4024641,"longitude":40.6581862,"population":6586,"stateCapital":false,"nationalCapital":false,"pk":null,"quiz":"asia","code":null,"archived":false,"percentageOfSessions":null}, {"name":"Гладковская","state":"Krasnodar","territory":"","country":"Russia","latitude":44.983864,"longitude":37.727127,"population":298,"stateCapital":false,"nationalCapital":false,"pk":null,"quiz":"asia","code":null,"archived":false,"percentageOfSessions":null}, {"name":"Глафировка","state":"Krasnodar","territory":"","country":"Russia","latitude":46.7630192,"longitude":38.4084452,"population":1627,"stateCapital":false,"nationalCapital":false,"pk":null,"quiz":"asia","code":null,"archived":false,"percentageOfSessions":null}, {"name":"Глебовка","state":"Krasnodar","territory":"","country":"Russia","latitude":46.637077,"longitude":39.983379,"population":1439,"stateCapital":false,"nationalCapital":false,"pk":null,"quiz":"asia","code":null,"archived":false,"percentageOfSessions":null}, {"name":"Глебовское","state":"Krasnodar","territory":"","country":"Russia","latitude":44.711033,"longitude":37.641567,"population":1027,"stateCapital":false,"nationalCapital":false,"pk":null,"quiz":"asia","code":null,"archived":false,"percentageOfSessions":null}, {"name":"Гливенко","state":"Krasnodar","territory":"","country":"Russia","latitude":44.9041224,"longitude":39.638999,"population":53,"stateCapital":false,"nationalCapital":false,"pk":null,"quiz":"asia","code":null,"archived":false,"percentageOfSessions":null}, {"name":"Глубокий","state":"Krasnodar","territory":"","country":"Russia","latitude":44.9459539,"longitude":41.019598,"population":3698,"stateCapital":false,"nationalCapital":false,"pk":null,"quiz":"asia","code":null,"archived":false,"percentageOfSessions":null}, {"name":"Гоголевский","state":"Krasnodar","territory":"","country":"Russia","latitude":44.5393041,"longitude":41.5340594,"population":18,"stateCapital":false,"nationalCapital":false,"pk":null,"quiz":"asia","code":null,"archived":false,"percentageOfSessions":null}, {"name":"Годовников","state":"Krasnodar","territory":"","country":"Russia","latitude":44.3501453,"longitude":39.8022132,"population":12,"stateCapital":false,"nationalCapital":false,"pk":null,"quiz":"asia","code":null,"archived":false,"percentageOfSessions":null}, {"name":"Гойтх","state":"Krasnodar","territory":"","country":"Russia","latitude":44.2481353,"longitude":39.374521,"population":450,"stateCapital":false,"nationalCapital":false,"pk":null,"quiz":"asia","code":null,"archived":false,"percentageOfSessions":null}, {"name":"Головков","state":"Krasnodar","territory":"","country":"Russia","latitude":45.0219916,"longitude":39.5849913,"population":34,"stateCapital":false,"nationalCapital":false,"pk":null,"quiz":"asia","code":null,"archived":false,"percentageOfSessions":null}, {"name":"Голубая Нива","state":"Krasnodar","territory":"","country":"Russia","latitude":45.66457,"longitude":37.849636,"population":1693,"stateCapital":false,"nationalCapital":false,"pk":null,"quiz":"asia","code":null,"archived":false,"percentageOfSessions":null}, {"name":"Голубицкая","state":"Krasnodar","territory":"","country":"Russia","latitude":45.3207387,"longitude":37.2765537,"population":5083,"stateCapital":false,"nationalCapital":false,"pk":null,"quiz":"asia","code":null,"archived":false,"percentageOfSessions":null}, {"name":"Горлачивка","state":"Krasnodar","territory":"","country":"Russia","latitude":45.3584255,"longitude":39.0835285,"population":45,"stateCapital":false,"nationalCapital":false,"pk":null,"quiz":"asia","code":null,"archived":false,"percentageOfSessions":null}, {"name":"Горно-Веселый","state":"Krasnodar","territory":"","country":"Russia","latitude":44.9074529,"longitude":37.8950244,"population":187,"stateCapital":false,"nationalCapital":false,"pk":null,"quiz":"asia","code":null,"archived":false,"percentageOfSessions":null}, {"name":"Горное","state":"Krasnodar","territory":"","country":"Russia","latitude":44.1162392,"longitude":41.0875222,"population":136,"stateCapital":false,"nationalCapital":false,"pk":null,"quiz":"asia","code":null,"archived":false,"percentageOfSessions":null}, {"name":"Горное Лоо","state":"Krasnodar","territory":"","country":"Russia","latitude":43.7175718,"longitude":39.6062367,"population":3322,"stateCapital":false,"nationalCapital":false,"pk":null,"quiz":"asia","code":null,"archived":false,"percentageOfSessions":null}, {"name":"Горный","state":"Krasnodar","territory":"","country":"Russia","latitude":44.2818799,"longitude":39.2786155,"population":1036,"stateCapital":false,"nationalCapital":false,"pk":null,"quiz":"asia","code":null,"archived":false,"percentageOfSessions":null}, {"name":"Горный","state":"Krasnodar","territory":"","country":"Russia","latitude":44.8683482,"longitude":37.7432494,"population":399,"stateCapital":false,"nationalCapital":false,"pk":null,"quiz":"asia","code":null,"archived":false,"percentageOfSessions":null}, {"name":"Горный Луч","state":"Krasnodar","territory":"","country":"Russia","latitude":44.3354554,"longitude":39.8033784,"population":37,"stateCapital":false,"nationalCapital":false,"pk":null,"quiz":"asia","code":null,"archived":false,"percentageOfSessions":null}, {"name":"Городок","state":"Krasnodar","territory":"","country":"Russia","latitude":44.4241042,"longitude":39.3821855,"population":246,"stateCapital":false,"nationalCapital":false,"pk":null,"quiz":"asia","code":null,"archived":false,"percentageOfSessions":null}, {"name":"Горский","state":"Krasnodar","territory":"","country":"Russia","latitude":45.3612015,"longitude":40.0672711,"population":41,"stateCapital":false,"nationalCapital":false,"pk":null,"quiz":"asia","code":null,"archived":false,"percentageOfSessions":null}, {"name":"Горское","state":"Krasnodar","territory":"","country":"Russia","latitude":44.3865719,"longitude":38.7288531,"population":520,"stateCapital":false,"nationalCapital":false,"pk":null,"quiz":"asia","code":null,"archived":false,"percentageOfSessions":null}, {"name":"Горькая Балка","state":"Krasnodar","territory":"","country":"Russia","latitude":45.0980937,"longitude":41.3420235,"population":420,"stateCapital":false,"nationalCapital":false,"pk":null,"quiz":"asia","code":null,"archived":false,"percentageOfSessions":null}, {"name":"Горькая Балка","state":"Krasnodar","territory":"","country":"Russia","latitude":46.092869,"longitude":40.685165,"population":2234,"stateCapital":false,"nationalCapital":false,"pk":null,"quiz":"asia","code":null,"archived":false,"percentageOfSessions":null}, {"name":"Горький","state":"Krasnodar","territory":"","country":"Russia","latitude":46.018131,"longitude":40.754974,"population":2,"stateCapital":false,"nationalCapital":false,"pk":null,"quiz":"asia","code":null,"archived":false,"percentageOfSessions":null}, {"name":"Горячий Ключ","state":"Krasnodar","territory":"","country":"Russia","latitude":44.6342653,"longitude":39.1363613,"population":30126,"stateCapital":false,"nationalCapital":false,"pk":null,"quiz":"asia","code":null,"archived":false,"percentageOfSessions":null}, {"name":"Гослесопитомник","state":"Krasnodar","territory":"","country":"Russia","latitude":46.652813,"longitude":39.75214,"population":529,"stateCapital":false,"nationalCapital":false,"pk":null,"quiz":"asia","code":null,"archived":false,"percentageOfSessions":null}, {"name":"Гостагаевская","state":"Krasnodar","territory":"","country":"Russia","latitude":45.024044,"longitude":37.502266,"population":9772,"stateCapital":false,"nationalCapital":false,"pk":null,"quiz":"asia","code":null,"archived":false,"percentageOfSessions":null}, {"name":"Гофицкое","state":"Krasnodar","territory":"","country":"Russia","latitude":44.2556953,"longitude":40.9688143,"population":592,"stateCapital":false,"nationalCapital":false,"pk":null,"quiz":"asia","code":null,"archived":false,"percentageOfSessions":null}, {"name":"Гражданский","state":"Krasnodar","territory":"","country":"Russia","latitude":45.782246,"longitude":39.873512,"population":1690,"stateCapital":false,"nationalCapital":false,"pk":null,"quiz":"asia","code":null,"archived":false,"percentageOfSessions":null}, {"name":"Грачевка","state":"Krasnodar","territory":"","country":"Russia","latitude":46.2240735,"longitude":39.268742,"population":84,"stateCapital":false,"nationalCapital":false,"pk":null,"quiz":"asia","code":null,"archived":false,"percentageOfSessions":null}, {"name":"Греблянский","state":"Krasnodar","territory":"","country":"Russia","latitude":45.679928,"longitude":39.063934,"population":205,"stateCapital":false,"nationalCapital":false,"pk":null,"quiz":"asia","code":null,"archived":false,"percentageOfSessions":null}, {"name":"Греки","state":"Krasnodar","territory":"","country":"Russia","latitude":45.663628,"longitude":38.524372,"population":980,"stateCapital":false,"nationalCapital":false,"pk":null,"quiz":"asia","code":null,"archived":false,"percentageOfSessions":null}, {"name":"Гречаная Балка","state":"Krasnodar","territory":"","country":"Russia","latitude":45.666985,"longitude":38.563015,"population":1718,"stateCapital":false,"nationalCapital":false,"pk":null,"quiz":"asia","code":null,"archived":false,"percentageOfSessions":null}, {"name":"Греческий","state":"Krasnodar","territory":"","country":"Russia","latitude":44.144289,"longitude":39.175884,"population":226,"stateCapital":false,"nationalCapital":false,"pk":null,"quiz":"asia","code":null,"archived":false,"percentageOfSessions":null}, {"name":"Гривенская","state":"Krasnodar","territory":"","country":"Russia","latitude":45.645042,"longitude":38.16069,"population":4723,"stateCapital":false,"nationalCapital":false,"pk":null,"quiz":"asia","code":null,"archived":false,"percentageOfSessions":null}, {"name":"Григорьевская","state":"Krasnodar","territory":"","country":"Russia","latitude":44.773793,"longitude":38.8379552,"population":1295,"stateCapital":false,"nationalCapital":false,"pk":null,"quiz":"asia","code":null,"archived":false,"percentageOfSessions":null}, {"name":"Гришковское","state":"Krasnodar","territory":"","country":"Russia","latitude":45.3848497,"longitude":38.6015267,"population":1404,"stateCapital":false,"nationalCapital":false,"pk":null,"quiz":"asia","code":null,"archived":false,"percentageOfSessions":null}, {"name":"Грузское","state":"Krasnodar","territory":"","country":"Russia","latitude":46.409988,"longitude":40.196709,"population":203,"stateCapital":false,"nationalCapital":false,"pk":null,"quiz":"asia","code":null,"archived":false,"percentageOfSessions":null}, {"name":"Грушевый","state":"Krasnodar","territory":"","country":"Russia","latitude":44.7660711,"longitude":39.9790544,"population":689,"stateCapital":false,"nationalCapital":false,"pk":null,"quiz":"asia","code":null,"archived":false,"percentageOfSessions":null}, {"name":"Гуамка","state":"Krasnodar","territory":"","country":"Russia","latitude":44.2302575,"longitude":39.9024304,"population":316,"stateCapital":false,"nationalCapital":false,"pk":null,"quiz":"asia","code":null,"archived":false,"percentageOfSessions":null}, {"name":"Губернаторский","state":"Krasnodar","territory":"","country":"Russia","latitude":45.337013,"longitude":37.963787,"population":287,"stateCapital":false,"nationalCapital":false,"pk":null,"quiz":"asia","code":null,"archived":false,"percentageOfSessions":null}, {"name":"Губская","state":"Krasnodar","territory":"","country":"Russia","latitude":44.3175675,"longitude":40.6276734,"population":3221,"stateCapital":false,"nationalCapital":false,"pk":null,"quiz":"asia","code":null,"archived":false,"percentageOfSessions":null}, {"name":"Гудко-Лиманский","state":"Krasnodar","territory":"","country":"Russia","latitude":46.621941,"longitude":39.440281,"population":33,"stateCapital":false,"nationalCapital":false,"pk":null,"quiz":"asia","code":null,"archived":false,"percentageOfSessions":null}, {"name":"Гулькевичи","state":"Krasnodar","territory":"","country":"Russia","latitude":45.3565119,"longitude":40.6962256,"population":35244,"stateCapital":false,"nationalCapital":false,"pk":null,"quiz":"asia","code":null,"archived":false,"percentageOfSessions":null}, {"name":"Гунайка Первая","state":"Krasnodar","territory":"","country":"Russia","latitude":44.3164481,"longitude":39.3798559,"population":13,"stateCapital":false,"nationalCapital":false,"pk":null,"quiz":"asia","code":null,"archived":false,"percentageOfSessions":null}, {"name":"Гунайка Четвертая","state":"Krasnodar","territory":"","country":"Russia","latitude":44.2778496,"longitude":39.4438615,"population":169,"stateCapital":false,"nationalCapital":false,"pk":null,"quiz":"asia","code":null,"archived":false,"percentageOfSessions":null}, {"name":"Гурийская","state":"Krasnodar","territory":"","country":"Russia","latitude":44.6511529,"longitude":39.6167172,"population":654,"stateCapital":false,"nationalCapital":false,"pk":null,"quiz":"asia","code":null,"archived":false,"percentageOfSessions":null}, {"name":"Гусаровское","state":"Krasnodar","territory":"","country":"Russia","latitude":44.5845838,"longitude":41.4213316,"population":1548,"stateCapital":false,"nationalCapital":false,"pk":null,"quiz":"asia","code":null,"archived":false,"percentageOfSessions":null}, {"name":"Дальний","state":"Krasnodar","territory":"","country":"Russia","latitude":45.3051389,"longitude":40.5241025,"population":238,"stateCapital":false,"nationalCapital":false,"pk":null,"quiz":"asia","code":null,"archived":false,"percentageOfSessions":null}, {"name":"Дальний","state":"Krasnodar","territory":"","country":"Russia","latitude":45.4036,"longitude":38.8529134,"population":174,"stateCapital":false,"nationalCapital":false,"pk":null,"quiz":"asia","code":null,"archived":false,"percentageOfSessions":null}, {"name":"Дальний","state":"Krasnodar","territory":"","country":"Russia","latitude":46.4482558,"longitude":38.1422375,"population":91,"stateCapital":false,"nationalCapital":false,"pk":null,"quiz":"asia","code":null,"archived":false,"percentageOfSessions":null}, {"name":"Дальний","state":"Krasnodar","territory":"","country":"Russia","latitude":44.9948659,"longitude":40.8280076,"population":298,"stateCapital":false,"nationalCapital":false,"pk":null,"quiz":"asia","code":null,"archived":false,"percentageOfSessions":null}, {"name":"Дальний","state":"Krasnodar","territory":"","country":"Russia","latitude":46.358959,"longitude":39.129005,"population":231,"stateCapital":false,"nationalCapital":false,"pk":null,"quiz":"asia","code":null,"archived":false,"percentageOfSessions":null}, {"name":"Дальний","state":"Krasnodar","territory":"","country":"Russia","latitude":45.2768053,"longitude":40.1680841,"population":550,"stateCapital":false,"nationalCapital":false,"pk":null,"quiz":"asia","code":null,"archived":false,"percentageOfSessions":null}, {"name":"Даманка","state":"Krasnodar","territory":"","country":"Russia","latitude":44.972614,"longitude":37.789818,"population":897,"stateCapital":false,"nationalCapital":false,"pk":null,"quiz":"asia","code":null,"archived":false,"percentageOfSessions":null}, {"name":"Двубратский","state":"Krasnodar","territory":"","country":"Russia","latitude":45.2649709,"longitude":39.7867959,"population":8541,"stateCapital":false,"nationalCapital":false,"pk":null,"quiz":"asia","code":null,"archived":false,"percentageOfSessions":null}, {"name":"Дедеркой","state":"Krasnodar","territory":"","country":"Russia","latitude":44.0579234,"longitude":39.1344676,"population":742,"stateCapital":false,"nationalCapital":false,"pk":null,"quiz":"asia","code":null,"archived":false,"percentageOfSessions":null}, {"name":"Дербентская","state":"Krasnodar","territory":"","country":"Russia","latitude":44.7688007,"longitude":38.5016341,"population":630,"stateCapital":false,"nationalCapital":false,"pk":null,"quiz":"asia","code":null,"archived":false,"percentageOfSessions":null}, {"name":"Дербентский","state":"Krasnodar","territory":"","country":"Russia","latitude":45.5047758,"longitude":38.9475142,"population":250,"stateCapital":false,"nationalCapital":false,"pk":null,"quiz":"asia","code":null,"archived":false,"percentageOfSessions":null}, {"name":"Деревянковка","state":"Krasnodar","territory":"","country":"Russia","latitude":45.65369,"longitude":38.087254,"population":309,"stateCapital":false,"nationalCapital":false,"pk":null,"quiz":"asia","code":null,"archived":false,"percentageOfSessions":null}, {"name":"Державный","state":"Krasnodar","territory":"","country":"Russia","latitude":44.8540437,"longitude":41.428528,"population":377,"stateCapital":false,"nationalCapital":false,"pk":null,"quiz":"asia","code":null,"archived":false,"percentageOfSessions":null},