{"cities":[{"name":"1-й Россошинский","state":"Rostov","territory":"","country":"Russia","latitude":46.681248,"longitude":40.3016413,"population":911,"stateCapital":false,"nationalCapital":false,"pk":null,"quiz":"asia","code":null,"archived":false,"percentageOfSessions":null}, {"name":"25 лет Военконезавода","state":"Rostov","territory":"","country":"Russia","latitude":46.627106,"longitude":41.487179,"population":109,"stateCapital":false,"nationalCapital":false,"pk":null,"quiz":"asia","code":null,"archived":false,"percentageOfSessions":null}, {"name":"2-й Россошинский","state":"Rostov","territory":"","country":"Russia","latitude":46.69455,"longitude":40.196926,"population":203,"stateCapital":false,"nationalCapital":false,"pk":null,"quiz":"asia","code":null,"archived":false,"percentageOfSessions":null}, {"name":"Абрамовка","state":"Rostov","territory":"","country":"Russia","latitude":48.295975,"longitude":40.335503,"population":790,"stateCapital":false,"nationalCapital":false,"pk":null,"quiz":"asia","code":null,"archived":false,"percentageOfSessions":null}, {"name":"Абрикосовый","state":"Rostov","territory":"","country":"Russia","latitude":47.408054,"longitude":41.25787,"population":427,"stateCapital":false,"nationalCapital":false,"pk":null,"quiz":"asia","code":null,"archived":false,"percentageOfSessions":null}, {"name":"Авилов","state":"Rostov","territory":"","country":"Russia","latitude":47.693165,"longitude":41.041702,"population":314,"stateCapital":false,"nationalCapital":false,"pk":null,"quiz":"asia","code":null,"archived":false,"percentageOfSessions":null}, {"name":"Авилов","state":"Rostov","territory":"","country":"Russia","latitude":47.648354,"longitude":39.889046,"population":430,"stateCapital":false,"nationalCapital":false,"pk":null,"quiz":"asia","code":null,"archived":false,"percentageOfSessions":null}, {"name":"Авило-Успенка","state":"Rostov","territory":"","country":"Russia","latitude":47.6947723,"longitude":38.6712728,"population":912,"stateCapital":false,"nationalCapital":false,"pk":null,"quiz":"asia","code":null,"archived":false,"percentageOfSessions":null}, {"name":"Авило-Федоровка","state":"Rostov","territory":"","country":"Russia","latitude":47.677132,"longitude":38.74197,"population":152,"stateCapital":false,"nationalCapital":false,"pk":null,"quiz":"asia","code":null,"archived":false,"percentageOfSessions":null}, {"name":"Агаренский","state":"Rostov","territory":"","country":"Russia","latitude":46.47139,"longitude":41.440655,"population":388,"stateCapital":false,"nationalCapital":false,"pk":null,"quiz":"asia","code":null,"archived":false,"percentageOfSessions":null}, {"name":"Аглос","state":"Rostov","territory":"","country":"Russia","latitude":47.365955,"longitude":39.912643,"population":86,"stateCapital":false,"nationalCapital":false,"pk":null,"quiz":"asia","code":null,"archived":false,"percentageOfSessions":null}, {"name":"Аграрный","state":"Rostov","territory":"","country":"Russia","latitude":48.588295,"longitude":41.437313,"population":295,"stateCapital":false,"nationalCapital":false,"pk":null,"quiz":"asia","code":null,"archived":false,"percentageOfSessions":null}, {"name":"Аграфеновка","state":"Rostov","territory":"","country":"Russia","latitude":47.728558,"longitude":39.490345,"population":1065,"stateCapital":false,"nationalCapital":false,"pk":null,"quiz":"asia","code":null,"archived":false,"percentageOfSessions":null}, {"name":"Агрономов","state":"Rostov","territory":"","country":"Russia","latitude":47.476604,"longitude":42.727123,"population":158,"stateCapital":false,"nationalCapital":false,"pk":null,"quiz":"asia","code":null,"archived":false,"percentageOfSessions":null}, {"name":"Агропролетарский","state":"Rostov","territory":"","country":"Russia","latitude":48.627113,"longitude":41.753265,"population":66,"stateCapital":false,"nationalCapital":false,"pk":null,"quiz":"asia","code":null,"archived":false,"percentageOfSessions":null}, {"name":"Адьянов","state":"Rostov","territory":"","country":"Russia","latitude":47.342602,"longitude":42.843063,"population":264,"stateCapital":false,"nationalCapital":false,"pk":null,"quiz":"asia","code":null,"archived":false,"percentageOfSessions":null}, {"name":"Ажинов","state":"Rostov","territory":"","country":"Russia","latitude":47.361526,"longitude":40.568069,"population":1159,"stateCapital":false,"nationalCapital":false,"pk":null,"quiz":"asia","code":null,"archived":false,"percentageOfSessions":null}, {"name":"Азов","state":"Rostov","territory":"","country":"Russia","latitude":47.1139219,"longitude":39.4259657,"population":82937,"stateCapital":false,"nationalCapital":false,"pk":null,"quiz":"asia","code":null,"archived":false,"percentageOfSessions":null}, {"name":"Акатновка","state":"Rostov","territory":"","country":"Russia","latitude":48.287361,"longitude":40.137901,"population":71,"stateCapital":false,"nationalCapital":false,"pk":null,"quiz":"asia","code":null,"archived":false,"percentageOfSessions":null}, {"name":"Аксай","state":"Rostov","territory":"","country":"Russia","latitude":47.268696,"longitude":39.861362,"population":41969,"stateCapital":false,"nationalCapital":false,"pk":null,"quiz":"asia","code":null,"archived":false,"percentageOfSessions":null}, {"name":"Аксенов","state":"Rostov","territory":"","country":"Russia","latitude":47.863895,"longitude":42.667149,"population":2,"stateCapital":false,"nationalCapital":false,"pk":null,"quiz":"asia","code":null,"archived":false,"percentageOfSessions":null}, {"name":"Алдабульский","state":"Rostov","territory":"","country":"Russia","latitude":47.666374,"longitude":42.624771,"population":225,"stateCapital":false,"nationalCapital":false,"pk":null,"quiz":"asia","code":null,"archived":false,"percentageOfSessions":null}, {"name":"Александров","state":"Rostov","territory":"","country":"Russia","latitude":47.904778,"longitude":41.742882,"population":661,"stateCapital":false,"nationalCapital":false,"pk":null,"quiz":"asia","code":null,"archived":false,"percentageOfSessions":null}, {"name":"Александрова Коса","state":"Rostov","territory":"","country":"Russia","latitude":47.1749988,"longitude":38.7835696,"population":926,"stateCapital":false,"nationalCapital":false,"pk":null,"quiz":"asia","code":null,"archived":false,"percentageOfSessions":null}, {"name":"Александровка","state":"Rostov","territory":"","country":"Russia","latitude":46.7848474,"longitude":38.986958,"population":4744,"stateCapital":false,"nationalCapital":false,"pk":null,"quiz":"asia","code":null,"archived":false,"percentageOfSessions":null}, {"name":"Александровка","state":"Rostov","territory":"","country":"Russia","latitude":47.3276226,"longitude":40.0030402,"population":1349,"stateCapital":false,"nationalCapital":false,"pk":null,"quiz":"asia","code":null,"archived":false,"percentageOfSessions":null}, {"name":"Александровка","state":"Rostov","territory":"","country":"Russia","latitude":47.635399,"longitude":38.792282,"population":759,"stateCapital":false,"nationalCapital":false,"pk":null,"quiz":"asia","code":null,"archived":false,"percentageOfSessions":null}, {"name":"Александровка","state":"Rostov","territory":"","country":"Russia","latitude":48.7950831,"longitude":40.8591769,"population":473,"stateCapital":false,"nationalCapital":false,"pk":null,"quiz":"asia","code":null,"archived":false,"percentageOfSessions":null}, {"name":"Александровка 1-я","state":"Rostov","territory":"","country":"Russia","latitude":47.424999,"longitude":39.211155,"population":35,"stateCapital":false,"nationalCapital":false,"pk":null,"quiz":"asia","code":null,"archived":false,"percentageOfSessions":null}, {"name":"Александровка 2-я","state":"Rostov","territory":"","country":"Russia","latitude":47.453121,"longitude":39.376328,"population":781,"stateCapital":false,"nationalCapital":false,"pk":null,"quiz":"asia","code":null,"archived":false,"percentageOfSessions":null}, {"name":"Александрово-Марково","state":"Rostov","territory":"","country":"Russia","latitude":47.233456,"longitude":38.560722,"population":385,"stateCapital":false,"nationalCapital":false,"pk":null,"quiz":"asia","code":null,"archived":false,"percentageOfSessions":null}, {"name":"Александровский","state":"Rostov","territory":"","country":"Russia","latitude":49.016518,"longitude":40.220795,"population":27,"stateCapital":false,"nationalCapital":false,"pk":null,"quiz":"asia","code":null,"archived":false,"percentageOfSessions":null}, {"name":"Александровский","state":"Rostov","territory":"","country":"Russia","latitude":48.775738,"longitude":42.112652,"population":325,"stateCapital":false,"nationalCapital":false,"pk":null,"quiz":"asia","code":null,"archived":false,"percentageOfSessions":null}, {"name":"Александровский","state":"Rostov","territory":"","country":"Russia","latitude":46.262932,"longitude":41.580742,"population":12,"stateCapital":false,"nationalCapital":false,"pk":null,"quiz":"asia","code":null,"archived":false,"percentageOfSessions":null}, {"name":"Алексеев","state":"Rostov","territory":"","country":"Russia","latitude":46.988052,"longitude":43.653496,"population":84,"stateCapital":false,"nationalCapital":false,"pk":null,"quiz":"asia","code":null,"archived":false,"percentageOfSessions":null}, {"name":"Алексеев","state":"Rostov","territory":"","country":"Russia","latitude":48.263584,"longitude":41.487747,"population":23,"stateCapital":false,"nationalCapital":false,"pk":null,"quiz":"asia","code":null,"archived":false,"percentageOfSessions":null}, {"name":"Алексеевка","state":"Rostov","territory":"","country":"Russia","latitude":47.635063,"longitude":38.818325,"population":954,"stateCapital":false,"nationalCapital":false,"pk":null,"quiz":"asia","code":null,"archived":false,"percentageOfSessions":null}, {"name":"Алексеевка","state":"Rostov","territory":"","country":"Russia","latitude":47.6848056,"longitude":39.9224985,"population":917,"stateCapital":false,"nationalCapital":false,"pk":null,"quiz":"asia","code":null,"archived":false,"percentageOfSessions":null}, {"name":"Алексеево-Лозовское","state":"Rostov","territory":"","country":"Russia","latitude":49.383896,"longitude":40.649422,"population":2393,"stateCapital":false,"nationalCapital":false,"pk":null,"quiz":"asia","code":null,"archived":false,"percentageOfSessions":null}, {"name":"Алексеево-Тузловка","state":"Rostov","territory":"","country":"Russia","latitude":47.8414959,"longitude":39.4512371,"population":550,"stateCapital":false,"nationalCapital":false,"pk":null,"quiz":"asia","code":null,"archived":false,"percentageOfSessions":null}, {"name":"Алексеевский","state":"Rostov","territory":"","country":"Russia","latitude":49.45396,"longitude":41.134506,"population":300,"stateCapital":false,"nationalCapital":false,"pk":null,"quiz":"asia","code":null,"archived":false,"percentageOfSessions":null}, {"name":"Алексеевский","state":"Rostov","territory":"","country":"Russia","latitude":48.75753,"longitude":42.340763,"population":532,"stateCapital":false,"nationalCapital":false,"pk":null,"quiz":"asia","code":null,"archived":false,"percentageOfSessions":null}, {"name":"Алимовский","state":"Rostov","territory":"","country":"Russia","latitude":49.7349826,"longitude":41.8517846,"population":22,"stateCapital":false,"nationalCapital":false,"pk":null,"quiz":"asia","code":null,"archived":false,"percentageOfSessions":null}, {"name":"Алитуб","state":"Rostov","territory":"","country":"Russia","latitude":47.227257,"longitude":40.099945,"population":422,"stateCapital":false,"nationalCapital":false,"pk":null,"quiz":"asia","code":null,"archived":false,"percentageOfSessions":null}, {"name":"Алифанов","state":"Rostov","territory":"","country":"Russia","latitude":48.346962,"longitude":41.219273,"population":231,"stateCapital":false,"nationalCapital":false,"pk":null,"quiz":"asia","code":null,"archived":false,"percentageOfSessions":null}, {"name":"Альшанский","state":"Rostov","territory":"","country":"Russia","latitude":49.611099,"longitude":41.646645,"population":163,"stateCapital":false,"nationalCapital":false,"pk":null,"quiz":"asia","code":null,"archived":false,"percentageOfSessions":null}, {"name":"Амта","state":"Rostov","territory":"","country":"Russia","latitude":47.185444,"longitude":42.317471,"population":56,"stateCapital":false,"nationalCapital":false,"pk":null,"quiz":"asia","code":null,"archived":false,"percentageOfSessions":null}, {"name":"Анастасиевка","state":"Rostov","territory":"","country":"Russia","latitude":47.562275,"longitude":38.522537,"population":1475,"stateCapital":false,"nationalCapital":false,"pk":null,"quiz":"asia","code":null,"archived":false,"percentageOfSessions":null}, {"name":"Андреев","state":"Rostov","territory":"","country":"Russia","latitude":47.053616,"longitude":44.146137,"population":243,"stateCapital":false,"nationalCapital":false,"pk":null,"quiz":"asia","code":null,"archived":false,"percentageOfSessions":null}, {"name":"Андреев","state":"Rostov","territory":"","country":"Russia","latitude":48.392815,"longitude":41.539742,"population":9,"stateCapital":false,"nationalCapital":false,"pk":null,"quiz":"asia","code":null,"archived":false,"percentageOfSessions":null}, {"name":"Андреево-Мелентьево","state":"Rostov","territory":"","country":"Russia","latitude":47.305625,"longitude":38.8063126,"population":683,"stateCapital":false,"nationalCapital":false,"pk":null,"quiz":"asia","code":null,"archived":false,"percentageOfSessions":null}, {"name":"Андреевская","state":"Rostov","territory":"","country":"Russia","latitude":47.362095,"longitude":43.036163,"population":825,"stateCapital":false,"nationalCapital":false,"pk":null,"quiz":"asia","code":null,"archived":false,"percentageOfSessions":null}, {"name":"Андрианов","state":"Rostov","territory":"","country":"Russia","latitude":46.820484,"longitude":42.340454,"population":7,"stateCapital":false,"nationalCapital":false,"pk":null,"quiz":"asia","code":null,"archived":false,"percentageOfSessions":null}, {"name":"Андропов","state":"Rostov","territory":"","country":"Russia","latitude":46.676636,"longitude":41.067986,"population":39,"stateCapital":false,"nationalCapital":false,"pk":null,"quiz":"asia","code":null,"archived":false,"percentageOfSessions":null}, {"name":"Андроповский","state":"Rostov","territory":"","country":"Russia","latitude":49.669125,"longitude":41.936863,"population":324,"stateCapital":false,"nationalCapital":false,"pk":null,"quiz":"asia","code":null,"archived":false,"percentageOfSessions":null}, {"name":"Аникин","state":"Rostov","territory":"","country":"Russia","latitude":48.1636856,"longitude":39.982515,"population":170,"stateCapital":false,"nationalCapital":false,"pk":null,"quiz":"asia","code":null,"archived":false,"percentageOfSessions":null}, {"name":"Анисимовка","state":"Rostov","territory":"","country":"Russia","latitude":49.1451984,"longitude":41.079369,"population":4,"stateCapital":false,"nationalCapital":false,"pk":null,"quiz":"asia","code":null,"archived":false,"percentageOfSessions":null}, {"name":"Анновка","state":"Rostov","territory":"","country":"Russia","latitude":48.543205,"longitude":41.042194,"population":96,"stateCapital":false,"nationalCapital":false,"pk":null,"quiz":"asia","code":null,"archived":false,"percentageOfSessions":null}, {"name":"Анновка","state":"Rostov","territory":"","country":"Russia","latitude":49.008114,"longitude":41.24284,"population":2,"stateCapital":false,"nationalCapital":false,"pk":null,"quiz":"asia","code":null,"archived":false,"percentageOfSessions":null}, {"name":"Анно-Ребриковская","state":"Rostov","territory":"","country":"Russia","latitude":49.610027,"longitude":40.202271,"population":612,"stateCapital":false,"nationalCapital":false,"pk":null,"quiz":"asia","code":null,"archived":false,"percentageOfSessions":null}, {"name":"Антиповский","state":"Rostov","territory":"","country":"Russia","latitude":49.726673,"longitude":41.549034,"population":460,"stateCapital":false,"nationalCapital":false,"pk":null,"quiz":"asia","code":null,"archived":false,"percentageOfSessions":null}, {"name":"Антонов","state":"Rostov","territory":"","country":"Russia","latitude":47.870457,"longitude":42.148945,"population":765,"stateCapital":false,"nationalCapital":false,"pk":null,"quiz":"asia","code":null,"archived":false,"percentageOfSessions":null}, {"name":"Антоновка","state":"Rostov","territory":"","country":"Russia","latitude":48.7940992,"longitude":40.7115499,"population":5,"stateCapital":false,"nationalCapital":false,"pk":null,"quiz":"asia","code":null,"archived":false,"percentageOfSessions":null}, {"name":"Антоновка","state":"Rostov","territory":"","country":"Russia","latitude":48.641155,"longitude":41.353035,"population":135,"stateCapital":false,"nationalCapital":false,"pk":null,"quiz":"asia","code":null,"archived":false,"percentageOfSessions":null}, {"name":"Антоновский","state":"Rostov","territory":"","country":"Russia","latitude":49.640629,"longitude":42.092907,"population":7,"stateCapital":false,"nationalCapital":false,"pk":null,"quiz":"asia","code":null,"archived":false,"percentageOfSessions":null}, {"name":"Ануфриевка","state":"Rostov","territory":"","country":"Russia","latitude":48.9738456,"longitude":40.0835475,"population":153,"stateCapital":false,"nationalCapital":false,"pk":null,"quiz":"asia","code":null,"archived":false,"percentageOfSessions":null}, {"name":"Апанасовка","state":"Rostov","territory":"","country":"Russia","latitude":48.144005,"longitude":41.094707,"population":784,"stateCapital":false,"nationalCapital":false,"pk":null,"quiz":"asia","code":null,"archived":false,"percentageOfSessions":null}, {"name":"Апаринский","state":"Rostov","territory":"","country":"Russia","latitude":47.6617552,"longitude":40.919223,"population":2865,"stateCapital":false,"nationalCapital":false,"pk":null,"quiz":"asia","code":null,"archived":false,"percentageOfSessions":null}, {"name":"Араканцев","state":"Rostov","territory":"","country":"Russia","latitude":48.042782,"longitude":41.556915,"population":418,"stateCapital":false,"nationalCapital":false,"pk":null,"quiz":"asia","code":null,"archived":false,"percentageOfSessions":null}, {"name":"Арбузов","state":"Rostov","territory":"","country":"Russia","latitude":47.24091,"longitude":41.669346,"population":640,"stateCapital":false,"nationalCapital":false,"pk":null,"quiz":"asia","code":null,"archived":false,"percentageOfSessions":null}, {"name":"Арбузовка","state":"Rostov","territory":"","country":"Russia","latitude":49.475708,"longitude":40.629345,"population":131,"stateCapital":false,"nationalCapital":false,"pk":null,"quiz":"asia","code":null,"archived":false,"percentageOfSessions":null}, {"name":"Аржановский","state":"Rostov","territory":"","country":"Russia","latitude":48.915325,"longitude":42.230297,"population":89,"stateCapital":false,"nationalCapital":false,"pk":null,"quiz":"asia","code":null,"archived":false,"percentageOfSessions":null}, {"name":"Ароматный","state":"Rostov","territory":"","country":"Russia","latitude":49.798988,"longitude":41.16164,"population":199,"stateCapital":false,"nationalCapital":false,"pk":null,"quiz":"asia","code":null,"archived":false,"percentageOfSessions":null}, {"name":"Арпачин","state":"Rostov","territory":"","country":"Russia","latitude":47.225765,"longitude":40.183598,"population":1469,"stateCapital":false,"nationalCapital":false,"pk":null,"quiz":"asia","code":null,"archived":false,"percentageOfSessions":null}, {"name":"Артамошкин","state":"Rostov","territory":"","country":"Russia","latitude":49.374996,"longitude":41.034763,"population":587,"stateCapital":false,"nationalCapital":false,"pk":null,"quiz":"asia","code":null,"archived":false,"percentageOfSessions":null}, {"name":"Артемов","state":"Rostov","territory":"","country":"Russia","latitude":48.652905,"longitude":42.156525,"population":4,"stateCapital":false,"nationalCapital":false,"pk":null,"quiz":"asia","code":null,"archived":false,"percentageOfSessions":null}, {"name":"Архиповка","state":"Rostov","territory":"","country":"Russia","latitude":48.5978426,"longitude":40.4469806,"population":62,"stateCapital":false,"nationalCapital":false,"pk":null,"quiz":"asia","code":null,"archived":false,"percentageOfSessions":null}, {"name":"Архиповка","state":"Rostov","territory":"","country":"Russia","latitude":48.5850894,"longitude":40.8875501,"population":36,"stateCapital":false,"nationalCapital":false,"pk":null,"quiz":"asia","code":null,"archived":false,"percentageOfSessions":null}, {"name":"Астахов","state":"Rostov","territory":"","country":"Russia","latitude":49.260685,"longitude":41.972286,"population":111,"stateCapital":false,"nationalCapital":false,"pk":null,"quiz":"asia","code":null,"archived":false,"percentageOfSessions":null}, {"name":"Астахов","state":"Rostov","territory":"","country":"Russia","latitude":48.4572701,"longitude":40.2903397,"population":884,"stateCapital":false,"nationalCapital":false,"pk":null,"quiz":"asia","code":null,"archived":false,"percentageOfSessions":null}, {"name":"Атамановка","state":"Rostov","territory":"","country":"Russia","latitude":47.3411201,"longitude":38.489882,"population":69,"stateCapital":false,"nationalCapital":false,"pk":null,"quiz":"asia","code":null,"archived":false,"percentageOfSessions":null}, {"name":"Атамано-Власовка","state":"Rostov","territory":"","country":"Russia","latitude":47.775471,"longitude":39.587257,"population":279,"stateCapital":false,"nationalCapital":false,"pk":null,"quiz":"asia","code":null,"archived":false,"percentageOfSessions":null}, {"name":"Атлантово","state":"Rostov","territory":"","country":"Russia","latitude":47.728947,"longitude":40.573605,"population":56,"stateCapital":false,"nationalCapital":false,"pk":null,"quiz":"asia","code":null,"archived":false,"percentageOfSessions":null}, {"name":"Атюхта","state":"Rostov","territory":"","country":"Russia","latitude":47.769245,"longitude":40.226646,"population":297,"stateCapital":false,"nationalCapital":false,"pk":null,"quiz":"asia","code":null,"archived":false,"percentageOfSessions":null}, {"name":"Афанасьевский","state":"Rostov","territory":"","country":"Russia","latitude":48.941978,"longitude":39.956741,"population":130,"stateCapital":false,"nationalCapital":false,"pk":null,"quiz":"asia","code":null,"archived":false,"percentageOfSessions":null}, {"name":"Аюта","state":"Rostov","territory":"","country":"Russia","latitude":47.636536,"longitude":40.032692,"population":64,"stateCapital":false,"nationalCapital":false,"pk":null,"quiz":"asia","code":null,"archived":false,"percentageOfSessions":null}, {"name":"Бабовня","state":"Rostov","territory":"","country":"Russia","latitude":48.217918,"longitude":41.422653,"population":197,"stateCapital":false,"nationalCapital":false,"pk":null,"quiz":"asia","code":null,"archived":false,"percentageOfSessions":null}, {"name":"Багаевская","state":"Rostov","territory":"","country":"Russia","latitude":47.321434,"longitude":40.382904,"population":15459,"stateCapital":false,"nationalCapital":false,"pk":null,"quiz":"asia","code":null,"archived":false,"percentageOfSessions":null}, {"name":"Баевка","state":"Rostov","territory":"","country":"Russia","latitude":47.480309,"longitude":39.375065,"population":46,"stateCapital":false,"nationalCapital":false,"pk":null,"quiz":"asia","code":null,"archived":false,"percentageOfSessions":null}, {"name":"Базки","state":"Rostov","territory":"","country":"Russia","latitude":47.813752,"longitude":41.0632061,"population":332,"stateCapital":false,"nationalCapital":false,"pk":null,"quiz":"asia","code":null,"archived":false,"percentageOfSessions":null}, {"name":"Базковская","state":"Rostov","territory":"","country":"Russia","latitude":49.595352,"longitude":41.726852,"population":2600,"stateCapital":false,"nationalCapital":false,"pk":null,"quiz":"asia","code":null,"archived":false,"percentageOfSessions":null}, {"name":"Базковский","state":"Rostov","territory":"","country":"Russia","latitude":49.767418,"longitude":41.229103,"population":222,"stateCapital":false,"nationalCapital":false,"pk":null,"quiz":"asia","code":null,"archived":false,"percentageOfSessions":null}, {"name":"Байков","state":"Rostov","territory":"","country":"Russia","latitude":47.132248,"longitude":42.965599,"population":872,"stateCapital":false,"nationalCapital":false,"pk":null,"quiz":"asia","code":null,"archived":false,"percentageOfSessions":null}, {"name":"Бакай","state":"Rostov","territory":"","country":"Russia","latitude":49.5314033,"longitude":40.2721303,"population":330,"stateCapital":false,"nationalCapital":false,"pk":null,"quiz":"asia","code":null,"archived":false,"percentageOfSessions":null}, {"name":"Бакинский","state":"Rostov","territory":"","country":"Russia","latitude":46.52829,"longitude":40.256294,"population":98,"stateCapital":false,"nationalCapital":false,"pk":null,"quiz":"asia","code":null,"archived":false,"percentageOfSessions":null}, {"name":"Бакланники","state":"Rostov","territory":"","country":"Russia","latitude":47.4433077,"longitude":40.9852163,"population":1005,"stateCapital":false,"nationalCapital":false,"pk":null,"quiz":"asia","code":null,"archived":false,"percentageOfSessions":null}, {"name":"Бакланов","state":"Rostov","territory":"","country":"Russia","latitude":48.988129,"longitude":41.662365,"population":20,"stateCapital":false,"nationalCapital":false,"pk":null,"quiz":"asia","code":null,"archived":false,"percentageOfSessions":null}, {"name":"Баклановская","state":"Rostov","territory":"","country":"Russia","latitude":47.629173,"longitude":42.576706,"population":162,"stateCapital":false,"nationalCapital":false,"pk":null,"quiz":"asia","code":null,"archived":false,"percentageOfSessions":null}, {"name":"Балабанов","state":"Rostov","territory":"","country":"Russia","latitude":46.696373,"longitude":40.683685,"population":30,"stateCapital":false,"nationalCapital":false,"pk":null,"quiz":"asia","code":null,"archived":false,"percentageOfSessions":null}, {"name":"Балабинка","state":"Rostov","territory":"","country":"Russia","latitude":47.41835,"longitude":40.905178,"population":423,"stateCapital":false,"nationalCapital":false,"pk":null,"quiz":"asia","code":null,"archived":false,"percentageOfSessions":null}, {"name":"Балабино-Русский","state":"Rostov","territory":"","country":"Russia","latitude":47.785965,"longitude":39.612331,"population":22,"stateCapital":false,"nationalCapital":false,"pk":null,"quiz":"asia","code":null,"archived":false,"percentageOfSessions":null}, {"name":"Балка","state":"Rostov","territory":"","country":"Russia","latitude":47.582544,"longitude":38.6432872,"population":151,"stateCapital":false,"nationalCapital":false,"pk":null,"quiz":"asia","code":null,"archived":false,"percentageOfSessions":null}, {"name":"Балко-Грузский","state":"Rostov","territory":"","country":"Russia","latitude":46.406326,"longitude":40.355877,"population":884,"stateCapital":false,"nationalCapital":false,"pk":null,"quiz":"asia","code":null,"archived":false,"percentageOfSessions":null}, {"name":"Банниково-Александровский","state":"Rostov","territory":"","country":"Russia","latitude":48.886986,"longitude":40.3797266,"population":329,"stateCapital":false,"nationalCapital":false,"pk":null,"quiz":"asia","code":null,"archived":false,"percentageOfSessions":null}, {"name":"Бараники","state":"Rostov","territory":"","country":"Russia","latitude":46.486961,"longitude":41.911266,"population":873,"stateCapital":false,"nationalCapital":false,"pk":null,"quiz":"asia","code":null,"archived":false,"percentageOfSessions":null}, {"name":"Барило-Крепинская","state":"Rostov","territory":"","country":"Russia","latitude":47.7563741,"longitude":39.5372577,"population":1261,"stateCapital":false,"nationalCapital":false,"pk":null,"quiz":"asia","code":null,"archived":false,"percentageOfSessions":null}, {"name":"Батайск","state":"Rostov","territory":"","country":"Russia","latitude":47.138527,"longitude":39.742348,"population":111843,"stateCapital":false,"nationalCapital":false,"pk":null,"quiz":"asia","code":null,"archived":false,"percentageOfSessions":null}, {"name":"Батальщиковский","state":"Rostov","territory":"","country":"Russia","latitude":49.557289,"longitude":41.188244,"population":381,"stateCapital":false,"nationalCapital":false,"pk":null,"quiz":"asia","code":null,"archived":false,"percentageOfSessions":null}, {"name":"Беглица","state":"Rostov","territory":"","country":"Russia","latitude":47.1343925,"longitude":38.5398971,"population":1705,"stateCapital":false,"nationalCapital":false,"pk":null,"quiz":"asia","code":null,"archived":false,"percentageOfSessions":null}, {"name":"Безбородовский","state":"Rostov","territory":"","country":"Russia","latitude":49.619778,"longitude":42.110073,"population":2,"stateCapital":false,"nationalCapital":false,"pk":null,"quiz":"asia","code":null,"archived":false,"percentageOfSessions":null}, {"name":"Безымянка","state":"Rostov","territory":"","country":"Russia","latitude":48.272408,"longitude":41.761036,"population":5,"stateCapital":false,"nationalCapital":false,"pk":null,"quiz":"asia","code":null,"archived":false,"percentageOfSessions":null}, {"name":"Безымянный","state":"Rostov","territory":"","country":"Russia","latitude":47.02158,"longitude":42.490986,"population":32,"stateCapital":false,"nationalCapital":false,"pk":null,"quiz":"asia","code":null,"archived":false,"percentageOfSessions":null}, {"name":"Белавин","state":"Rostov","territory":"","country":"Russia","latitude":49.301949,"longitude":42.003124,"population":323,"stateCapital":false,"nationalCapital":false,"pk":null,"quiz":"asia","code":null,"archived":false,"percentageOfSessions":null}, {"name":"Белая Балка","state":"Rostov","territory":"","country":"Russia","latitude":49.495754,"longitude":40.785179,"population":55,"stateCapital":false,"nationalCapital":false,"pk":null,"quiz":"asia","code":null,"archived":false,"percentageOfSessions":null}, {"name":"Белая Балка","state":"Rostov","territory":"","country":"Russia","latitude":49.495754,"longitude":40.785179,"population":55,"stateCapital":false,"nationalCapital":false,"pk":null,"quiz":"asia","code":null,"archived":false,"percentageOfSessions":null}, {"name":"Белая Калитва","state":"Rostov","territory":"","country":"Russia","latitude":48.1751778,"longitude":40.7902124,"population":43651,"stateCapital":false,"nationalCapital":false,"pk":null,"quiz":"asia","code":null,"archived":false,"percentageOfSessions":null}, {"name":"Белгородцев","state":"Rostov","territory":"","country":"Russia","latitude":48.209881,"longitude":40.139015,"population":223,"stateCapital":false,"nationalCapital":false,"pk":null,"quiz":"asia","code":null,"archived":false,"percentageOfSessions":null}, {"name":"Белогоровка","state":"Rostov","territory":"","country":"Russia","latitude":49.1309294,"longitude":40.7576414,"population":10,"stateCapital":false,"nationalCapital":false,"pk":null,"quiz":"asia","code":null,"archived":false,"percentageOfSessions":null}, {"name":"Белогорский","state":"Rostov","territory":"","country":"Russia","latitude":49.599739,"longitude":41.709316,"population":1921,"stateCapital":false,"nationalCapital":false,"pk":null,"quiz":"asia","code":null,"archived":false,"percentageOfSessions":null}, {"name":"Белозерный","state":"Rostov","territory":"","country":"Russia","latitude":46.840153,"longitude":41.336155,"population":1360,"stateCapital":false,"nationalCapital":false,"pk":null,"quiz":"asia","code":null,"archived":false,"percentageOfSessions":null}, {"name":"Белоковыльный","state":"Rostov","territory":"","country":"Russia","latitude":47.80896,"longitude":41.68084,"population":70,"stateCapital":false,"nationalCapital":false,"pk":null,"quiz":"asia","code":null,"archived":false,"percentageOfSessions":null}, {"name":"Белый Колодезь","state":"Rostov","territory":"","country":"Russia","latitude":48.415291,"longitude":40.742973,"population":0,"stateCapital":false,"nationalCapital":false,"pk":null,"quiz":"asia","code":null,"archived":false,"percentageOfSessions":null}, {"name":"Беляев","state":"Rostov","territory":"","country":"Russia","latitude":48.140949,"longitude":41.81218,"population":390,"stateCapital":false,"nationalCapital":false,"pk":null,"quiz":"asia","code":null,"archived":false,"percentageOfSessions":null}, {"name":"Беляевка","state":"Rostov","territory":"","country":"Russia","latitude":48.6662922,"longitude":40.3352359,"population":28,"stateCapital":false,"nationalCapital":false,"pk":null,"quiz":"asia","code":null,"archived":false,"percentageOfSessions":null}, {"name":"Беляевск","state":"Rostov","territory":"","country":"Russia","latitude":49.047813,"longitude":40.161594,"population":182,"stateCapital":false,"nationalCapital":false,"pk":null,"quiz":"asia","code":null,"archived":false,"percentageOfSessions":null}, {"name":"Белянин","state":"Rostov","territory":"","country":"Russia","latitude":47.2969963,"longitude":40.3438442,"population":615,"stateCapital":false,"nationalCapital":false,"pk":null,"quiz":"asia","code":null,"archived":false,"percentageOfSessions":null}, {"name":"Белянский","state":"Rostov","territory":"","country":"Russia","latitude":47.754189,"longitude":41.554779,"population":457,"stateCapital":false,"nationalCapital":false,"pk":null,"quiz":"asia","code":null,"archived":false,"percentageOfSessions":null}, {"name":"Береговой","state":"Rostov","territory":"","country":"Russia","latitude":47.044506,"longitude":39.326656,"population":341,"stateCapital":false,"nationalCapital":false,"pk":null,"quiz":"asia","code":null,"archived":false,"percentageOfSessions":null}, {"name":"Березка","state":"Rostov","territory":"","country":"Russia","latitude":48.142735,"longitude":40.004551,"population":104,"stateCapital":false,"nationalCapital":false,"pk":null,"quiz":"asia","code":null,"archived":false,"percentageOfSessions":null}, {"name":"Берёзовая Роща","state":"Rostov","territory":"","country":"Russia","latitude":47.033718,"longitude":39.978016,"population":404,"stateCapital":false,"nationalCapital":false,"pk":null,"quiz":"asia","code":null,"archived":false,"percentageOfSessions":null}, {"name":"Березовка","state":"Rostov","territory":"","country":"Russia","latitude":46.3113055,"longitude":41.8286117,"population":1341,"stateCapital":false,"nationalCapital":false,"pk":null,"quiz":"asia","code":null,"archived":false,"percentageOfSessions":null}, {"name":"Березово-Федоровка","state":"Rostov","territory":"","country":"Russia","latitude":48.553188,"longitude":41.16325,"population":47,"stateCapital":false,"nationalCapital":false,"pk":null,"quiz":"asia","code":null,"archived":false,"percentageOfSessions":null}, {"name":"Березовский","state":"Rostov","territory":"","country":"Russia","latitude":46.27486,"longitude":40.447586,"population":100,"stateCapital":false,"nationalCapital":false,"pk":null,"quiz":"asia","code":null,"archived":false,"percentageOfSessions":null}, {"name":"Березовый","state":"Rostov","territory":"","country":"Russia","latitude":48.4824724,"longitude":40.3063707,"population":614,"stateCapital":false,"nationalCapital":false,"pk":null,"quiz":"asia","code":null,"archived":false,"percentageOfSessions":null}, {"name":"Берестовский","state":"Rostov","territory":"","country":"Russia","latitude":47.750801,"longitude":38.928268,"population":71,"stateCapital":false,"nationalCapital":false,"pk":null,"quiz":"asia","code":null,"archived":false,"percentageOfSessions":null}, {"name":"Бессергеневская","state":"Rostov","territory":"","country":"Russia","latitude":47.3998791,"longitude":40.3392866,"population":2091,"stateCapital":false,"nationalCapital":false,"pk":null,"quiz":"asia","code":null,"archived":false,"percentageOfSessions":null}, {"name":"Бессергеновка","state":"Rostov","territory":"","country":"Russia","latitude":47.2794246,"longitude":38.9876326,"population":1829,"stateCapital":false,"nationalCapital":false,"pk":null,"quiz":"asia","code":null,"archived":false,"percentageOfSessions":null}, {"name":"Бирюковский","state":"Rostov","territory":"","country":"Russia","latitude":49.52956,"longitude":41.138977,"population":237,"stateCapital":false,"nationalCapital":false,"pk":null,"quiz":"asia","code":null,"archived":false,"percentageOfSessions":null}, {"name":"Бирючий","state":"Rostov","territory":"","country":"Russia","latitude":46.881599,"longitude":39.549065,"population":134,"stateCapital":false,"nationalCapital":false,"pk":null,"quiz":"asia","code":null,"archived":false,"percentageOfSessions":null}, {"name":"Благодарный","state":"Rostov","territory":"","country":"Russia","latitude":46.766647,"longitude":41.170303,"population":172,"stateCapital":false,"nationalCapital":false,"pk":null,"quiz":"asia","code":null,"archived":false,"percentageOfSessions":null}, {"name":"Благодатно-Егоровский","state":"Rostov","territory":"","country":"Russia","latitude":47.247353,"longitude":38.401234,"population":22,"stateCapital":false,"nationalCapital":false,"pk":null,"quiz":"asia","code":null,"archived":false,"percentageOfSessions":null}, {"name":"Благодатный","state":"Rostov","territory":"","country":"Russia","latitude":46.758827,"longitude":41.143265,"population":75,"stateCapital":false,"nationalCapital":false,"pk":null,"quiz":"asia","code":null,"archived":false,"percentageOfSessions":null}, {"name":"Бобров","state":"Rostov","territory":"","country":"Russia","latitude":47.970844,"longitude":39.820889,"population":209,"stateCapital":false,"nationalCapital":false,"pk":null,"quiz":"asia","code":null,"archived":false,"percentageOfSessions":null}, {"name":"Богатов","state":"Rostov","territory":"","country":"Russia","latitude":48.097622,"longitude":40.79306,"population":607,"stateCapital":false,"nationalCapital":false,"pk":null,"quiz":"asia","code":null,"archived":false,"percentageOfSessions":null}, {"name":"Богатырев","state":"Rostov","territory":"","country":"Russia","latitude":47.971851,"longitude":42.267799,"population":441,"stateCapital":false,"nationalCapital":false,"pk":null,"quiz":"asia","code":null,"archived":false,"percentageOfSessions":null}, {"name":"Богачев","state":"Rostov","territory":"","country":"Russia","latitude":48.851925,"longitude":41.62793,"population":30,"stateCapital":false,"nationalCapital":false,"pk":null,"quiz":"asia","code":null,"archived":false,"percentageOfSessions":null}, {"name":"Богданов","state":"Rostov","territory":"","country":"Russia","latitude":48.265072,"longitude":40.434933,"population":676,"stateCapital":false,"nationalCapital":false,"pk":null,"quiz":"asia","code":null,"archived":false,"percentageOfSessions":null}, {"name":"Богдановка","state":"Rostov","territory":"","country":"Russia","latitude":46.803001,"longitude":40.958923,"population":147,"stateCapital":false,"nationalCapital":false,"pk":null,"quiz":"asia","code":null,"archived":false,"percentageOfSessions":null}, {"name":"Богненко","state":"Rostov","territory":"","country":"Russia","latitude":47.801186,"longitude":39.732483,"population":102,"stateCapital":false,"nationalCapital":false,"pk":null,"quiz":"asia","code":null,"archived":false,"percentageOfSessions":null}, {"name":"Богородицкое","state":"Rostov","territory":"","country":"Russia","latitude":46.328331,"longitude":41.174145,"population":1746,"stateCapital":false,"nationalCapital":false,"pk":null,"quiz":"asia","code":null,"archived":false,"percentageOfSessions":null}, {"name":"Богородское","state":"Rostov","territory":"","country":"Russia","latitude":46.341778,"longitude":43.894886,"population":682,"stateCapital":false,"nationalCapital":false,"pk":null,"quiz":"asia","code":null,"archived":false,"percentageOfSessions":null}, {"name":"Богоявленская","state":"Rostov","territory":"","country":"Russia","latitude":47.647484,"longitude":41.342587,"population":901,"stateCapital":false,"nationalCapital":false,"pk":null,"quiz":"asia","code":null,"archived":false,"percentageOfSessions":null}, {"name":"Богуны","state":"Rostov","territory":"","country":"Russia","latitude":49.482574,"longitude":40.839783,"population":371,"stateCapital":false,"nationalCapital":false,"pk":null,"quiz":"asia","code":null,"archived":false,"percentageOfSessions":null}, {"name":"Богураев","state":"Rostov","territory":"","country":"Russia","latitude":48.1487223,"longitude":40.7034676,"population":2522,"stateCapital":false,"nationalCapital":false,"pk":null,"quiz":"asia","code":null,"archived":false,"percentageOfSessions":null}, {"name":"Богураево","state":"Rostov","territory":"","country":"Russia","latitude":48.155361,"longitude":40.642776,"population":30,"stateCapital":false,"nationalCapital":false,"pk":null,"quiz":"asia","code":null,"archived":false,"percentageOfSessions":null}, {"name":"Божковка","state":"Rostov","territory":"","country":"Russia","latitude":48.054867,"longitude":40.367558,"population":1166,"stateCapital":false,"nationalCapital":false,"pk":null,"quiz":"asia","code":null,"archived":false,"percentageOfSessions":null}, {"name":"Божковка","state":"Rostov","territory":"","country":"Russia","latitude":48.054867,"longitude":40.367558,"population":50,"stateCapital":false,"nationalCapital":false,"pk":null,"quiz":"asia","code":null,"archived":false,"percentageOfSessions":null}, {"name":"Бокачевка","state":"Rostov","territory":"","country":"Russia","latitude":48.802391,"longitude":42.439545,"population":56,"stateCapital":false,"nationalCapital":false,"pk":null,"quiz":"asia","code":null,"archived":false,"percentageOfSessions":null}, {"name":"Боковская","state":"Rostov","territory":"","country":"Russia","latitude":49.228859,"longitude":41.834743,"population":4832,"stateCapital":false,"nationalCapital":false,"pk":null,"quiz":"asia","code":null,"archived":false,"percentageOfSessions":null}, {"name":"Болдиновка","state":"Rostov","territory":"","country":"Russia","latitude":46.623489,"longitude":40.253452,"population":370,"stateCapital":false,"nationalCapital":false,"pk":null,"quiz":"asia","code":null,"archived":false,"percentageOfSessions":null}, {"name":"Болдыревка","state":"Rostov","territory":"","country":"Russia","latitude":47.72147,"longitude":39.7190766,"population":852,"stateCapital":false,"nationalCapital":false,"pk":null,"quiz":"asia","code":null,"archived":false,"percentageOfSessions":null}, {"name":"Большая Бургуста","state":"Rostov","territory":"","country":"Russia","latitude":46.98085,"longitude":41.78492,"population":75,"stateCapital":false,"nationalCapital":false,"pk":null,"quiz":"asia","code":null,"archived":false,"percentageOfSessions":null}, {"name":"Большая Кирсановка","state":"Rostov","territory":"","country":"Russia","latitude":47.655499,"longitude":38.8964,"population":894,"stateCapital":false,"nationalCapital":false,"pk":null,"quiz":"asia","code":null,"archived":false,"percentageOfSessions":null}, {"name":"Большая Мартыновка","state":"Rostov","territory":"","country":"Russia","latitude":47.271027,"longitude":41.667885,"population":6158,"stateCapital":false,"nationalCapital":false,"pk":null,"quiz":"asia","code":null,"archived":false,"percentageOfSessions":null}, {"name":"Большая Неклиновка","state":"Rostov","territory":"","country":"Russia","latitude":47.4231639,"longitude":38.8665939,"population":1012,"stateCapital":false,"nationalCapital":false,"pk":null,"quiz":"asia","code":null,"archived":false,"percentageOfSessions":null}, {"name":"Большая Орловка","state":"Rostov","territory":"","country":"Russia","latitude":47.330444,"longitude":41.273788,"population":4063,"stateCapital":false,"nationalCapital":false,"pk":null,"quiz":"asia","code":null,"archived":false,"percentageOfSessions":null}, {"name":"Большая Поляна","state":"Rostov","territory":"","country":"Russia","latitude":47.194309,"longitude":43.022575,"population":64,"stateCapital":false,"nationalCapital":false,"pk":null,"quiz":"asia","code":null,"archived":false,"percentageOfSessions":null}, {"name":"Большая Таловая","state":"Rostov","territory":"","country":"Russia","latitude":46.972752,"longitude":40.616096,"population":847,"stateCapital":false,"nationalCapital":false,"pk":null,"quiz":"asia","code":null,"archived":false,"percentageOfSessions":null}, {"name":"Большая Федоровка","state":"Rostov","territory":"","country":"Russia","latitude":47.976437,"longitude":40.366047,"population":797,"stateCapital":false,"nationalCapital":false,"pk":null,"quiz":"asia","code":null,"archived":false,"percentageOfSessions":null}, {"name":"Большая Хлоповая","state":"Rostov","territory":"","country":"Russia","latitude":48.238708,"longitude":41.830486,"population":29,"stateCapital":false,"nationalCapital":false,"pk":null,"quiz":"asia","code":null,"archived":false,"percentageOfSessions":null}, {"name":"Большевик","state":"Rostov","territory":"","country":"Russia","latitude":46.838345,"longitude":39.584908,"population":27,"stateCapital":false,"nationalCapital":false,"pk":null,"quiz":"asia","code":null,"archived":false,"percentageOfSessions":null}, {"name":"Большевик","state":"Rostov","territory":"","country":"Russia","latitude":46.701996,"longitude":42.258064,"population":324,"stateCapital":false,"nationalCapital":false,"pk":null,"quiz":"asia","code":null,"archived":false,"percentageOfSessions":null}, {"name":"Большекрепинская","state":"Rostov","territory":"","country":"Russia","latitude":47.5950754,"longitude":39.3778229,"population":1995,"stateCapital":false,"nationalCapital":false,"pk":null,"quiz":"asia","code":null,"archived":false,"percentageOfSessions":null}, {"name":"Большемечетный","state":"Rostov","territory":"","country":"Russia","latitude":47.5095478,"longitude":41.0650332,"population":1226,"stateCapital":false,"nationalCapital":false,"pk":null,"quiz":"asia","code":null,"archived":false,"percentageOfSessions":null}, {"name":"Большенаполовский","state":"Rostov","territory":"","country":"Russia","latitude":49.438229,"longitude":41.425835,"population":614,"stateCapital":false,"nationalCapital":false,"pk":null,"quiz":"asia","code":null,"archived":false,"percentageOfSessions":null}, {"name":"Большие Салы","state":"Rostov","territory":"","country":"Russia","latitude":47.387089,"longitude":39.683609,"population":3483,"stateCapital":false,"nationalCapital":false,"pk":null,"quiz":"asia","code":null,"archived":false,"percentageOfSessions":null}, {"name":"Большие Эльбуздовские","state":"Rostov","territory":"","country":"Russia","latitude":46.6298679,"longitude":40.1516065,"population":229,"stateCapital":false,"nationalCapital":false,"pk":null,"quiz":"asia","code":null,"archived":false,"percentageOfSessions":null}, {"name":"Большинка","state":"Rostov","territory":"","country":"Russia","latitude":48.652496,"longitude":41.077503,"population":1453,"stateCapital":false,"nationalCapital":false,"pk":null,"quiz":"asia","code":null,"archived":false,"percentageOfSessions":null}, {"name":"Большовская","state":"Rostov","territory":"","country":"Russia","latitude":47.517784,"longitude":41.647312,"population":1158,"stateCapital":false,"nationalCapital":false,"pk":null,"quiz":"asia","code":null,"archived":false,"percentageOfSessions":null}, {"name":"Большое Зверево","state":"Rostov","territory":"","country":"Russia","latitude":47.982231,"longitude":39.997272,"population":12,"stateCapital":false,"nationalCapital":false,"pk":null,"quiz":"asia","code":null,"archived":false,"percentageOfSessions":null}, {"name":"Большое Ремонтное","state":"Rostov","territory":"","country":"Russia","latitude":46.468605,"longitude":43.824818,"population":733,"stateCapital":false,"nationalCapital":false,"pk":null,"quiz":"asia","code":null,"archived":false,"percentageOfSessions":null}, {"name":"Большой Гашун","state":"Rostov","territory":"","country":"Russia","latitude":47.096519,"longitude":43.078545,"population":98,"stateCapital":false,"nationalCapital":false,"pk":null,"quiz":"asia","code":null,"archived":false,"percentageOfSessions":null}, {"name":"Большой Должик","state":"Rostov","territory":"","country":"Russia","latitude":47.596386,"longitude":39.851086,"population":327,"stateCapital":false,"nationalCapital":false,"pk":null,"quiz":"asia","code":null,"archived":false,"percentageOfSessions":null}, {"name":"Большой Лог","state":"Rostov","territory":"","country":"Russia","latitude":47.298317,"longitude":39.91396,"population":4336,"stateCapital":false,"nationalCapital":false,"pk":null,"quiz":"asia","code":null,"archived":false,"percentageOfSessions":null}, {"name":"Бондарный","state":"Rostov","territory":"","country":"Russia","latitude":48.130806,"longitude":40.64336,"population":91,"stateCapital":false,"nationalCapital":false,"pk":null,"quiz":"asia","code":null,"archived":false,"percentageOfSessions":null}, {"name":"Борисов","state":"Rostov","territory":"","country":"Russia","latitude":48.687931,"longitude":41.438889,"population":172,"stateCapital":false,"nationalCapital":false,"pk":null,"quiz":"asia","code":null,"archived":false,"percentageOfSessions":null}, {"name":"Борисовка","state":"Rostov","territory":"","country":"Russia","latitude":48.431221,"longitude":41.34063,"population":117,"stateCapital":false,"nationalCapital":false,"pk":null,"quiz":"asia","code":null,"archived":false,"percentageOfSessions":null}, {"name":"Боркин","state":"Rostov","territory":"","country":"Russia","latitude":47.271473,"longitude":38.72834,"population":65,"stateCapital":false,"nationalCapital":false,"pk":null,"quiz":"asia","code":null,"archived":false,"percentageOfSessions":null}, {"name":"Бородино","state":"Rostov","territory":"","country":"Russia","latitude":47.739037,"longitude":40.914108,"population":118,"stateCapital":false,"nationalCapital":false,"pk":null,"quiz":"asia","code":null,"archived":false,"percentageOfSessions":null}, {"name":"Бородинов","state":"Rostov","territory":"","country":"Russia","latitude":48.227451,"longitude":40.656494,"population":173,"stateCapital":false,"nationalCapital":false,"pk":null,"quiz":"asia","code":null,"archived":false,"percentageOfSessions":null}, {"name":"Ботановский","state":"Rostov","territory":"","country":"Russia","latitude":49.367252,"longitude":41.12344,"population":36,"stateCapital":false,"nationalCapital":false,"pk":null,"quiz":"asia","code":null,"archived":false,"percentageOfSessions":null}, {"name":"Боцманово","state":"Rostov","territory":"","country":"Russia","latitude":47.173614,"longitude":38.7651572,"population":918,"stateCapital":false,"nationalCapital":false,"pk":null,"quiz":"asia","code":null,"archived":false,"percentageOfSessions":null}, {"name":"Боченков","state":"Rostov","territory":"","country":"Russia","latitude":49.004128,"longitude":40.448681,"population":0,"stateCapital":false,"nationalCapital":false,"pk":null,"quiz":"asia","code":null,"archived":false,"percentageOfSessions":null}, {"name":"Бочковой","state":"Rostov","territory":"","country":"Russia","latitude":46.568977,"longitude":40.901829,"population":50,"stateCapital":false,"nationalCapital":false,"pk":null,"quiz":"asia","code":null,"archived":false,"percentageOfSessions":null}, {"name":"Боярышниковый","state":"Rostov","territory":"","country":"Russia","latitude":47.980389,"longitude":40.918571,"population":39,"stateCapital":false,"nationalCapital":false,"pk":null,"quiz":"asia","code":null,"archived":false,"percentageOfSessions":null}, {"name":"Братский","state":"Rostov","territory":"","country":"Russia","latitude":47.3037938,"longitude":42.0712004,"population":71,"stateCapital":false,"nationalCapital":false,"pk":null,"quiz":"asia","code":null,"archived":false,"percentageOfSessions":null}, {"name":"Бровки","state":"Rostov","territory":"","country":"Russia","latitude":46.465744,"longitude":41.448639,"population":61,"stateCapital":false,"nationalCapital":false,"pk":null,"quiz":"asia","code":null,"archived":false,"percentageOfSessions":null}, {"name":"Бронницкий","state":"Rostov","territory":"","country":"Russia","latitude":47.6820227,"longitude":40.9333203,"population":573,"stateCapital":false,"nationalCapital":false,"pk":null,"quiz":"asia","code":null,"archived":false,"percentageOfSessions":null}, {"name":"Брянский","state":"Rostov","territory":"","country":"Russia","latitude":46.852119,"longitude":42.55854,"population":130,"stateCapital":false,"nationalCapital":false,"pk":null,"quiz":"asia","code":null,"archived":false,"percentageOfSessions":null}, {"name":"Бугры","state":"Rostov","territory":"","country":"Russia","latitude":47.602249,"longitude":40.823021,"population":184,"stateCapital":false,"nationalCapital":false,"pk":null,"quiz":"asia","code":null,"archived":false,"percentageOfSessions":null}, {"name":"Будановка","state":"Rostov","territory":"","country":"Russia","latitude":48.9601854,"longitude":40.9597819,"population":64,"stateCapital":false,"nationalCapital":false,"pk":null,"quiz":"asia","code":null,"archived":false,"percentageOfSessions":null}, {"name":"Будановка","state":"Rostov","territory":"","country":"Russia","latitude":48.9601854,"longitude":40.9597819,"population":183,"stateCapital":false,"nationalCapital":false,"pk":null,"quiz":"asia","code":null,"archived":false,"percentageOfSessions":null}, {"name":"Буденновская","state":"Rostov","territory":"","country":"Russia","latitude":46.930149,"longitude":41.55508,"population":2114,"stateCapital":false,"nationalCapital":false,"pk":null,"quiz":"asia","code":null,"archived":false,"percentageOfSessions":null}, {"name":"Булочкин","state":"Rostov","territory":"","country":"Russia","latitude":47.025452,"longitude":40.521343,"population":195,"stateCapital":false,"nationalCapital":false,"pk":null,"quiz":"asia","code":null,"archived":false,"percentageOfSessions":null}, {"name":"Бунако-Соколовец","state":"Rostov","territory":"","country":"Russia","latitude":47.804623,"longitude":39.608131,"population":275,"stateCapital":false,"nationalCapital":false,"pk":null,"quiz":"asia","code":null,"archived":false,"percentageOfSessions":null}, {"name":"Бурбуки","state":"Rostov","territory":"","country":"Russia","latitude":47.763596,"longitude":39.703556,"population":22,"stateCapital":false,"nationalCapital":false,"pk":null,"quiz":"asia","code":null,"archived":false,"percentageOfSessions":null}, {"name":"Бурульский","state":"Rostov","territory":"","country":"Russia","latitude":47.033947,"longitude":43.068653,"population":44,"stateCapital":false,"nationalCapital":false,"pk":null,"quiz":"asia","code":null,"archived":false,"percentageOfSessions":null}, {"name":"Бурхановка","state":"Rostov","territory":"","country":"Russia","latitude":46.8143094,"longitude":39.6291868,"population":212,"stateCapital":false,"nationalCapital":false,"pk":null,"quiz":"asia","code":null,"archived":false,"percentageOfSessions":null}, {"name":"Бутенки","state":"Rostov","territory":"","country":"Russia","latitude":47.441284,"longitude":38.794147,"population":53,"stateCapital":false,"nationalCapital":false,"pk":null,"quiz":"asia","code":null,"archived":false,"percentageOfSessions":null}, {"name":"Бутков","state":"Rostov","territory":"","country":"Russia","latitude":48.975719,"longitude":41.531586,"population":74,"stateCapital":false,"nationalCapital":false,"pk":null,"quiz":"asia","code":null,"archived":false,"percentageOfSessions":null}, {"name":"Быковский","state":"Rostov","territory":"","country":"Russia","latitude":49.876926,"longitude":41.484562,"population":402,"stateCapital":false,"nationalCapital":false,"pk":null,"quiz":"asia","code":null,"archived":false,"percentageOfSessions":null}, {"name":"Быстрогорский","state":"Rostov","territory":"","country":"Russia","latitude":48.205742,"longitude":41.141518,"population":3578,"stateCapital":false,"nationalCapital":false,"pk":null,"quiz":"asia","code":null,"archived":false,"percentageOfSessions":null}, {"name":"Быстрореченский","state":"Rostov","territory":"","country":"Russia","latitude":47.239136,"longitude":41.591488,"population":93,"stateCapital":false,"nationalCapital":false,"pk":null,"quiz":"asia","code":null,"archived":false,"percentageOfSessions":null}, {"name":"Быстрореченский","state":"Rostov","territory":"","country":"Russia","latitude":48.11219,"longitude":41.107754,"population":269,"stateCapital":false,"nationalCapital":false,"pk":null,"quiz":"asia","code":null,"archived":false,"percentageOfSessions":null}, {"name":"Быстрый","state":"Rostov","territory":"","country":"Russia","latitude":47.385807,"longitude":41.410946,"population":30,"stateCapital":false,"nationalCapital":false,"pk":null,"quiz":"asia","code":null,"archived":false,"percentageOfSessions":null}, {"name":"Быстрый","state":"Rostov","territory":"","country":"Russia","latitude":48.387268,"longitude":42.066708,"population":59,"stateCapital":false,"nationalCapital":false,"pk":null,"quiz":"asia","code":null,"archived":false,"percentageOfSessions":null}, {"name":"Быстрый","state":"Rostov","territory":"","country":"Russia","latitude":48.387268,"longitude":42.066708,"population":0,"stateCapital":false,"nationalCapital":false,"pk":null,"quiz":"asia","code":null,"archived":false,"percentageOfSessions":null}, {"name":"Быстрянский","state":"Rostov","territory":"","country":"Russia","latitude":46.830051,"longitude":42.026932,"population":945,"stateCapital":false,"nationalCapital":false,"pk":null,"quiz":"asia","code":null,"archived":false,"percentageOfSessions":null}, {"name":"Валовый","state":"Rostov","territory":"","country":"Russia","latitude":47.500923,"longitude":39.862213,"population":115,"stateCapital":false,"nationalCapital":false,"pk":null,"quiz":"asia","code":null,"archived":false,"percentageOfSessions":null}, {"name":"Валуевка","state":"Rostov","territory":"","country":"Russia","latitude":46.715942,"longitude":43.727753,"population":850,"stateCapital":false,"nationalCapital":false,"pk":null,"quiz":"asia","code":null,"archived":false,"percentageOfSessions":null}, {"name":"Валуево","state":"Rostov","territory":"","country":"Russia","latitude":47.449154,"longitude":39.317501,"population":77,"stateCapital":false,"nationalCapital":false,"pk":null,"quiz":"asia","code":null,"archived":false,"percentageOfSessions":null}, {"name":"Валуйский","state":"Rostov","territory":"","country":"Russia","latitude":47.024525,"longitude":41.32719,"population":235,"stateCapital":false,"nationalCapital":false,"pk":null,"quiz":"asia","code":null,"archived":false,"percentageOfSessions":null}, {"name":"Вальково","state":"Rostov","territory":"","country":"Russia","latitude":48.306427,"longitude":41.59008,"population":86,"stateCapital":false,"nationalCapital":false,"pk":null,"quiz":"asia","code":null,"archived":false,"percentageOfSessions":null}, {"name":"Варваринский","state":"Rostov","territory":"","country":"Russia","latitude":49.540665,"longitude":41.365974,"population":155,"stateCapital":false,"nationalCapital":false,"pk":null,"quiz":"asia","code":null,"archived":false,"percentageOfSessions":null}, {"name":"Вареник","state":"Rostov","territory":"","country":"Russia","latitude":47.571106,"longitude":38.394459,"population":82,"stateCapital":false,"nationalCapital":false,"pk":null,"quiz":"asia","code":null,"archived":false,"percentageOfSessions":null}, {"name":"Вареновка","state":"Rostov","territory":"","country":"Russia","latitude":47.287312,"longitude":39.021069,"population":3148,"stateCapital":false,"nationalCapital":false,"pk":null,"quiz":"asia","code":null,"archived":false,"percentageOfSessions":null}, {"name":"Варламов","state":"Rostov","territory":"","country":"Russia","latitude":48.880341,"longitude":42.145424,"population":22,"stateCapital":false,"nationalCapital":false,"pk":null,"quiz":"asia","code":null,"archived":false,"percentageOfSessions":null}, {"name":"Варламовка","state":"Rostov","territory":"","country":"Russia","latitude":48.884937,"longitude":41.738625,"population":115,"stateCapital":false,"nationalCapital":false,"pk":null,"quiz":"asia","code":null,"archived":false,"percentageOfSessions":null}, {"name":"Васецкий","state":"Rostov","territory":"","country":"Russia","latitude":48.02808,"longitude":39.816826,"population":263,"stateCapital":false,"nationalCapital":false,"pk":null,"quiz":"asia","code":null,"archived":false,"percentageOfSessions":null}, {"name":"Васильевка","state":"Rostov","territory":"","country":"Russia","latitude":48.7094253,"longitude":40.3311785,"population":667,"stateCapital":false,"nationalCapital":false,"pk":null,"quiz":"asia","code":null,"archived":false,"percentageOfSessions":null}, {"name":"Васильевка","state":"Rostov","territory":"","country":"Russia","latitude":46.6447069,"longitude":40.8522081,"population":202,"stateCapital":false,"nationalCapital":false,"pk":null,"quiz":"asia","code":null,"archived":false,"percentageOfSessions":null}, {"name":"Васильевка","state":"Rostov","territory":"","country":"Russia","latitude":46.6447069,"longitude":40.8522081,"population":171,"stateCapital":false,"nationalCapital":false,"pk":null,"quiz":"asia","code":null,"archived":false,"percentageOfSessions":null}, {"name":"Васильево-Петровский","state":"Rostov","territory":"","country":"Russia","latitude":46.929459,"longitude":39.46928,"population":303,"stateCapital":false,"nationalCapital":false,"pk":null,"quiz":"asia","code":null,"archived":false,"percentageOfSessions":null}, {"name":"Васильево-Петровское","state":"Rostov","territory":"","country":"Russia","latitude":46.967762,"longitude":39.502293,"population":519,"stateCapital":false,"nationalCapital":false,"pk":null,"quiz":"asia","code":null,"archived":false,"percentageOfSessions":null}, {"name":"Васильево-Ханжоновка","state":"Rostov","territory":"","country":"Russia","latitude":47.228281,"longitude":38.3767629,"population":541,"stateCapital":false,"nationalCapital":false,"pk":null,"quiz":"asia","code":null,"archived":false,"percentageOfSessions":null}, {"name":"Васильево-Шамшево","state":"Rostov","territory":"","country":"Russia","latitude":46.867177,"longitude":39.9545225,"population":487,"stateCapital":false,"nationalCapital":false,"pk":null,"quiz":"asia","code":null,"archived":false,"percentageOfSessions":null}, {"name":"Васильевский","state":"Rostov","territory":"","country":"Russia","latitude":48.592327,"longitude":41.257301,"population":11,"stateCapital":false,"nationalCapital":false,"pk":null,"quiz":"asia","code":null,"archived":false,"percentageOfSessions":null}, {"name":"Васильевский","state":"Rostov","territory":"","country":"Russia","latitude":48.180481,"longitude":40.558899,"population":460,"stateCapital":false,"nationalCapital":false,"pk":null,"quiz":"asia","code":null,"archived":false,"percentageOfSessions":null}, {"name":"Ващаевский","state":"Rostov","territory":"","country":"Russia","latitude":49.774647,"longitude":41.830578,"population":111,"stateCapital":false,"nationalCapital":false,"pk":null,"quiz":"asia","code":null,"archived":false,"percentageOfSessions":null}, {"name":"Ведерников","state":"Rostov","territory":"","country":"Russia","latitude":47.581783,"longitude":41.14661,"population":1237,"stateCapital":false,"nationalCapital":false,"pk":null,"quiz":"asia","code":null,"archived":false,"percentageOfSessions":null}, {"name":"Великанов","state":"Rostov","territory":"","country":"Russia","latitude":47.821461,"longitude":41.965435,"population":116,"stateCapital":false,"nationalCapital":false,"pk":null,"quiz":"asia","code":null,"archived":false,"percentageOfSessions":null}, {"name":"Венделеевка","state":"Rostov","territory":"","country":"Russia","latitude":49.0818186,"longitude":40.2071959,"population":419,"stateCapital":false,"nationalCapital":false,"pk":null,"quiz":"asia","code":null,"archived":false,"percentageOfSessions":null}, {"name":"Вербный","state":"Rostov","territory":"","country":"Russia","latitude":46.623692,"longitude":41.936584,"population":82,"stateCapital":false,"nationalCapital":false,"pk":null,"quiz":"asia","code":null,"archived":false,"percentageOfSessions":null}, {"name":"Вербовка","state":"Rostov","territory":"","country":"Russia","latitude":49.160027,"longitude":41.754654,"population":170,"stateCapital":false,"nationalCapital":false,"pk":null,"quiz":"asia","code":null,"archived":false,"percentageOfSessions":null}, {"name":"Вербовый Лог","state":"Rostov","territory":"","country":"Russia","latitude":47.528507,"longitude":42.598499,"population":1042,"stateCapital":false,"nationalCapital":false,"pk":null,"quiz":"asia","code":null,"archived":false,"percentageOfSessions":null}, {"name":"Вербочки","state":"Rostov","territory":"","country":"Russia","latitude":48.453667,"longitude":42.000462,"population":506,"stateCapital":false,"nationalCapital":false,"pk":null,"quiz":"asia","code":null,"archived":false,"percentageOfSessions":null}, {"name":"Верхнеастахов","state":"Rostov","territory":"","country":"Russia","latitude":49.1800656,"longitude":41.5265902,"population":6,"stateCapital":false,"nationalCapital":false,"pk":null,"quiz":"asia","code":null,"archived":false,"percentageOfSessions":null}, {"name":"Верхневодяной","state":"Rostov","territory":"","country":"Russia","latitude":46.611004,"longitude":42.896858,"population":96,"stateCapital":false,"nationalCapital":false,"pk":null,"quiz":"asia","code":null,"archived":false,"percentageOfSessions":null}, {"name":"Верхнеговейный","state":"Rostov","territory":"","country":"Russia","latitude":48.218822,"longitude":40.266163,"population":63,"stateCapital":false,"nationalCapital":false,"pk":null,"quiz":"asia","code":null,"archived":false,"percentageOfSessions":null}, {"name":"Верхнегреково","state":"Rostov","territory":"","country":"Russia","latitude":49.147121,"longitude":41.374546,"population":400,"stateCapital":false,"nationalCapital":false,"pk":null,"quiz":"asia","code":null,"archived":false,"percentageOfSessions":null}, {"name":"Верхнегрушевский","state":"Rostov","territory":"","country":"Russia","latitude":47.5956734,"longitude":40.1545361,"population":1319,"stateCapital":false,"nationalCapital":false,"pk":null,"quiz":"asia","code":null,"archived":false,"percentageOfSessions":null}, {"name":"Верхнеерохин","state":"Rostov","territory":"","country":"Russia","latitude":48.563667,"longitude":40.566334,"population":151,"stateCapital":false,"nationalCapital":false,"pk":null,"quiz":"asia","code":null,"archived":false,"percentageOfSessions":null}, {"name":"Верхнезундов","state":"Rostov","territory":"","country":"Russia","latitude":46.794357,"longitude":42.245773,"population":125,"stateCapital":false,"nationalCapital":false,"pk":null,"quiz":"asia","code":null,"archived":false,"percentageOfSessions":null}, {"name":"Верхнекалинов","state":"Rostov","territory":"","country":"Russia","latitude":47.898205,"longitude":41.097847,"population":12,"stateCapital":false,"nationalCapital":false,"pk":null,"quiz":"asia","code":null,"archived":false,"percentageOfSessions":null}, {"name":"Верхнекалиновка","state":"Rostov","territory":"","country":"Russia","latitude":48.9938309,"longitude":40.9582405,"population":454,"stateCapital":false,"nationalCapital":false,"pk":null,"quiz":"asia","code":null,"archived":false,"percentageOfSessions":null}, {"name":"Верхнекамышинский","state":"Rostov","territory":"","country":"Russia","latitude":49.0552711,"longitude":39.8475616,"population":19,"stateCapital":false,"nationalCapital":false,"pk":null,"quiz":"asia","code":null,"archived":false,"percentageOfSessions":null}, {"name":"Верхнекольцов","state":"Rostov","territory":"","country":"Russia","latitude":48.0388441,"longitude":41.3319341,"population":506,"stateCapital":false,"nationalCapital":false,"pk":null,"quiz":"asia","code":null,"archived":false,"percentageOfSessions":null}, {"name":"Верхнекрасный","state":"Rostov","territory":"","country":"Russia","latitude":48.3641244,"longitude":40.1230393,"population":263,"stateCapital":false,"nationalCapital":false,"pk":null,"quiz":"asia","code":null,"archived":false,"percentageOfSessions":null}, {"name":"Верхнекундрюченская","state":"Rostov","territory":"","country":"Russia","latitude":47.7808682,"longitude":40.8476125,"population":1112,"stateCapital":false,"nationalCapital":false,"pk":null,"quiz":"asia","code":null,"archived":false,"percentageOfSessions":null}, {"name":"Верхнемакеевка","state":"Rostov","territory":"","country":"Russia","latitude":49.1698827,"longitude":41.0772423,"population":1220,"stateCapital":false,"nationalCapital":false,"pk":null,"quiz":"asia","code":null,"archived":false,"percentageOfSessions":null}, {"name":"Верхнеобливский","state":"Rostov","territory":"","country":"Russia","latitude":48.391853,"longitude":41.472919,"population":575,"stateCapital":false,"nationalCapital":false,"pk":null,"quiz":"asia","code":null,"archived":false,"percentageOfSessions":null}, {"name":"Верхнепетровский","state":"Rostov","territory":"","country":"Russia","latitude":48.753345,"longitude":41.570179,"population":130,"stateCapital":false,"nationalCapital":false,"pk":null,"quiz":"asia","code":null,"archived":false,"percentageOfSessions":null}, {"name":"Верхнеподпольный","state":"Rostov","territory":"","country":"Russia","latitude":47.1896295,"longitude":40.0669488,"population":1580,"stateCapital":false,"nationalCapital":false,"pk":null,"quiz":"asia","code":null,"archived":false,"percentageOfSessions":null}, {"name":"Верхнепопов","state":"Rostov","territory":"","country":"Russia","latitude":48.178261,"longitude":40.865334,"population":196,"stateCapital":false,"nationalCapital":false,"pk":null,"quiz":"asia","code":null,"archived":false,"percentageOfSessions":null}, {"name":"Верхнепотапов","state":"Rostov","territory":"","country":"Russia","latitude":47.883545,"longitude":41.049618,"population":405,"stateCapital":false,"nationalCapital":false,"pk":null,"quiz":"asia","code":null,"archived":false,"percentageOfSessions":null}, {"name":"Верхнесвечниково","state":"Rostov","territory":"","country":"Russia","latitude":48.984409,"longitude":41.572437,"population":540,"stateCapital":false,"nationalCapital":false,"pk":null,"quiz":"asia","code":null,"archived":false,"percentageOfSessions":null}, {"name":"Верхнесеребряковка","state":"Rostov","territory":"","country":"Russia","latitude":47.324993,"longitude":42.225723,"population":935,"stateCapital":false,"nationalCapital":false,"pk":null,"quiz":"asia","code":null,"archived":false,"percentageOfSessions":null}, {"name":"Верхнесоленый","state":"Rostov","territory":"","country":"Russia","latitude":47.236706,"longitude":40.814201,"population":1764,"stateCapital":false,"nationalCapital":false,"pk":null,"quiz":"asia","code":null,"archived":false,"percentageOfSessions":null}, {"name":"Верхнетавричанский","state":"Rostov","territory":"","country":"Russia","latitude":46.938343,"longitude":42.284245,"population":96,"stateCapital":false,"nationalCapital":false,"pk":null,"quiz":"asia","code":null,"archived":false,"percentageOfSessions":null}, {"name":"Верхнеталовка","state":"Rostov","territory":"","country":"Russia","latitude":48.8180193,"longitude":40.3587826,"population":492,"stateCapital":false,"nationalCapital":false,"pk":null,"quiz":"asia","code":null,"archived":false,"percentageOfSessions":null}, {"name":"Верхнетарасовский","state":"Rostov","territory":"","country":"Russia","latitude":48.780334,"longitude":40.277641,"population":365,"stateCapital":false,"nationalCapital":false,"pk":null,"quiz":"asia","code":null,"archived":false,"percentageOfSessions":null}, {"name":"Верхнетемерницкий","state":"Rostov","territory":"","country":"Russia","latitude":47.3080526,"longitude":39.7280732,"population":700,"stateCapital":false,"nationalCapital":false,"pk":null,"quiz":"asia","code":null,"archived":false,"percentageOfSessions":null}, {"name":"Верхнетокинский","state":"Rostov","territory":"","country":"Russia","latitude":49.535717,"longitude":41.699833,"population":143,"stateCapital":false,"nationalCapital":false,"pk":null,"quiz":"asia","code":null,"archived":false,"percentageOfSessions":null}, {"name":"Верхнечирский","state":"Rostov","territory":"","country":"Russia","latitude":49.4096641,"longitude":41.3160619,"population":427,"stateCapital":false,"nationalCapital":false,"pk":null,"quiz":"asia","code":null,"archived":false,"percentageOfSessions":null}, {"name":"Верхнеширокинский","state":"Rostov","territory":"","country":"Russia","latitude":47.57621,"longitude":38.705448,"population":44,"stateCapital":false,"nationalCapital":false,"pk":null,"quiz":"asia","code":null,"archived":false,"percentageOfSessions":null}, {"name":"Верхнеянинский","state":"Rostov","territory":"","country":"Russia","latitude":46.592091,"longitude":41.521526,"population":72,"stateCapital":false,"nationalCapital":false,"pk":null,"quiz":"asia","code":null,"archived":false,"percentageOfSessions":null}, {"name":"Верхнеянченков","state":"Rostov","territory":"","country":"Russia","latitude":47.3207253,"longitude":40.5388239,"population":408,"stateCapital":false,"nationalCapital":false,"pk":null,"quiz":"asia","code":null,"archived":false,"percentageOfSessions":null}, {"name":"Верхнеясиновский","state":"Rostov","territory":"","country":"Russia","latitude":48.220444,"longitude":40.548634,"population":346,"stateCapital":false,"nationalCapital":false,"pk":null,"quiz":"asia","code":null,"archived":false,"percentageOfSessions":null}, {"name":"Верхние Грачики","state":"Rostov","territory":"","country":"Russia","latitude":48.4995246,"longitude":39.9908047,"population":313,"stateCapital":false,"nationalCapital":false,"pk":null,"quiz":"asia","code":null,"archived":false,"percentageOfSessions":null}, {"name":"Верхние Грачики","state":"Rostov","territory":"","country":"Russia","latitude":48.5547689,"longitude":39.9677631,"population":77,"stateCapital":false,"nationalCapital":false,"pk":null,"quiz":"asia","code":null,"archived":false,"percentageOfSessions":null}, {"name":"Верхние Хороли","state":"Rostov","territory":"","country":"Russia","latitude":47.0004214,"longitude":40.4737887,"population":203,"stateCapital":false,"nationalCapital":false,"pk":null,"quiz":"asia","code":null,"archived":false,"percentageOfSessions":null}, {"name":"Верхний Жиров","state":"Rostov","territory":"","country":"Russia","latitude":47.404194,"longitude":42.577148,"population":73,"stateCapital":false,"nationalCapital":false,"pk":null,"quiz":"asia","code":null,"archived":false,"percentageOfSessions":null}, {"name":"Верхний Митякин","state":"Rostov","territory":"","country":"Russia","latitude":48.7549574,"longitude":40.090961,"population":818,"stateCapital":false,"nationalCapital":false,"pk":null,"quiz":"asia","code":null,"archived":false,"percentageOfSessions":null}, {"name":"Верхний Пиховкин","state":"Rostov","territory":"","country":"Russia","latitude":48.5581612,"longitude":40.3288324,"population":887,"stateCapital":false,"nationalCapital":false,"pk":null,"quiz":"asia","code":null,"archived":false,"percentageOfSessions":null}, {"name":"Верхний Хомутец","state":"Rostov","territory":"","country":"Russia","latitude":46.979374,"longitude":40.753227,"population":283,"stateCapital":false,"nationalCapital":false,"pk":null,"quiz":"asia","code":null,"archived":false,"percentageOfSessions":null}, {"name":"Верхняковский","state":"Rostov","territory":"","country":"Russia","latitude":49.575939,"longitude":40.825623,"population":990,"stateCapital":false,"nationalCapital":false,"pk":null,"quiz":"asia","code":null,"archived":false,"percentageOfSessions":null}, {"name":"Верхняя Кадамовка","state":"Rostov","territory":"","country":"Russia","latitude":47.84166,"longitude":40.446159,"population":291,"stateCapital":false,"nationalCapital":false,"pk":null,"quiz":"asia","code":null,"archived":false,"percentageOfSessions":null}, {"name":"Верхняя Ковалёвка","state":"Rostov","territory":"","country":"Russia","latitude":48.0845,"longitude":39.9257,"population":156,"stateCapital":false,"nationalCapital":false,"pk":null,"quiz":"asia","code":null,"archived":false,"percentageOfSessions":null}, {"name":"Верхоломов","state":"Rostov","territory":"","country":"Russia","latitude":47.367764,"longitude":42.406322,"population":435,"stateCapital":false,"nationalCapital":false,"pk":null,"quiz":"asia","code":null,"archived":false,"percentageOfSessions":null}, {"name":"Вершинный","state":"Rostov","territory":"","country":"Russia","latitude":47.484642,"longitude":41.009689,"population":1204,"stateCapital":false,"nationalCapital":false,"pk":null,"quiz":"asia","code":null,"archived":false,"percentageOfSessions":null}, {"name":"Веселая Бахмутовка","state":"Rostov","territory":"","country":"Russia","latitude":47.73436,"longitude":40.464088,"population":185,"stateCapital":false,"nationalCapital":false,"pk":null,"quiz":"asia","code":null,"archived":false,"percentageOfSessions":null}, {"name":"Веселовка","state":"Rostov","territory":"","country":"Russia","latitude":48.349213,"longitude":41.867352,"population":375,"stateCapital":false,"nationalCapital":false,"pk":null,"quiz":"asia","code":null,"archived":false,"percentageOfSessions":null}, {"name":"Весело-Вознесенка","state":"Rostov","territory":"","country":"Russia","latitude":47.145697,"longitude":38.3429734,"population":2000,"stateCapital":false,"nationalCapital":false,"pk":null,"quiz":"asia","code":null,"archived":false,"percentageOfSessions":null}, {"name":"Веселовский","state":"Rostov","territory":"","country":"Russia","latitude":49.218769,"longitude":40.591312,"population":115,"stateCapital":false,"nationalCapital":false,"pk":null,"quiz":"asia","code":null,"archived":false,"percentageOfSessions":null}, {"name":"Веселый","state":"Rostov","territory":"","country":"Russia","latitude":47.458549,"longitude":39.994804,"population":293,"stateCapital":false,"nationalCapital":false,"pk":null,"quiz":"asia","code":null,"archived":false,"percentageOfSessions":null}, {"name":"Веселый","state":"Rostov","territory":"","country":"Russia","latitude":47.0855153,"longitude":40.7458265,"population":9175,"stateCapital":false,"nationalCapital":false,"pk":null,"quiz":"asia","code":null,"archived":false,"percentageOfSessions":null}, {"name":"Веселый","state":"Rostov","territory":"","country":"Russia","latitude":47.386215,"longitude":42.849758,"population":730,"stateCapital":false,"nationalCapital":false,"pk":null,"quiz":"asia","code":null,"archived":false,"percentageOfSessions":null}, {"name":"Веселый","state":"Rostov","territory":"","country":"Russia","latitude":47.287945,"longitude":42.066936,"population":307,"stateCapital":false,"nationalCapital":false,"pk":null,"quiz":"asia","code":null,"archived":false,"percentageOfSessions":null}, {"name":"Веселый","state":"Rostov","territory":"","country":"Russia","latitude":47.332409,"longitude":39.306496,"population":1531,"stateCapital":false,"nationalCapital":false,"pk":null,"quiz":"asia","code":null,"archived":false,"percentageOfSessions":null}, {"name":"Веселый","state":"Rostov","territory":"","country":"Russia","latitude":47.1706822,"longitude":38.7476908,"population":962,"stateCapital":false,"nationalCapital":false,"pk":null,"quiz":"asia","code":null,"archived":false,"percentageOfSessions":null}, {"name":"Веселый","state":"Rostov","territory":"","country":"Russia","latitude":47.725643,"longitude":40.081787,"population":95,"stateCapital":false,"nationalCapital":false,"pk":null,"quiz":"asia","code":null,"archived":false,"percentageOfSessions":null}, {"name":"Веселый","state":"Rostov","territory":"","country":"Russia","latitude":46.708866,"longitude":42.1852,"population":362,"stateCapital":false,"nationalCapital":false,"pk":null,"quiz":"asia","code":null,"archived":false,"percentageOfSessions":null}, {"name":"Веселый","state":"Rostov","territory":"","country":"Russia","latitude":46.521168,"longitude":43.261547,"population":101,"stateCapital":false,"nationalCapital":false,"pk":null,"quiz":"asia","code":null,"archived":false,"percentageOfSessions":null}, {"name":"Веселый","state":"Rostov","territory":"","country":"Russia","latitude":47.5944905,"longitude":39.639694,"population":881,"stateCapital":false,"nationalCapital":false,"pk":null,"quiz":"asia","code":null,"archived":false,"percentageOfSessions":null}, {"name":"Веселый","state":"Rostov","territory":"","country":"Russia","latitude":46.483707,"longitude":40.977028,"population":78,"stateCapital":false,"nationalCapital":false,"pk":null,"quiz":"asia","code":null,"archived":false,"percentageOfSessions":null}, {"name":"Веселый Гай","state":"Rostov","territory":"","country":"Russia","latitude":47.341488,"longitude":42.301167,"population":158,"stateCapital":false,"nationalCapital":false,"pk":null,"quiz":"asia","code":null,"archived":false,"percentageOfSessions":null}, {"name":"Весенний","state":"Rostov","territory":"","country":"Russia","latitude":48.747257,"longitude":40.205475,"population":486,"stateCapital":false,"nationalCapital":false,"pk":null,"quiz":"asia","code":null,"archived":false,"percentageOfSessions":null}, {"name":"Вешенская","state":"Rostov","territory":"","country":"Russia","latitude":49.628994,"longitude":41.725105,"population":9261,"stateCapital":false,"nationalCapital":false,"pk":null,"quiz":"asia","code":null,"archived":false,"percentageOfSessions":null}, {"name":"Виноградный","state":"Rostov","territory":"","country":"Russia","latitude":48.0082458,"longitude":40.915894,"population":721,"stateCapital":false,"nationalCapital":false,"pk":null,"quiz":"asia","code":null,"archived":false,"percentageOfSessions":null}, {"name":"Виноградный","state":"Rostov","territory":"","country":"Russia","latitude":47.425179,"longitude":41.714615,"population":942,"stateCapital":false,"nationalCapital":false,"pk":null,"quiz":"asia","code":null,"archived":false,"percentageOfSessions":null}, {"name":"Виноградный","state":"Rostov","territory":"","country":"Russia","latitude":47.653972,"longitude":40.7195516,"population":308,"stateCapital":false,"nationalCapital":false,"pk":null,"quiz":"asia","code":null,"archived":false,"percentageOfSessions":null}, {"name":"Виноградовский","state":"Rostov","territory":"","country":"Russia","latitude":49.3564049,"longitude":40.4954638,"population":77,"stateCapital":false,"nationalCapital":false,"pk":null,"quiz":"asia","code":null,"archived":false,"percentageOfSessions":null}, {"name":"Вислогузов","state":"Rostov","territory":"","country":"Russia","latitude":49.311878,"longitude":41.754704,"population":69,"stateCapital":false,"nationalCapital":false,"pk":null,"quiz":"asia","code":null,"archived":false,"percentageOfSessions":null}, {"name":"Вислый","state":"Rostov","territory":"","country":"Russia","latitude":47.498291,"longitude":41.14098,"population":2321,"stateCapital":false,"nationalCapital":false,"pk":null,"quiz":"asia","code":null,"archived":false,"percentageOfSessions":null}, {"name":"Вифлянцев","state":"Rostov","territory":"","country":"Russia","latitude":47.89621,"longitude":41.505337,"population":272,"stateCapital":false,"nationalCapital":false,"pk":null,"quiz":"asia","code":null,"archived":false,"percentageOfSessions":null}, {"name":"Вишневецкий","state":"Rostov","territory":"","country":"Russia","latitude":48.3755685,"longitude":40.0823771,"population":507,"stateCapital":false,"nationalCapital":false,"pk":null,"quiz":"asia","code":null,"archived":false,"percentageOfSessions":null}, {"name":"Вишневка","state":"Rostov","territory":"","country":"Russia","latitude":46.60445,"longitude":40.361858,"population":187,"stateCapital":false,"nationalCapital":false,"pk":null,"quiz":"asia","code":null,"archived":false,"percentageOfSessions":null}, {"name":"Вишневка","state":"Rostov","territory":"","country":"Russia","latitude":48.909168,"longitude":41.324924,"population":218,"stateCapital":false,"nationalCapital":false,"pk":null,"quiz":"asia","code":null,"archived":false,"percentageOfSessions":null}, {"name":"Вишневка","state":"Rostov","territory":"","country":"Russia","latitude":48.909168,"longitude":41.324924,"population":407,"stateCapital":false,"nationalCapital":false,"pk":null,"quiz":"asia","code":null,"archived":false,"percentageOfSessions":null}, {"name":"Вишневка","state":"Rostov","territory":"","country":"Russia","latitude":48.210865,"longitude":41.73167,"population":444,"stateCapital":false,"nationalCapital":false,"pk":null,"quiz":"asia","code":null,"archived":false,"percentageOfSessions":null}, {"name":"Вишневка","state":"Rostov","territory":"","country":"Russia","latitude":47.666451,"longitude":39.57711,"population":1,"stateCapital":false,"nationalCapital":false,"pk":null,"quiz":"asia","code":null,"archived":false,"percentageOfSessions":null}, {"name":"Вишнянский","state":"Rostov","territory":"","country":"Russia","latitude":47.637177,"longitude":38.681004,"population":17,"stateCapital":false,"nationalCapital":false,"pk":null,"quiz":"asia","code":null,"archived":false,"percentageOfSessions":null}, {"name":"Владикарс","state":"Rostov","territory":"","country":"Russia","latitude":46.710274,"longitude":41.03727,"population":115,"stateCapital":false,"nationalCapital":false,"pk":null,"quiz":"asia","code":null,"archived":false,"percentageOfSessions":null}, {"name":"Владимиров","state":"Rostov","territory":"","country":"Russia","latitude":48.156918,"longitude":41.809669,"population":257,"stateCapital":false,"nationalCapital":false,"pk":null,"quiz":"asia","code":null,"archived":false,"percentageOfSessions":null}, {"name":"Владимировская","state":"Rostov","territory":"","country":"Russia","latitude":47.93515,"longitude":40.292847,"population":1108,"stateCapital":false,"nationalCapital":false,"pk":null,"quiz":"asia","code":null,"archived":false,"percentageOfSessions":null}, {"name":"Владимировский","state":"Rostov","territory":"","country":"Russia","latitude":47.064247,"longitude":42.755383,"population":126,"stateCapital":false,"nationalCapital":false,"pk":null,"quiz":"asia","code":null,"archived":false,"percentageOfSessions":null}, {"name":"Власов","state":"Rostov","territory":"","country":"Russia","latitude":48.277386,"longitude":41.621685,"population":142,"stateCapital":false,"nationalCapital":false,"pk":null,"quiz":"asia","code":null,"archived":false,"percentageOfSessions":null}, {"name":"Власовка","state":"Rostov","territory":"","country":"Russia","latitude":48.607689,"longitude":40.046768,"population":4,"stateCapital":false,"nationalCapital":false,"pk":null,"quiz":"asia","code":null,"archived":false,"percentageOfSessions":null}, {"name":"Власово-Буртовка","state":"Rostov","territory":"","country":"Russia","latitude":47.810017,"longitude":39.337246,"population":45,"stateCapital":false,"nationalCapital":false,"pk":null,"quiz":"asia","code":null,"archived":false,"percentageOfSessions":null}, {"name":"Власовский","state":"Rostov","territory":"","country":"Russia","latitude":47.221909,"longitude":42.6623,"population":69,"stateCapital":false,"nationalCapital":false,"pk":null,"quiz":"asia","code":null,"archived":false,"percentageOfSessions":null}, {"name":"Водин","state":"Rostov","territory":"","country":"Russia","latitude":48.015957,"longitude":39.99416,"population":21,"stateCapital":false,"nationalCapital":false,"pk":null,"quiz":"asia","code":null,"archived":false,"percentageOfSessions":null}, {"name":"Водино","state":"Rostov","territory":"","country":"Russia","latitude":47.367443,"longitude":39.207695,"population":142,"stateCapital":false,"nationalCapital":false,"pk":null,"quiz":"asia","code":null,"archived":false,"percentageOfSessions":null}, {"name":"Водопадный","state":"Rostov","territory":"","country":"Russia","latitude":47.3051925,"longitude":39.8244596,"population":927,"stateCapital":false,"nationalCapital":false,"pk":null,"quiz":"asia","code":null,"archived":false,"percentageOfSessions":null}, {"name":"Водянский","state":"Rostov","territory":"","country":"Russia","latitude":49.572796,"longitude":41.5382,"population":73,"stateCapital":false,"nationalCapital":false,"pk":null,"quiz":"asia","code":null,"archived":false,"percentageOfSessions":null}, {"name":"Водяный","state":"Rostov","territory":"","country":"Russia","latitude":46.635769,"longitude":40.360329,"population":138,"stateCapital":false,"nationalCapital":false,"pk":null,"quiz":"asia","code":null,"archived":false,"percentageOfSessions":null}, {"name":"Вознесенский","state":"Rostov","territory":"","country":"Russia","latitude":48.382118,"longitude":41.940632,"population":606,"stateCapital":false,"nationalCapital":false,"pk":null,"quiz":"asia","code":null,"archived":false,"percentageOfSessions":null}, {"name":"Возрожденный","state":"Rostov","territory":"","country":"Russia","latitude":47.428204,"longitude":39.75386,"population":379,"stateCapital":false,"nationalCapital":false,"pk":null,"quiz":"asia","code":null,"archived":false,"percentageOfSessions":null}, {"name":"Войково","state":"Rostov","territory":"","country":"Russia","latitude":48.7070692,"longitude":39.8505639,"population":341,"stateCapital":false,"nationalCapital":false,"pk":null,"quiz":"asia","code":null,"archived":false,"percentageOfSessions":null}, {"name":"Войнов","state":"Rostov","territory":"","country":"Russia","latitude":46.506042,"longitude":40.784168,"population":698,"stateCapital":false,"nationalCapital":false,"pk":null,"quiz":"asia","code":null,"archived":false,"percentageOfSessions":null}, {"name":"Волго-Дон","state":"Rostov","territory":"","country":"Russia","latitude":46.199696,"longitude":41.2396493,"population":12,"stateCapital":false,"nationalCapital":false,"pk":null,"quiz":"asia","code":null,"archived":false,"percentageOfSessions":null}, {"name":"Волгодонск","state":"Rostov","territory":"","country":"Russia","latitude":47.5128177,"longitude":42.1717606,"population":170841,"stateCapital":false,"nationalCapital":false,"pk":null,"quiz":"asia","code":null,"archived":false,"percentageOfSessions":null}, {"name":"Володарский","state":"Rostov","territory":"","country":"Russia","latitude":48.136681,"longitude":40.313095,"population":189,"stateCapital":false,"nationalCapital":false,"pk":null,"quiz":"asia","code":null,"archived":false,"percentageOfSessions":null}, {"name":"Волоцков","state":"Rostov","territory":"","country":"Russia","latitude":48.878723,"longitude":41.838276,"population":215,"stateCapital":false,"nationalCapital":false,"pk":null,"quiz":"asia","code":null,"archived":false,"percentageOfSessions":null}, {"name":"Волочаевский","state":"Rostov","territory":"","country":"Russia","latitude":46.54649,"longitude":42.654388,"population":832,"stateCapital":false,"nationalCapital":false,"pk":null,"quiz":"asia","code":null,"archived":false,"percentageOfSessions":null}, {"name":"Волошино","state":"Rostov","territory":"","country":"Russia","latitude":48.923241,"longitude":39.929718,"population":2512,"stateCapital":false,"nationalCapital":false,"pk":null,"quiz":"asia","code":null,"archived":false,"percentageOfSessions":null}, {"name":"Волошино","state":"Rostov","territory":"","country":"Russia","latitude":47.514008,"longitude":39.661579,"population":762,"stateCapital":false,"nationalCapital":false,"pk":null,"quiz":"asia","code":null,"archived":false,"percentageOfSessions":null}, {"name":"Волченский","state":"Rostov","territory":"","country":"Russia","latitude":48.232273,"longitude":40.123093,"population":1095,"stateCapital":false,"nationalCapital":false,"pk":null,"quiz":"asia","code":null,"archived":false,"percentageOfSessions":null}, {"name":"Вольно-Донская","state":"Rostov","territory":"","country":"Russia","latitude":48.295868,"longitude":41.61964,"population":595,"stateCapital":false,"nationalCapital":false,"pk":null,"quiz":"asia","code":null,"archived":false,"percentageOfSessions":null}, {"name":"Вольный","state":"Rostov","territory":"","country":"Russia","latitude":46.701351,"longitude":43.606441,"population":187,"stateCapital":false,"nationalCapital":false,"pk":null,"quiz":"asia","code":null,"archived":false,"percentageOfSessions":null}, {"name":"Вороново","state":"Rostov","territory":"","country":"Russia","latitude":46.481951,"longitude":40.925884,"population":1733,"stateCapital":false,"nationalCapital":false,"pk":null,"quiz":"asia","code":null,"archived":false,"percentageOfSessions":null}, {"name":"Воронцовка","state":"Rostov","territory":"","country":"Russia","latitude":46.9517669,"longitude":39.7740525,"population":884,"stateCapital":false,"nationalCapital":false,"pk":null,"quiz":"asia","code":null,"archived":false,"percentageOfSessions":null}, {"name":"Воротилов","state":"Rostov","territory":"","country":"Russia","latitude":46.897873,"longitude":43.977299,"population":262,"stateCapital":false,"nationalCapital":false,"pk":null,"quiz":"asia","code":null,"archived":false,"percentageOfSessions":null}, {"name":"Восход","state":"Rostov","territory":"","country":"Russia","latitude":47.409145,"longitude":41.849895,"population":591,"stateCapital":false,"nationalCapital":false,"pk":null,"quiz":"asia","code":null,"archived":false,"percentageOfSessions":null}, {"name":"Второй Киевский","state":"Rostov","territory":"","country":"Russia","latitude":49.059036,"longitude":41.16737,"population":445,"stateCapital":false,"nationalCapital":false,"pk":null,"quiz":"asia","code":null,"archived":false,"percentageOfSessions":null}, {"name":"Выдел","state":"Rostov","territory":"","country":"Russia","latitude":47.624516,"longitude":39.53614,"population":544,"stateCapital":false,"nationalCapital":false,"pk":null,"quiz":"asia","code":null,"archived":false,"percentageOfSessions":null}, {"name":"Выселки","state":"Rostov","territory":"","country":"Russia","latitude":47.459171,"longitude":38.377876,"population":33,"stateCapital":false,"nationalCapital":false,"pk":null,"quiz":"asia","code":null,"archived":false,"percentageOfSessions":null}, {"name":"Высокий","state":"Rostov","territory":"","country":"Russia","latitude":46.772034,"longitude":43.777348,"population":142,"stateCapital":false,"nationalCapital":false,"pk":null,"quiz":"asia","code":null,"archived":false,"percentageOfSessions":null}, {"name":"Высочино","state":"Rostov","territory":"","country":"Russia","latitude":46.999359,"longitude":39.560696,"population":737,"stateCapital":false,"nationalCapital":false,"pk":null,"quiz":"asia","code":null,"archived":false,"percentageOfSessions":null}, {"name":"Вяжа","state":"Rostov","territory":"","country":"Russia","latitude":49.264488,"longitude":41.029774,"population":688,"stateCapital":false,"nationalCapital":false,"pk":null,"quiz":"asia","code":null,"archived":false,"percentageOfSessions":null}, {"name":"Вязовка","state":"Rostov","territory":"","country":"Russia","latitude":48.423071,"longitude":39.9904922,"population":29,"stateCapital":false,"nationalCapital":false,"pk":null,"quiz":"asia","code":null,"archived":false,"percentageOfSessions":null}, {"name":"Вячеслав","state":"Rostov","territory":"","country":"Russia","latitude":48.95335,"longitude":41.802307,"population":114,"stateCapital":false,"nationalCapital":false,"pk":null,"quiz":"asia","code":null,"archived":false,"percentageOfSessions":null}, {"name":"Гавриловка","state":"Rostov","territory":"","country":"Russia","latitude":49.072182,"longitude":41.193943,"population":50,"stateCapital":false,"nationalCapital":false,"pk":null,"quiz":"asia","code":null,"archived":false,"percentageOfSessions":null}, {"name":"Гаевка","state":"Rostov","territory":"","country":"Russia","latitude":47.2723732,"longitude":38.8366102,"population":385,"stateCapital":false,"nationalCapital":false,"pk":null,"quiz":"asia","code":null,"archived":false,"percentageOfSessions":null}, {"name":"Гаевка","state":"Rostov","territory":"","country":"Russia","latitude":47.2723732,"longitude":38.8366102,"population":791,"stateCapital":false,"nationalCapital":false,"pk":null,"quiz":"asia","code":null,"archived":false,"percentageOfSessions":null}, {"name":"Гайдамачка","state":"Rostov","territory":"","country":"Russia","latitude":46.432835,"longitude":40.41061,"population":124,"stateCapital":false,"nationalCapital":false,"pk":null,"quiz":"asia","code":null,"archived":false,"percentageOfSessions":null}, {"name":"Галагановка","state":"Rostov","territory":"","country":"Russia","latitude":46.8518047,"longitude":39.6128207,"population":11,"stateCapital":false,"nationalCapital":false,"pk":null,"quiz":"asia","code":null,"archived":false,"percentageOfSessions":null}, {"name":"Галдин","state":"Rostov","territory":"","country":"Russia","latitude":49.510342,"longitude":40.078506,"population":253,"stateCapital":false,"nationalCapital":false,"pk":null,"quiz":"asia","code":null,"archived":false,"percentageOfSessions":null}, {"name":"Ганчуков","state":"Rostov","territory":"","country":"Russia","latitude":47.015385,"longitude":41.590878,"population":679,"stateCapital":false,"nationalCapital":false,"pk":null,"quiz":"asia","code":null,"archived":false,"percentageOfSessions":null}, {"name":"Гапкин","state":"Rostov","territory":"","country":"Russia","latitude":47.721035,"longitude":41.423843,"population":968,"stateCapital":false,"nationalCapital":false,"pk":null,"quiz":"asia","code":null,"archived":false,"percentageOfSessions":null}, {"name":"Гашун","state":"Rostov","territory":"","country":"Russia","latitude":47.284054,"longitude":42.59911,"population":1056,"stateCapital":false,"nationalCapital":false,"pk":null,"quiz":"asia","code":null,"archived":false,"percentageOfSessions":null}, {"name":"Гвардейский","state":"Rostov","territory":"","country":"Russia","latitude":47.584301,"longitude":38.810692,"population":253,"stateCapital":false,"nationalCapital":false,"pk":null,"quiz":"asia","code":null,"archived":false,"percentageOfSessions":null}, {"name":"Генеральское","state":"Rostov","territory":"","country":"Russia","latitude":47.473587,"longitude":39.591595,"population":802,"stateCapital":false,"nationalCapital":false,"pk":null,"quiz":"asia","code":null,"archived":false,"percentageOfSessions":null}, {"name":"Герасимовка","state":"Rostov","territory":"","country":"Russia","latitude":47.2403434,"longitude":38.7613298,"population":102,"stateCapital":false,"nationalCapital":false,"pk":null,"quiz":"asia","code":null,"archived":false,"percentageOfSessions":null}, {"name":"Гераськин","state":"Rostov","territory":"","country":"Russia","latitude":49.376339,"longitude":40.394485,"population":85,"stateCapital":false,"nationalCapital":false,"pk":null,"quiz":"asia","code":null,"archived":false,"percentageOfSessions":null}, {"name":"Гернер","state":"Rostov","territory":"","country":"Russia","latitude":49.104168,"longitude":40.161533,"population":172,"stateCapital":false,"nationalCapital":false,"pk":null,"quiz":"asia","code":null,"archived":false,"percentageOfSessions":null}, {"name":"Гетманов","state":"Rostov","territory":"","country":"Russia","latitude":49.056072,"longitude":40.279648,"population":247,"stateCapital":false,"nationalCapital":false,"pk":null,"quiz":"asia","code":null,"archived":false,"percentageOfSessions":null}, {"name":"Гигант","state":"Rostov","territory":"","country":"Russia","latitude":46.504826,"longitude":41.342434,"population":10249,"stateCapital":false,"nationalCapital":false,"pk":null,"quiz":"asia","code":null,"archived":false,"percentageOfSessions":null}, {"name":"Гирин","state":"Rostov","territory":"","country":"Russia","latitude":46.511139,"longitude":40.519512,"population":98,"stateCapital":false,"nationalCapital":false,"pk":null,"quiz":"asia","code":null,"archived":false,"percentageOfSessions":null}, {"name":"Гирино","state":"Rostov","territory":"","country":"Russia","latitude":48.689209,"longitude":41.140442,"population":28,"stateCapital":false,"nationalCapital":false,"pk":null,"quiz":"asia","code":null,"archived":false,"percentageOfSessions":null}, {"name":"Глинки","state":"Rostov","territory":"","country":"Russia","latitude":47.560074,"longitude":39.588596,"population":87,"stateCapital":false,"nationalCapital":false,"pk":null,"quiz":"asia","code":null,"archived":false,"percentageOfSessions":null}, {"name":"Глубокая Балка","state":"Rostov","territory":"","country":"Russia","latitude":46.495083,"longitude":41.356747,"population":341,"stateCapital":false,"nationalCapital":false,"pk":null,"quiz":"asia","code":null,"archived":false,"percentageOfSessions":null}, {"name":"Глубокий","state":"Rostov","territory":"","country":"Russia","latitude":47.013924,"longitude":42.793369,"population":842,"stateCapital":false,"nationalCapital":false,"pk":null,"quiz":"asia","code":null,"archived":false,"percentageOfSessions":null}, {"name":"Глубокий","state":"Rostov","territory":"","country":"Russia","latitude":48.5245462,"longitude":40.3261435,"population":9880,"stateCapital":false,"nationalCapital":false,"pk":null,"quiz":"asia","code":null,"archived":false,"percentageOfSessions":null},