{"cities":[{"name":"1062 км","state":"Volgograd","territory":"","country":"Russia","latitude":50.2166576,"longitude":46.8858646,"population":7,"stateCapital":false,"nationalCapital":false,"pk":null,"quiz":"asia","code":null,"archived":false,"percentageOfSessions":null}, {"name":"299 км","state":"Volgograd","territory":"","country":"Russia","latitude":49.2624721,"longitude":46.8420063,"population":28,"stateCapital":false,"nationalCapital":false,"pk":null,"quiz":"asia","code":null,"archived":false,"percentageOfSessions":null}, {"name":"324 км","state":"Volgograd","territory":"","country":"Russia","latitude":49.0384334,"longitude":46.8101028,"population":13,"stateCapital":false,"nationalCapital":false,"pk":null,"quiz":"asia","code":null,"archived":false,"percentageOfSessions":null}, {"name":"332 км","state":"Volgograd","territory":"","country":"Russia","latitude":48.9725772,"longitude":46.7972866,"population":28,"stateCapital":false,"nationalCapital":false,"pk":null,"quiz":"asia","code":null,"archived":false,"percentageOfSessions":null}, {"name":"Абганерово","state":"Volgograd","territory":"","country":"Russia","latitude":48.075451,"longitude":44.187897,"population":1752,"stateCapital":false,"nationalCapital":false,"pk":null,"quiz":"asia","code":null,"archived":false,"percentageOfSessions":null}, {"name":"Абганерово","state":"Volgograd","territory":"","country":"Russia","latitude":48.13612,"longitude":44.11137,"population":850,"stateCapital":false,"nationalCapital":false,"pk":null,"quiz":"asia","code":null,"archived":false,"percentageOfSessions":null}, {"name":"Абрамов","state":"Volgograd","territory":"","country":"Russia","latitude":49.9049987,"longitude":43.3099857,"population":278,"stateCapital":false,"nationalCapital":false,"pk":null,"quiz":"asia","code":null,"archived":false,"percentageOfSessions":null}, {"name":"Аброскинский","state":"Volgograd","territory":"","country":"Russia","latitude":50.9867638,"longitude":41.9069273,"population":49,"stateCapital":false,"nationalCapital":false,"pk":null,"quiz":"asia","code":null,"archived":false,"percentageOfSessions":null}, {"name":"Аверинский","state":"Volgograd","territory":"","country":"Russia","latitude":50.0829343,"longitude":42.6279481,"population":18,"stateCapital":false,"nationalCapital":false,"pk":null,"quiz":"asia","code":null,"archived":false,"percentageOfSessions":null}, {"name":"Авилов","state":"Volgograd","territory":"","country":"Russia","latitude":49.376389,"longitude":44.015301,"population":724,"stateCapital":false,"nationalCapital":false,"pk":null,"quiz":"asia","code":null,"archived":false,"percentageOfSessions":null}, {"name":"Авилово","state":"Volgograd","territory":"","country":"Russia","latitude":50.217899,"longitude":45.070164,"population":131,"stateCapital":false,"nationalCapital":false,"pk":null,"quiz":"asia","code":null,"archived":false,"percentageOfSessions":null}, {"name":"Авиловский","state":"Volgograd","territory":"","country":"Russia","latitude":50.1738641,"longitude":45.1348675,"population":2,"stateCapital":false,"nationalCapital":false,"pk":null,"quiz":"asia","code":null,"archived":false,"percentageOfSessions":null}, {"name":"Авраамовский","state":"Volgograd","territory":"","country":"Russia","latitude":50.3968374,"longitude":41.6097735,"population":148,"stateCapital":false,"nationalCapital":false,"pk":null,"quiz":"asia","code":null,"archived":false,"percentageOfSessions":null}, {"name":"Акишин","state":"Volgograd","territory":"","country":"Russia","latitude":50.777496,"longitude":42.149002,"population":182,"stateCapital":false,"nationalCapital":false,"pk":null,"quiz":"asia","code":null,"archived":false,"percentageOfSessions":null}, {"name":"Акользин","state":"Volgograd","territory":"","country":"Russia","latitude":48.199722,"longitude":42.654167,"population":3,"stateCapital":false,"nationalCapital":false,"pk":null,"quiz":"asia","code":null,"archived":false,"percentageOfSessions":null}, {"name":"Аксай","state":"Volgograd","territory":"","country":"Russia","latitude":47.957172,"longitude":43.967529,"population":1559,"stateCapital":false,"nationalCapital":false,"pk":null,"quiz":"asia","code":null,"archived":false,"percentageOfSessions":null}, {"name":"Аксенов","state":"Volgograd","territory":"","country":"Russia","latitude":51.1055379,"longitude":42.7455425,"population":3,"stateCapital":false,"nationalCapital":false,"pk":null,"quiz":"asia","code":null,"archived":false,"percentageOfSessions":null}, {"name":"Акчернский","state":"Volgograd","territory":"","country":"Russia","latitude":50.637604,"longitude":41.99818,"population":228,"stateCapital":false,"nationalCapital":false,"pk":null,"quiz":"asia","code":null,"archived":false,"percentageOfSessions":null}, {"name":"Александровка","state":"Volgograd","territory":"","country":"Russia","latitude":49.7961,"longitude":45.645,"population":562,"stateCapital":false,"nationalCapital":false,"pk":null,"quiz":"asia","code":null,"archived":false,"percentageOfSessions":null}, {"name":"Александровка","state":"Volgograd","territory":"","country":"Russia","latitude":51.031345,"longitude":44.765324,"population":1030,"stateCapital":false,"nationalCapital":false,"pk":null,"quiz":"asia","code":null,"archived":false,"percentageOfSessions":null}, {"name":"Александровка","state":"Volgograd","territory":"","country":"Russia","latitude":49.5782069,"longitude":44.3174696,"population":855,"stateCapital":false,"nationalCapital":false,"pk":null,"quiz":"asia","code":null,"archived":false,"percentageOfSessions":null}, {"name":"Александровка","state":"Volgograd","territory":"","country":"Russia","latitude":50.329433,"longitude":45.391285,"population":21,"stateCapital":false,"nationalCapital":false,"pk":null,"quiz":"asia","code":null,"archived":false,"percentageOfSessions":null}, {"name":"Александровка","state":"Volgograd","territory":"","country":"Russia","latitude":51.0675437,"longitude":43.2139681,"population":446,"stateCapital":false,"nationalCapital":false,"pk":null,"quiz":"asia","code":null,"archived":false,"percentageOfSessions":null}, {"name":"Алексеевская","state":"Volgograd","territory":"","country":"Russia","latitude":50.2909025,"longitude":42.1849358,"population":4204,"stateCapital":false,"nationalCapital":false,"pk":null,"quiz":"asia","code":null,"archived":false,"percentageOfSessions":null}, {"name":"Алексиковский","state":"Volgograd","territory":"","country":"Russia","latitude":50.948772,"longitude":42.33606,"population":1537,"stateCapital":false,"nationalCapital":false,"pk":null,"quiz":"asia","code":null,"archived":false,"percentageOfSessions":null}, {"name":"Алешкин","state":"Volgograd","territory":"","country":"Russia","latitude":48.247433,"longitude":42.651386,"population":442,"stateCapital":false,"nationalCapital":false,"pk":null,"quiz":"asia","code":null,"archived":false,"percentageOfSessions":null}, {"name":"Алешники","state":"Volgograd","territory":"","country":"Russia","latitude":50.898438,"longitude":45.169739,"population":852,"stateCapital":false,"nationalCapital":false,"pk":null,"quiz":"asia","code":null,"archived":false,"percentageOfSessions":null}, {"name":"Аликовка","state":"Volgograd","territory":"","country":"Russia","latitude":49.4947288,"longitude":44.2286063,"population":75,"stateCapital":false,"nationalCapital":false,"pk":null,"quiz":"asia","code":null,"archived":false,"percentageOfSessions":null}, {"name":"Алимов-Любимовский","state":"Volgograd","territory":"","country":"Russia","latitude":50.2665128,"longitude":42.7573894,"population":150,"stateCapital":false,"nationalCapital":false,"pk":null,"quiz":"asia","code":null,"archived":false,"percentageOfSessions":null}, {"name":"Алонцево","state":"Volgograd","territory":"","country":"Russia","latitude":50.9089971,"longitude":43.0333887,"population":213,"stateCapital":false,"nationalCapital":false,"pk":null,"quiz":"asia","code":null,"archived":false,"percentageOfSessions":null}, {"name":"Альсяпинский","state":"Volgograd","territory":"","country":"Russia","latitude":50.6850344,"longitude":42.8120554,"population":152,"stateCapital":false,"nationalCapital":false,"pk":null,"quiz":"asia","code":null,"archived":false,"percentageOfSessions":null}, {"name":"Алявы","state":"Volgograd","territory":"","country":"Russia","latitude":50.7583145,"longitude":43.7327188,"population":259,"stateCapital":false,"nationalCapital":false,"pk":null,"quiz":"asia","code":null,"archived":false,"percentageOfSessions":null}, {"name":"Амелино","state":"Volgograd","territory":"","country":"Russia","latitude":49.794632,"longitude":43.854134,"population":550,"stateCapital":false,"nationalCapital":false,"pk":null,"quiz":"asia","code":null,"archived":false,"percentageOfSessions":null}, {"name":"Амочаевский","state":"Volgograd","territory":"","country":"Russia","latitude":50.7008793,"longitude":42.4302806,"population":30,"stateCapital":false,"nationalCapital":false,"pk":null,"quiz":"asia","code":null,"archived":false,"percentageOfSessions":null}, {"name":"Андреевка","state":"Volgograd","territory":"","country":"Russia","latitude":50.979351,"longitude":44.697708,"population":427,"stateCapital":false,"nationalCapital":false,"pk":null,"quiz":"asia","code":null,"archived":false,"percentageOfSessions":null}, {"name":"Андреевский","state":"Volgograd","territory":"","country":"Russia","latitude":50.9468181,"longitude":42.6753004,"population":73,"stateCapital":false,"nationalCapital":false,"pk":null,"quiz":"asia","code":null,"archived":false,"percentageOfSessions":null}, {"name":"Андреяновка","state":"Volgograd","territory":"","country":"Russia","latitude":50.0317832,"longitude":41.7236934,"population":102,"stateCapital":false,"nationalCapital":false,"pk":null,"quiz":"asia","code":null,"archived":false,"percentageOfSessions":null}, {"name":"Андреяновский","state":"Volgograd","territory":"","country":"Russia","latitude":49.7269152,"longitude":42.2725222,"population":6,"stateCapital":false,"nationalCapital":false,"pk":null,"quiz":"asia","code":null,"archived":false,"percentageOfSessions":null}, {"name":"Андриановский","state":"Volgograd","territory":"","country":"Russia","latitude":51.1303027,"longitude":43.0505058,"population":64,"stateCapital":false,"nationalCapital":false,"pk":null,"quiz":"asia","code":null,"archived":false,"percentageOfSessions":null}, {"name":"Антиповка","state":"Volgograd","territory":"","country":"Russia","latitude":49.824955,"longitude":45.311722,"population":2905,"stateCapital":false,"nationalCapital":false,"pk":null,"quiz":"asia","code":null,"archived":false,"percentageOfSessions":null}, {"name":"Антонов","state":"Volgograd","territory":"","country":"Russia","latitude":47.983894,"longitude":43.624599,"population":1654,"stateCapital":false,"nationalCapital":false,"pk":null,"quiz":"asia","code":null,"archived":false,"percentageOfSessions":null}, {"name":"Арепьев","state":"Volgograd","territory":"","country":"Russia","latitude":50.0846536,"longitude":41.9826182,"population":56,"stateCapital":false,"nationalCapital":false,"pk":null,"quiz":"asia","code":null,"archived":false,"percentageOfSessions":null}, {"name":"Аржановская","state":"Volgograd","territory":"","country":"Russia","latitude":50.115846,"longitude":42.352564,"population":772,"stateCapital":false,"nationalCapital":false,"pk":null,"quiz":"asia","code":null,"archived":false,"percentageOfSessions":null}, {"name":"Артановский","state":"Volgograd","territory":"","country":"Russia","latitude":50.3450001,"longitude":41.9279719,"population":225,"stateCapital":false,"nationalCapital":false,"pk":null,"quiz":"asia","code":null,"archived":false,"percentageOfSessions":null}, {"name":"Арчедино-Чернушинский","state":"Volgograd","territory":"","country":"Russia","latitude":49.871796,"longitude":44.163189,"population":270,"stateCapital":false,"nationalCapital":false,"pk":null,"quiz":"asia","code":null,"archived":false,"percentageOfSessions":null}, {"name":"Арчединская","state":"Volgograd","territory":"","country":"Russia","latitude":49.8929783,"longitude":43.1152857,"population":1344,"stateCapital":false,"nationalCapital":false,"pk":null,"quiz":"asia","code":null,"archived":false,"percentageOfSessions":null}, {"name":"Арчединского Лесхоза","state":"Volgograd","territory":"","country":"Russia","latitude":49.786663,"longitude":43.467495,"population":479,"stateCapital":false,"nationalCapital":false,"pk":null,"quiz":"asia","code":null,"archived":false,"percentageOfSessions":null}, {"name":"Асеев","state":"Volgograd","territory":"","country":"Russia","latitude":48.294334,"longitude":42.355446,"population":53,"stateCapital":false,"nationalCapital":false,"pk":null,"quiz":"asia","code":null,"archived":false,"percentageOfSessions":null}, {"name":"Астахов","state":"Volgograd","territory":"","country":"Russia","latitude":50.6067793,"longitude":43.4409419,"population":37,"stateCapital":false,"nationalCapital":false,"pk":null,"quiz":"asia","code":null,"archived":false,"percentageOfSessions":null}, {"name":"Астаховский","state":"Volgograd","territory":"","country":"Russia","latitude":50.9211671,"longitude":41.6031393,"population":78,"stateCapital":false,"nationalCapital":false,"pk":null,"quiz":"asia","code":null,"archived":false,"percentageOfSessions":null}, {"name":"Атамановка","state":"Volgograd","territory":"","country":"Russia","latitude":50.16871,"longitude":44.0715278,"population":601,"stateCapital":false,"nationalCapital":false,"pk":null,"quiz":"asia","code":null,"archived":false,"percentageOfSessions":null}, {"name":"Атамановский","state":"Volgograd","territory":"","country":"Russia","latitude":50.4640505,"longitude":41.898055,"population":0,"stateCapital":false,"nationalCapital":false,"pk":null,"quiz":"asia","code":null,"archived":false,"percentageOfSessions":null}, {"name":"Атамановский","state":"Volgograd","territory":"","country":"Russia","latitude":50.396019,"longitude":43.356197,"population":18,"stateCapital":false,"nationalCapital":false,"pk":null,"quiz":"asia","code":null,"archived":false,"percentageOfSessions":null}, {"name":"Бабинкино","state":"Volgograd","territory":"","country":"Russia","latitude":51.0158099,"longitude":43.5619371,"population":214,"stateCapital":false,"nationalCapital":false,"pk":null,"quiz":"asia","code":null,"archived":false,"percentageOfSessions":null}, {"name":"Базки","state":"Volgograd","territory":"","country":"Russia","latitude":49.4300329,"longitude":42.7631087,"population":280,"stateCapital":false,"nationalCapital":false,"pk":null,"quiz":"asia","code":null,"archived":false,"percentageOfSessions":null}, {"name":"Базной","state":"Volgograd","territory":"","country":"Russia","latitude":48.196667,"longitude":42.169445,"population":109,"stateCapital":false,"nationalCapital":false,"pk":null,"quiz":"asia","code":null,"archived":false,"percentageOfSessions":null}, {"name":"Байбаев","state":"Volgograd","territory":"","country":"Russia","latitude":49.1824212,"longitude":44.0448672,"population":47,"stateCapital":false,"nationalCapital":false,"pk":null,"quiz":"asia","code":null,"archived":false,"percentageOfSessions":null}, {"name":"Баклановский","state":"Volgograd","territory":"","country":"Russia","latitude":50.8116369,"longitude":42.6327369,"population":27,"stateCapital":false,"nationalCapital":false,"pk":null,"quiz":"asia","code":null,"archived":false,"percentageOfSessions":null}, {"name":"Балтиновский","state":"Volgograd","territory":"","country":"Russia","latitude":50.8361443,"longitude":41.559222,"population":11,"stateCapital":false,"nationalCapital":false,"pk":null,"quiz":"asia","code":null,"archived":false,"percentageOfSessions":null}, {"name":"Банный","state":"Volgograd","territory":"","country":"Russia","latitude":49.927265,"longitude":43.831402,"population":68,"stateCapital":false,"nationalCapital":false,"pk":null,"quiz":"asia","code":null,"archived":false,"percentageOfSessions":null}, {"name":"Баранниково","state":"Volgograd","territory":"","country":"Russia","latitude":50.8932,"longitude":44.583233,"population":175,"stateCapital":false,"nationalCapital":false,"pk":null,"quiz":"asia","code":null,"archived":false,"percentageOfSessions":null}, {"name":"Барановка","state":"Volgograd","territory":"","country":"Russia","latitude":50.131027,"longitude":45.159782,"population":466,"stateCapital":false,"nationalCapital":false,"pk":null,"quiz":"asia","code":null,"archived":false,"percentageOfSessions":null}, {"name":"Барановка","state":"Volgograd","territory":"","country":"Russia","latitude":49.98338,"longitude":46.1665674,"population":145,"stateCapital":false,"nationalCapital":false,"pk":null,"quiz":"asia","code":null,"archived":false,"percentageOfSessions":null}, {"name":"Барбаши","state":"Volgograd","territory":"","country":"Russia","latitude":48.515899,"longitude":44.744431,"population":33,"stateCapital":false,"nationalCapital":false,"pk":null,"quiz":"asia","code":null,"archived":false,"percentageOfSessions":null}, {"name":"Барминский","state":"Volgograd","territory":"","country":"Russia","latitude":50.1644364,"longitude":42.2806874,"population":227,"stateCapital":false,"nationalCapital":false,"pk":null,"quiz":"asia","code":null,"archived":false,"percentageOfSessions":null}, {"name":"Басакин","state":"Volgograd","territory":"","country":"Russia","latitude":48.1662387,"longitude":42.281538,"population":1041,"stateCapital":false,"nationalCapital":false,"pk":null,"quiz":"asia","code":null,"archived":false,"percentageOfSessions":null}, {"name":"Бахтияровка","state":"Volgograd","territory":"","country":"Russia","latitude":48.714813,"longitude":45.137383,"population":822,"stateCapital":false,"nationalCapital":false,"pk":null,"quiz":"asia","code":null,"archived":false,"percentageOfSessions":null}, {"name":"Безречный","state":"Volgograd","territory":"","country":"Russia","latitude":50.6567804,"longitude":43.2198154,"population":81,"stateCapital":false,"nationalCapital":false,"pk":null,"quiz":"asia","code":null,"archived":false,"percentageOfSessions":null}, {"name":"Безымянка","state":"Volgograd","territory":"","country":"Russia","latitude":49.9047012,"longitude":43.2501156,"population":1718,"stateCapital":false,"nationalCapital":false,"pk":null,"quiz":"asia","code":null,"archived":false,"percentageOfSessions":null}, {"name":"Беленький","state":"Volgograd","territory":"","country":"Russia","latitude":49.7125311,"longitude":42.2840123,"population":23,"stateCapital":false,"nationalCapital":false,"pk":null,"quiz":"asia","code":null,"archived":false,"percentageOfSessions":null}, {"name":"Белоглинский","state":"Volgograd","territory":"","country":"Russia","latitude":48.3815926,"longitude":43.654555,"population":257,"stateCapital":false,"nationalCapital":false,"pk":null,"quiz":"asia","code":null,"archived":false,"percentageOfSessions":null}, {"name":"Белогорки","state":"Volgograd","territory":"","country":"Russia","latitude":49.958687,"longitude":45.184864,"population":192,"stateCapital":false,"nationalCapital":false,"pk":null,"quiz":"asia","code":null,"archived":false,"percentageOfSessions":null}, {"name":"Белогорский","state":"Volgograd","territory":"","country":"Russia","latitude":49.9081668,"longitude":41.9300102,"population":713,"stateCapital":false,"nationalCapital":false,"pk":null,"quiz":"asia","code":null,"archived":false,"percentageOfSessions":null}, {"name":"Белогорский","state":"Volgograd","territory":"","country":"Russia","latitude":50.6395177,"longitude":41.886114,"population":160,"stateCapital":false,"nationalCapital":false,"pk":null,"quiz":"asia","code":null,"archived":false,"percentageOfSessions":null}, {"name":"Белокаменка","state":"Volgograd","territory":"","country":"Russia","latitude":50.5593706,"longitude":45.8272007,"population":271,"stateCapital":false,"nationalCapital":false,"pk":null,"quiz":"asia","code":null,"archived":false,"percentageOfSessions":null}, {"name":"Белореченский","state":"Volgograd","territory":"","country":"Russia","latitude":50.9893747,"longitude":43.0364526,"population":24,"stateCapital":false,"nationalCapital":false,"pk":null,"quiz":"asia","code":null,"archived":false,"percentageOfSessions":null}, {"name":"Белужино-Колдаиров","state":"Volgograd","territory":"","country":"Russia","latitude":49.277718,"longitude":43.723957,"population":165,"stateCapital":false,"nationalCapital":false,"pk":null,"quiz":"asia","code":null,"archived":false,"percentageOfSessions":null}, {"name":"Белые Пруды","state":"Volgograd","territory":"","country":"Russia","latitude":50.5697931,"longitude":44.0373204,"population":551,"stateCapital":false,"nationalCapital":false,"pk":null,"quiz":"asia","code":null,"archived":false,"percentageOfSessions":null}, {"name":"Беляевка","state":"Volgograd","territory":"","country":"Russia","latitude":50.3041331,"longitude":46.2195112,"population":430,"stateCapital":false,"nationalCapital":false,"pk":null,"quiz":"asia","code":null,"archived":false,"percentageOfSessions":null}, {"name":"Бердия","state":"Volgograd","territory":"","country":"Russia","latitude":49.4727842,"longitude":44.2612726,"population":180,"stateCapital":false,"nationalCapital":false,"pk":null,"quiz":"asia","code":null,"archived":false,"percentageOfSessions":null}, {"name":"Бережновка","state":"Volgograd","territory":"","country":"Russia","latitude":50.256658,"longitude":45.899073,"population":1639,"stateCapital":false,"nationalCapital":false,"pk":null,"quiz":"asia","code":null,"archived":false,"percentageOfSessions":null}, {"name":"Березки","state":"Volgograd","territory":"","country":"Russia","latitude":49.6075796,"longitude":42.7397598,"population":151,"stateCapital":false,"nationalCapital":false,"pk":null,"quiz":"asia","code":null,"archived":false,"percentageOfSessions":null}, {"name":"Березняговский","state":"Volgograd","territory":"","country":"Russia","latitude":50.5832695,"longitude":41.6874862,"population":0,"stateCapital":false,"nationalCapital":false,"pk":null,"quiz":"asia","code":null,"archived":false,"percentageOfSessions":null}, {"name":"Березовка","state":"Volgograd","territory":"","country":"Russia","latitude":51.0865439,"longitude":43.9346608,"population":406,"stateCapital":false,"nationalCapital":false,"pk":null,"quiz":"asia","code":null,"archived":false,"percentageOfSessions":null}, {"name":"Березовка","state":"Volgograd","territory":"","country":"Russia","latitude":51.0865439,"longitude":43.9346608,"population":1003,"stateCapital":false,"nationalCapital":false,"pk":null,"quiz":"asia","code":null,"archived":false,"percentageOfSessions":null}, {"name":"Березовка","state":"Volgograd","territory":"","country":"Russia","latitude":50.659092,"longitude":44.508183,"population":45,"stateCapital":false,"nationalCapital":false,"pk":null,"quiz":"asia","code":null,"archived":false,"percentageOfSessions":null}, {"name":"Березовка 1-я","state":"Volgograd","territory":"","country":"Russia","latitude":50.544186,"longitude":42.620018,"population":698,"stateCapital":false,"nationalCapital":false,"pk":null,"quiz":"asia","code":null,"archived":false,"percentageOfSessions":null}, {"name":"Березовка 2-я","state":"Volgograd","territory":"","country":"Russia","latitude":50.542758,"longitude":42.5560954,"population":268,"stateCapital":false,"nationalCapital":false,"pk":null,"quiz":"asia","code":null,"archived":false,"percentageOfSessions":null}, {"name":"Березовская","state":"Volgograd","territory":"","country":"Russia","latitude":50.2686398,"longitude":43.9870214,"population":1769,"stateCapital":false,"nationalCapital":false,"pk":null,"quiz":"asia","code":null,"archived":false,"percentageOfSessions":null}, {"name":"Березовый","state":"Volgograd","territory":"","country":"Russia","latitude":50.0055683,"longitude":41.6156021,"population":0,"stateCapital":false,"nationalCapital":false,"pk":null,"quiz":"asia","code":null,"archived":false,"percentageOfSessions":null}, {"name":"Береславка","state":"Volgograd","territory":"","country":"Russia","latitude":48.6193348,"longitude":44.0556423,"population":4616,"stateCapital":false,"nationalCapital":false,"pk":null,"quiz":"asia","code":null,"archived":false,"percentageOfSessions":null}, {"name":"Бесов","state":"Volgograd","territory":"","country":"Russia","latitude":50.643903,"longitude":43.3831395,"population":32,"stateCapital":false,"nationalCapital":false,"pk":null,"quiz":"asia","code":null,"archived":false,"percentageOfSessions":null}, {"name":"Беспаловский","state":"Volgograd","territory":"","country":"Russia","latitude":50.8779142,"longitude":41.534459,"population":528,"stateCapital":false,"nationalCapital":false,"pk":null,"quiz":"asia","code":null,"archived":false,"percentageOfSessions":null}, {"name":"Бесплемяновский","state":"Volgograd","territory":"","country":"Russia","latitude":50.7427457,"longitude":41.8669642,"population":249,"stateCapital":false,"nationalCapital":false,"pk":null,"quiz":"asia","code":null,"archived":false,"percentageOfSessions":null}, {"name":"Бирюков","state":"Volgograd","territory":"","country":"Russia","latitude":48.2075,"longitude":42.262779,"population":35,"stateCapital":false,"nationalCapital":false,"pk":null,"quiz":"asia","code":null,"archived":false,"percentageOfSessions":null}, {"name":"Благодатный","state":"Volgograd","territory":"","country":"Russia","latitude":49.978825,"longitude":43.927223,"population":50,"stateCapital":false,"nationalCapital":false,"pk":null,"quiz":"asia","code":null,"archived":false,"percentageOfSessions":null}, {"name":"Ближнемельничный","state":"Volgograd","territory":"","country":"Russia","latitude":48.437258,"longitude":43.0619585,"population":106,"stateCapital":false,"nationalCapital":false,"pk":null,"quiz":"asia","code":null,"archived":false,"percentageOfSessions":null}, {"name":"Ближнеосиновский","state":"Volgograd","territory":"","country":"Russia","latitude":48.5284277,"longitude":43.0401206,"population":639,"stateCapital":false,"nationalCapital":false,"pk":null,"quiz":"asia","code":null,"archived":false,"percentageOfSessions":null}, {"name":"Ближнеподгорский","state":"Volgograd","territory":"","country":"Russia","latitude":48.4189019,"longitude":43.0699914,"population":120,"stateCapital":false,"nationalCapital":false,"pk":null,"quiz":"asia","code":null,"archived":false,"percentageOfSessions":null}, {"name":"Ближний","state":"Volgograd","territory":"","country":"Russia","latitude":49.8622105,"longitude":42.9726729,"population":2,"stateCapital":false,"nationalCapital":false,"pk":null,"quiz":"asia","code":null,"archived":false,"percentageOfSessions":null}, {"name":"Блинковский","state":"Volgograd","territory":"","country":"Russia","latitude":49.9888391,"longitude":42.1267463,"population":37,"stateCapital":false,"nationalCapital":false,"pk":null,"quiz":"asia","code":null,"archived":false,"percentageOfSessions":null}, {"name":"Блиновский","state":"Volgograd","territory":"","country":"Russia","latitude":49.2902129,"longitude":42.2922089,"population":62,"stateCapital":false,"nationalCapital":false,"pk":null,"quiz":"asia","code":null,"archived":false,"percentageOfSessions":null}, {"name":"Бобровский 1-й","state":"Volgograd","territory":"","country":"Russia","latitude":49.594383,"longitude":42.324875,"population":190,"stateCapital":false,"nationalCapital":false,"pk":null,"quiz":"asia","code":null,"archived":false,"percentageOfSessions":null}, {"name":"Бобровский 2-й","state":"Volgograd","territory":"","country":"Russia","latitude":49.4905971,"longitude":42.7550641,"population":526,"stateCapital":false,"nationalCapital":false,"pk":null,"quiz":"asia","code":null,"archived":false,"percentageOfSessions":null}, {"name":"Бобры","state":"Volgograd","territory":"","country":"Russia","latitude":50.3205533,"longitude":44.0125477,"population":226,"stateCapital":false,"nationalCapital":false,"pk":null,"quiz":"asia","code":null,"archived":false,"percentageOfSessions":null}, {"name":"Богомазовка","state":"Volgograd","territory":"","country":"Russia","latitude":48.384136,"longitude":42.31332,"population":202,"stateCapital":false,"nationalCapital":false,"pk":null,"quiz":"asia","code":null,"archived":false,"percentageOfSessions":null}, {"name":"Бойкие Дворики","state":"Volgograd","territory":"","country":"Russia","latitude":49.214775,"longitude":44.580387,"population":103,"stateCapital":false,"nationalCapital":false,"pk":null,"quiz":"asia","code":null,"archived":false,"percentageOfSessions":null}, {"name":"Большая Глушица","state":"Volgograd","territory":"","country":"Russia","latitude":50.2406011,"longitude":43.590753,"population":105,"stateCapital":false,"nationalCapital":false,"pk":null,"quiz":"asia","code":null,"archived":false,"percentageOfSessions":null}, {"name":"Большая Донщинка","state":"Volgograd","territory":"","country":"Russia","latitude":49.1498829,"longitude":42.4388869,"population":50,"stateCapital":false,"nationalCapital":false,"pk":null,"quiz":"asia","code":null,"archived":false,"percentageOfSessions":null}, {"name":"Большая Ивановка","state":"Volgograd","territory":"","country":"Russia","latitude":49.4534,"longitude":44.334984,"population":1014,"stateCapital":false,"nationalCapital":false,"pk":null,"quiz":"asia","code":null,"archived":false,"percentageOfSessions":null}, {"name":"Большая Князевка","state":"Volgograd","territory":"","country":"Russia","latitude":51.128952,"longitude":44.756031,"population":139,"stateCapital":false,"nationalCapital":false,"pk":null,"quiz":"asia","code":null,"archived":false,"percentageOfSessions":null}, {"name":"Большая Осиновка","state":"Volgograd","territory":"","country":"Russia","latitude":49.1964715,"longitude":42.6464324,"population":226,"stateCapital":false,"nationalCapital":false,"pk":null,"quiz":"asia","code":null,"archived":false,"percentageOfSessions":null}, {"name":"Большая Таволжанка","state":"Volgograd","territory":"","country":"Russia","latitude":50.3455786,"longitude":42.4045206,"population":112,"stateCapital":false,"nationalCapital":false,"pk":null,"quiz":"asia","code":null,"archived":false,"percentageOfSessions":null}, {"name":"Большевик","state":"Volgograd","territory":"","country":"Russia","latitude":50.3199239,"longitude":42.3992282,"population":0,"stateCapital":false,"nationalCapital":false,"pk":null,"quiz":"asia","code":null,"archived":false,"percentageOfSessions":null}, {"name":"Большевик","state":"Volgograd","territory":"","country":"Russia","latitude":50.6425345,"longitude":43.7579445,"population":809,"stateCapital":false,"nationalCapital":false,"pk":null,"quiz":"asia","code":null,"archived":false,"percentageOfSessions":null}, {"name":"Большемедведевский","state":"Volgograd","territory":"","country":"Russia","latitude":50.229017,"longitude":43.1533924,"population":114,"stateCapital":false,"nationalCapital":false,"pk":null,"quiz":"asia","code":null,"archived":false,"percentageOfSessions":null}, {"name":"Большенабатовский","state":"Volgograd","territory":"","country":"Russia","latitude":48.9454604,"longitude":43.6371422,"population":76,"stateCapital":false,"nationalCapital":false,"pk":null,"quiz":"asia","code":null,"archived":false,"percentageOfSessions":null}, {"name":"Большетерновой","state":"Volgograd","territory":"","country":"Russia","latitude":48.4860204,"longitude":42.4532198,"population":576,"stateCapital":false,"nationalCapital":false,"pk":null,"quiz":"asia","code":null,"archived":false,"percentageOfSessions":null}, {"name":"Большие Пруды","state":"Volgograd","territory":"","country":"Russia","latitude":50.420277,"longitude":46.952499,"population":30,"stateCapital":false,"nationalCapital":false,"pk":null,"quiz":"asia","code":null,"archived":false,"percentageOfSessions":null}, {"name":"Большие Чапурники","state":"Volgograd","territory":"","country":"Russia","latitude":48.421906,"longitude":44.584492,"population":3228,"stateCapital":false,"nationalCapital":false,"pk":null,"quiz":"asia","code":null,"archived":false,"percentageOfSessions":null}, {"name":"Большинский","state":"Volgograd","territory":"","country":"Russia","latitude":51.042187,"longitude":42.14122,"population":80,"stateCapital":false,"nationalCapital":false,"pk":null,"quiz":"asia","code":null,"archived":false,"percentageOfSessions":null}, {"name":"Большое Судачье","state":"Volgograd","territory":"","country":"Russia","latitude":50.827431,"longitude":44.091118,"population":1080,"stateCapital":false,"nationalCapital":false,"pk":null,"quiz":"asia","code":null,"archived":false,"percentageOfSessions":null}, {"name":"Большой","state":"Volgograd","territory":"","country":"Russia","latitude":50.2188313,"longitude":43.4401296,"population":1630,"stateCapital":false,"nationalCapital":false,"pk":null,"quiz":"asia","code":null,"archived":false,"percentageOfSessions":null}, {"name":"Большой","state":"Volgograd","territory":"","country":"Russia","latitude":49.3843971,"longitude":42.3159741,"population":1322,"stateCapital":false,"nationalCapital":false,"pk":null,"quiz":"asia","code":null,"archived":false,"percentageOfSessions":null}, {"name":"Большой Бабинский","state":"Volgograd","territory":"","country":"Russia","latitude":50.3711236,"longitude":42.2577972,"population":297,"stateCapital":false,"nationalCapital":false,"pk":null,"quiz":"asia","code":null,"archived":false,"percentageOfSessions":null}, {"name":"Большой Головский","state":"Volgograd","territory":"","country":"Russia","latitude":50.5954964,"longitude":42.1893587,"population":208,"stateCapital":false,"nationalCapital":false,"pk":null,"quiz":"asia","code":null,"archived":false,"percentageOfSessions":null}, {"name":"Большой Дубовский","state":"Volgograd","territory":"","country":"Russia","latitude":50.5718032,"longitude":42.3970052,"population":53,"stateCapital":false,"nationalCapital":false,"pk":null,"quiz":"asia","code":null,"archived":false,"percentageOfSessions":null}, {"name":"Большой Лычак","state":"Volgograd","territory":"","country":"Russia","latitude":50.104885,"longitude":43.78294,"population":1012,"stateCapital":false,"nationalCapital":false,"pk":null,"quiz":"asia","code":null,"archived":false,"percentageOfSessions":null}, {"name":"Большой Морец","state":"Volgograd","territory":"","country":"Russia","latitude":50.918012,"longitude":43.8605374,"population":1438,"stateCapital":false,"nationalCapital":false,"pk":null,"quiz":"asia","code":null,"archived":false,"percentageOfSessions":null}, {"name":"Большой Орешкин","state":"Volgograd","territory":"","country":"Russia","latitude":50.1512701,"longitude":43.3820622,"population":243,"stateCapital":false,"nationalCapital":false,"pk":null,"quiz":"asia","code":null,"archived":false,"percentageOfSessions":null}, {"name":"Большой Симкин","state":"Volgograd","territory":"","country":"Russia","latitude":48.89286,"longitude":46.664357,"population":295,"stateCapital":false,"nationalCapital":false,"pk":null,"quiz":"asia","code":null,"archived":false,"percentageOfSessions":null}, {"name":"Борисов","state":"Volgograd","territory":"","country":"Russia","latitude":48.8822501,"longitude":42.9344388,"population":93,"stateCapital":false,"nationalCapital":false,"pk":null,"quiz":"asia","code":null,"archived":false,"percentageOfSessions":null}, {"name":"Борисовский","state":"Volgograd","territory":"","country":"Russia","latitude":50.4642771,"longitude":42.4833959,"population":137,"stateCapital":false,"nationalCapital":false,"pk":null,"quiz":"asia","code":null,"archived":false,"percentageOfSessions":null}, {"name":"Боровки","state":"Volgograd","territory":"","country":"Russia","latitude":49.3970717,"longitude":44.0295268,"population":127,"stateCapital":false,"nationalCapital":false,"pk":null,"quiz":"asia","code":null,"archived":false,"percentageOfSessions":null}, {"name":"Бородаевка","state":"Volgograd","territory":"","country":"Russia","latitude":50.992371,"longitude":44.487637,"population":253,"stateCapital":false,"nationalCapital":false,"pk":null,"quiz":"asia","code":null,"archived":false,"percentageOfSessions":null}, {"name":"Бородачи","state":"Volgograd","territory":"","country":"Russia","latitude":50.6546432,"longitude":44.9591231,"population":395,"stateCapital":false,"nationalCapital":false,"pk":null,"quiz":"asia","code":null,"archived":false,"percentageOfSessions":null}, {"name":"Бородино","state":"Volgograd","territory":"","country":"Russia","latitude":48.8839468,"longitude":44.1243369,"population":73,"stateCapital":false,"nationalCapital":false,"pk":null,"quiz":"asia","code":null,"archived":false,"percentageOfSessions":null}, {"name":"Бочаровский","state":"Volgograd","territory":"","country":"Russia","latitude":50.38575,"longitude":42.65591,"population":583,"stateCapital":false,"nationalCapital":false,"pk":null,"quiz":"asia","code":null,"archived":false,"percentageOfSessions":null}, {"name":"Братский","state":"Volgograd","territory":"","country":"Russia","latitude":48.4057551,"longitude":43.6270124,"population":312,"stateCapital":false,"nationalCapital":false,"pk":null,"quiz":"asia","code":null,"archived":false,"percentageOfSessions":null}, {"name":"Бригады N 2","state":"Volgograd","territory":"","country":"Russia","latitude":50.1398287,"longitude":45.8399342,"population":19,"stateCapital":false,"nationalCapital":false,"pk":null,"quiz":"asia","code":null,"archived":false,"percentageOfSessions":null}, {"name":"Бригады N 3","state":"Volgograd","territory":"","country":"Russia","latitude":50.0911259,"longitude":45.9688122,"population":96,"stateCapital":false,"nationalCapital":false,"pk":null,"quiz":"asia","code":null,"archived":false,"percentageOfSessions":null}, {"name":"Брянский","state":"Volgograd","territory":"","country":"Russia","latitude":50.6807961,"longitude":41.7588405,"population":92,"stateCapital":false,"nationalCapital":false,"pk":null,"quiz":"asia","code":null,"archived":false,"percentageOfSessions":null}, {"name":"Бубновский","state":"Volgograd","territory":"","country":"Russia","latitude":50.9699415,"longitude":41.8235089,"population":1029,"stateCapital":false,"nationalCapital":false,"pk":null,"quiz":"asia","code":null,"archived":false,"percentageOfSessions":null}, {"name":"Бугровский","state":"Volgograd","territory":"","country":"Russia","latitude":51.0299536,"longitude":41.8152031,"population":278,"stateCapital":false,"nationalCapital":false,"pk":null,"quiz":"asia","code":null,"archived":false,"percentageOfSessions":null}, {"name":"Бударка","state":"Volgograd","territory":"","country":"Russia","latitude":47.502457,"longitude":43.479816,"population":39,"stateCapital":false,"nationalCapital":false,"pk":null,"quiz":"asia","code":null,"archived":false,"percentageOfSessions":null}, {"name":"Буденновский","state":"Volgograd","territory":"","country":"Russia","latitude":50.5738455,"longitude":42.671744,"population":29,"stateCapital":false,"nationalCapital":false,"pk":null,"quiz":"asia","code":null,"archived":false,"percentageOfSessions":null}, {"name":"Буденный","state":"Volgograd","territory":"","country":"Russia","latitude":50.6968374,"longitude":43.2967756,"population":169,"stateCapital":false,"nationalCapital":false,"pk":null,"quiz":"asia","code":null,"archived":false,"percentageOfSessions":null}, {"name":"Буерак-Поповский","state":"Volgograd","territory":"","country":"Russia","latitude":49.5539764,"longitude":42.6135394,"population":499,"stateCapital":false,"nationalCapital":false,"pk":null,"quiz":"asia","code":null,"archived":false,"percentageOfSessions":null}, {"name":"Буерак-Сенюткин","state":"Volgograd","territory":"","country":"Russia","latitude":49.5557259,"longitude":42.5897955,"population":134,"stateCapital":false,"nationalCapital":false,"pk":null,"quiz":"asia","code":null,"archived":false,"percentageOfSessions":null}, {"name":"Бузиновка","state":"Volgograd","territory":"","country":"Russia","latitude":48.494255,"longitude":43.894199,"population":645,"stateCapital":false,"nationalCapital":false,"pk":null,"quiz":"asia","code":null,"archived":false,"percentageOfSessions":null}, {"name":"Букановская","state":"Volgograd","territory":"","country":"Russia","latitude":49.676331,"longitude":42.320034,"population":953,"stateCapital":false,"nationalCapital":false,"pk":null,"quiz":"asia","code":null,"archived":false,"percentageOfSessions":null}, {"name":"Букановское Заготзерно","state":"Volgograd","territory":"","country":"Russia","latitude":49.6137717,"longitude":42.2722379,"population":77,"stateCapital":false,"nationalCapital":false,"pk":null,"quiz":"asia","code":null,"archived":false,"percentageOfSessions":null}, {"name":"Булгаков","state":"Volgograd","territory":"","country":"Russia","latitude":48.4865688,"longitude":45.129809,"population":28,"stateCapital":false,"nationalCapital":false,"pk":null,"quiz":"asia","code":null,"archived":false,"percentageOfSessions":null}, {"name":"Булгаков","state":"Volgograd","territory":"","country":"Russia","latitude":48.5660889,"longitude":44.9547503,"population":11,"stateCapital":false,"nationalCapital":false,"pk":null,"quiz":"asia","code":null,"archived":false,"percentageOfSessions":null}, {"name":"Булгурино","state":"Volgograd","territory":"","country":"Russia","latitude":50.6147842,"longitude":43.8179528,"population":126,"stateCapital":false,"nationalCapital":false,"pk":null,"quiz":"asia","code":null,"archived":false,"percentageOfSessions":null}, {"name":"Булековский","state":"Volgograd","territory":"","country":"Russia","latitude":50.651451,"longitude":41.815613,"population":101,"stateCapital":false,"nationalCapital":false,"pk":null,"quiz":"asia","code":null,"archived":false,"percentageOfSessions":null}, {"name":"Бурацкий","state":"Volgograd","territory":"","country":"Russia","latitude":50.4099389,"longitude":41.9262053,"population":4,"stateCapital":false,"nationalCapital":false,"pk":null,"quiz":"asia","code":null,"archived":false,"percentageOfSessions":null}, {"name":"Бурацкий","state":"Volgograd","territory":"","country":"Russia","latitude":48.5259631,"longitude":43.1337673,"population":556,"stateCapital":false,"nationalCapital":false,"pk":null,"quiz":"asia","code":null,"archived":false,"percentageOfSessions":null}, {"name":"Бурковский","state":"Volgograd","territory":"","country":"Russia","latitude":48.705687,"longitude":44.663165,"population":866,"stateCapital":false,"nationalCapital":false,"pk":null,"quiz":"asia","code":null,"archived":false,"percentageOfSessions":null}, {"name":"Бурлук","state":"Volgograd","territory":"","country":"Russia","latitude":50.561878,"longitude":44.529797,"population":711,"stateCapital":false,"nationalCapital":false,"pk":null,"quiz":"asia","code":null,"archived":false,"percentageOfSessions":null}, {"name":"Бурнацкий","state":"Volgograd","territory":"","country":"Russia","latitude":50.4278535,"longitude":42.9523339,"population":152,"stateCapital":false,"nationalCapital":false,"pk":null,"quiz":"asia","code":null,"archived":false,"percentageOfSessions":null}, {"name":"Буров","state":"Volgograd","territory":"","country":"Russia","latitude":50.0244525,"longitude":43.5618976,"population":5,"stateCapital":false,"nationalCapital":false,"pk":null,"quiz":"asia","code":null,"archived":false,"percentageOfSessions":null}, {"name":"Бутковка","state":"Volgograd","territory":"","country":"Russia","latitude":50.421291,"longitude":45.856327,"population":44,"stateCapital":false,"nationalCapital":false,"pk":null,"quiz":"asia","code":null,"archived":false,"percentageOfSessions":null}, {"name":"Бутырка","state":"Volgograd","territory":"","country":"Russia","latitude":51.063625,"longitude":44.494877,"population":327,"stateCapital":false,"nationalCapital":false,"pk":null,"quiz":"asia","code":null,"archived":false,"percentageOfSessions":null}, {"name":"Быково","state":"Volgograd","territory":"","country":"Russia","latitude":49.7665,"longitude":45.3831,"population":7719,"stateCapital":false,"nationalCapital":false,"pk":null,"quiz":"asia","code":null,"archived":false,"percentageOfSessions":null}, {"name":"Валуевка","state":"Volgograd","territory":"","country":"Russia","latitude":50.355274,"longitude":46.419567,"population":1071,"stateCapital":false,"nationalCapital":false,"pk":null,"quiz":"asia","code":null,"archived":false,"percentageOfSessions":null}, {"name":"Валуевской Опытно-Мелиоративной Станции","state":"Volgograd","territory":"","country":"Russia","latitude":50.3783333,"longitude":46.4747222,"population":28,"stateCapital":false,"nationalCapital":false,"pk":null,"quiz":"asia","code":null,"archived":false,"percentageOfSessions":null}, {"name":"Варламов","state":"Volgograd","territory":"","country":"Russia","latitude":49.0245942,"longitude":44.3227422,"population":622,"stateCapital":false,"nationalCapital":false,"pk":null,"quiz":"asia","code":null,"archived":false,"percentageOfSessions":null}, {"name":"Варламов","state":"Volgograd","territory":"","country":"Russia","latitude":49.2156412,"longitude":42.2057138,"population":297,"stateCapital":false,"nationalCapital":false,"pk":null,"quiz":"asia","code":null,"archived":false,"percentageOfSessions":null}, {"name":"Варькино","state":"Volgograd","territory":"","country":"Russia","latitude":49.685452,"longitude":45.073494,"population":95,"stateCapital":false,"nationalCapital":false,"pk":null,"quiz":"asia","code":null,"archived":false,"percentageOfSessions":null}, {"name":"Васильевка","state":"Volgograd","territory":"","country":"Russia","latitude":48.135422,"longitude":43.819946,"population":411,"stateCapital":false,"nationalCapital":false,"pk":null,"quiz":"asia","code":null,"archived":false,"percentageOfSessions":null}, {"name":"Васильевский","state":"Volgograd","territory":"","country":"Russia","latitude":47.5146293,"longitude":42.9612534,"population":28,"stateCapital":false,"nationalCapital":false,"pk":null,"quiz":"asia","code":null,"archived":false,"percentageOfSessions":null}, {"name":"Вдовольный","state":"Volgograd","territory":"","country":"Russia","latitude":50.9104595,"longitude":41.9414174,"population":79,"stateCapital":false,"nationalCapital":false,"pk":null,"quiz":"asia","code":null,"archived":false,"percentageOfSessions":null}, {"name":"Великий Октябрь","state":"Volgograd","territory":"","country":"Russia","latitude":48.6610634,"longitude":44.731391,"population":550,"stateCapital":false,"nationalCapital":false,"pk":null,"quiz":"asia","code":null,"archived":false,"percentageOfSessions":null}, {"name":"Величкин","state":"Volgograd","territory":"","country":"Russia","latitude":50.5702609,"longitude":44.0214342,"population":184,"stateCapital":false,"nationalCapital":false,"pk":null,"quiz":"asia","code":null,"archived":false,"percentageOfSessions":null}, {"name":"Венгеловка","state":"Volgograd","territory":"","country":"Russia","latitude":49.2853531,"longitude":46.8115946,"population":536,"stateCapital":false,"nationalCapital":false,"pk":null,"quiz":"asia","code":null,"archived":false,"percentageOfSessions":null}, {"name":"Венцы","state":"Volgograd","territory":"","country":"Russia","latitude":49.180187,"longitude":43.310814,"population":119,"stateCapital":false,"nationalCapital":false,"pk":null,"quiz":"asia","code":null,"archived":false,"percentageOfSessions":null}, {"name":"Вербный","state":"Volgograd","territory":"","country":"Russia","latitude":50.2844728,"longitude":46.859126,"population":205,"stateCapital":false,"nationalCapital":false,"pk":null,"quiz":"asia","code":null,"archived":false,"percentageOfSessions":null}, {"name":"Вербовский","state":"Volgograd","territory":"","country":"Russia","latitude":48.5158314,"longitude":43.5801248,"population":262,"stateCapital":false,"nationalCapital":false,"pk":null,"quiz":"asia","code":null,"archived":false,"percentageOfSessions":null}, {"name":"Вербочный","state":"Volgograd","territory":"","country":"Russia","latitude":50.7736067,"longitude":42.5532315,"population":53,"stateCapital":false,"nationalCapital":false,"pk":null,"quiz":"asia","code":null,"archived":false,"percentageOfSessions":null}, {"name":"Вертячий","state":"Volgograd","territory":"","country":"Russia","latitude":48.9445152,"longitude":43.910677,"population":1317,"stateCapital":false,"nationalCapital":false,"pk":null,"quiz":"asia","code":null,"archived":false,"percentageOfSessions":null}, {"name":"Верхнеаксеновский","state":"Volgograd","territory":"","country":"Russia","latitude":48.3416354,"longitude":42.6262095,"population":145,"stateCapital":false,"nationalCapital":false,"pk":null,"quiz":"asia","code":null,"archived":false,"percentageOfSessions":null}, {"name":"Верхнеантошинский","state":"Volgograd","territory":"","country":"Russia","latitude":50.768905,"longitude":41.6154155,"population":44,"stateCapital":false,"nationalCapital":false,"pk":null,"quiz":"asia","code":null,"archived":false,"percentageOfSessions":null}, {"name":"Верхнебезымянский","state":"Volgograd","territory":"","country":"Russia","latitude":50.777206,"longitude":41.689568,"population":569,"stateCapital":false,"nationalCapital":false,"pk":null,"quiz":"asia","code":null,"archived":false,"percentageOfSessions":null}, {"name":"Верхнегнутов","state":"Volgograd","territory":"","country":"Russia","latitude":48.246899,"longitude":42.247517,"population":780,"stateCapital":false,"nationalCapital":false,"pk":null,"quiz":"asia","code":null,"archived":false,"percentageOfSessions":null}, {"name":"Верхнезубриловский","state":"Volgograd","territory":"","country":"Russia","latitude":51.2112834,"longitude":42.693476,"population":13,"stateCapital":false,"nationalCapital":false,"pk":null,"quiz":"asia","code":null,"archived":false,"percentageOfSessions":null}, {"name":"Верхнекардаильский","state":"Volgograd","territory":"","country":"Russia","latitude":51.082005,"longitude":42.668671,"population":869,"stateCapital":false,"nationalCapital":false,"pk":null,"quiz":"asia","code":null,"archived":false,"percentageOfSessions":null}, {"name":"Верхнекумский","state":"Volgograd","territory":"","country":"Russia","latitude":48.089577,"longitude":43.437515,"population":190,"stateCapital":false,"nationalCapital":false,"pk":null,"quiz":"asia","code":null,"archived":false,"percentageOfSessions":null}, {"name":"Верхнеосиновский","state":"Volgograd","territory":"","country":"Russia","latitude":48.6817446,"longitude":42.7780043,"population":141,"stateCapital":false,"nationalCapital":false,"pk":null,"quiz":"asia","code":null,"archived":false,"percentageOfSessions":null}, {"name":"Верхнепогромное","state":"Volgograd","territory":"","country":"Russia","latitude":48.948166,"longitude":44.850128,"population":1963,"stateCapital":false,"nationalCapital":false,"pk":null,"quiz":"asia","code":null,"archived":false,"percentageOfSessions":null}, {"name":"Верхнереченский","state":"Volgograd","territory":"","country":"Russia","latitude":50.4725146,"longitude":41.6049476,"population":655,"stateCapital":false,"nationalCapital":false,"pk":null,"quiz":"asia","code":null,"archived":false,"percentageOfSessions":null}, {"name":"Верхнерубежный","state":"Volgograd","territory":"","country":"Russia","latitude":48.2593858,"longitude":43.1597229,"population":243,"stateCapital":false,"nationalCapital":false,"pk":null,"quiz":"asia","code":null,"archived":false,"percentageOfSessions":null}, {"name":"Верхнесоинский","state":"Volgograd","territory":"","country":"Russia","latitude":50.7155,"longitude":41.699192,"population":351,"stateCapital":false,"nationalCapital":false,"pk":null,"quiz":"asia","code":null,"archived":false,"percentageOfSessions":null}, {"name":"Верхнесолоновский","state":"Volgograd","territory":"","country":"Russia","latitude":48.374954,"longitude":42.831314,"population":770,"stateCapital":false,"nationalCapital":false,"pk":null,"quiz":"asia","code":null,"archived":false,"percentageOfSessions":null}, {"name":"Верхнецепляевский","state":"Volgograd","territory":"","country":"Russia","latitude":51.004185,"longitude":42.114395,"population":66,"stateCapital":false,"nationalCapital":false,"pk":null,"quiz":"asia","code":null,"archived":false,"percentageOfSessions":null}, {"name":"Верхнецимлянский","state":"Volgograd","territory":"","country":"Russia","latitude":48.45639,"longitude":42.558887,"population":19,"stateCapital":false,"nationalCapital":false,"pk":null,"quiz":"asia","code":null,"archived":false,"percentageOfSessions":null}, {"name":"Верхнечеренский","state":"Volgograd","territory":"","country":"Russia","latitude":49.213909,"longitude":42.670052,"population":881,"stateCapital":false,"nationalCapital":false,"pk":null,"quiz":"asia","code":null,"archived":false,"percentageOfSessions":null}, {"name":"Верхнечирский","state":"Volgograd","territory":"","country":"Russia","latitude":48.481667,"longitude":43.199722,"population":778,"stateCapital":false,"nationalCapital":false,"pk":null,"quiz":"asia","code":null,"archived":false,"percentageOfSessions":null}, {"name":"Верхнеяблочный","state":"Volgograd","territory":"","country":"Russia","latitude":47.817684,"longitude":43.192513,"population":336,"stateCapital":false,"nationalCapital":false,"pk":null,"quiz":"asia","code":null,"archived":false,"percentageOfSessions":null}, {"name":"Верхние Липки","state":"Volgograd","territory":"","country":"Russia","latitude":49.627083,"longitude":43.848179,"population":543,"stateCapital":false,"nationalCapital":false,"pk":null,"quiz":"asia","code":null,"archived":false,"percentageOfSessions":null}, {"name":"Верхний Балыклей","state":"Volgograd","territory":"","country":"Russia","latitude":49.5334878,"longitude":45.1765661,"population":1730,"stateCapital":false,"nationalCapital":false,"pk":null,"quiz":"asia","code":null,"archived":false,"percentageOfSessions":null}, {"name":"Верхний Еруслан","state":"Volgograd","territory":"","country":"Russia","latitude":50.506668,"longitude":46.518612,"population":511,"stateCapital":false,"nationalCapital":false,"pk":null,"quiz":"asia","code":null,"archived":false,"percentageOfSessions":null}, {"name":"Верхняя Бузиновка","state":"Volgograd","territory":"","country":"Russia","latitude":49.059402,"longitude":43.211964,"population":900,"stateCapital":false,"nationalCapital":false,"pk":null,"quiz":"asia","code":null,"archived":false,"percentageOfSessions":null}, {"name":"Верхняя Водянка","state":"Volgograd","territory":"","country":"Russia","latitude":50.399887,"longitude":47.10675,"population":594,"stateCapital":false,"nationalCapital":false,"pk":null,"quiz":"asia","code":null,"archived":false,"percentageOfSessions":null}, {"name":"Верхняя Грязнуха","state":"Volgograd","territory":"","country":"Russia","latitude":50.481136,"longitude":45.470367,"population":532,"stateCapital":false,"nationalCapital":false,"pk":null,"quiz":"asia","code":null,"archived":false,"percentageOfSessions":null}, {"name":"Верхняя Добринка","state":"Volgograd","territory":"","country":"Russia","latitude":50.776463,"longitude":45.052917,"population":716,"stateCapital":false,"nationalCapital":false,"pk":null,"quiz":"asia","code":null,"archived":false,"percentageOfSessions":null}, {"name":"Верхняя Добринка","state":"Volgograd","territory":"","country":"Russia","latitude":50.368282,"longitude":45.657539,"population":1261,"stateCapital":false,"nationalCapital":false,"pk":null,"quiz":"asia","code":null,"archived":false,"percentageOfSessions":null}, {"name":"Верхняя Куланинка","state":"Volgograd","territory":"","country":"Russia","latitude":50.419683,"longitude":45.697952,"population":178,"stateCapital":false,"nationalCapital":false,"pk":null,"quiz":"asia","code":null,"archived":false,"percentageOfSessions":null}, {"name":"Верхняя Липовка","state":"Volgograd","territory":"","country":"Russia","latitude":50.172352,"longitude":45.467075,"population":351,"stateCapital":false,"nationalCapital":false,"pk":null,"quiz":"asia","code":null,"archived":false,"percentageOfSessions":null}, {"name":"Веселово","state":"Volgograd","territory":"","country":"Russia","latitude":50.255058,"longitude":45.279613,"population":454,"stateCapital":false,"nationalCapital":false,"pk":null,"quiz":"asia","code":null,"archived":false,"percentageOfSessions":null}, {"name":"Веселый","state":"Volgograd","territory":"","country":"Russia","latitude":47.833717,"longitude":42.989693,"population":922,"stateCapital":false,"nationalCapital":false,"pk":null,"quiz":"asia","code":null,"archived":false,"percentageOfSessions":null}, {"name":"Веселый","state":"Volgograd","territory":"","country":"Russia","latitude":50.422871,"longitude":43.509224,"population":147,"stateCapital":false,"nationalCapital":false,"pk":null,"quiz":"asia","code":null,"archived":false,"percentageOfSessions":null}, {"name":"Веселый","state":"Volgograd","territory":"","country":"Russia","latitude":50.5044398,"longitude":42.5963043,"population":77,"stateCapital":false,"nationalCapital":false,"pk":null,"quiz":"asia","code":null,"archived":false,"percentageOfSessions":null}, {"name":"Ветютнев","state":"Volgograd","territory":"","country":"Russia","latitude":49.771969,"longitude":43.532104,"population":1186,"stateCapital":false,"nationalCapital":false,"pk":null,"quiz":"asia","code":null,"archived":false,"percentageOfSessions":null}, {"name":"Вилтов","state":"Volgograd","territory":"","country":"Russia","latitude":49.436832,"longitude":43.685329,"population":178,"stateCapital":false,"nationalCapital":false,"pk":null,"quiz":"asia","code":null,"archived":false,"percentageOfSessions":null}, {"name":"Виновка","state":"Volgograd","territory":"","country":"Russia","latitude":48.874477,"longitude":44.658749,"population":22,"stateCapital":false,"nationalCapital":false,"pk":null,"quiz":"asia","code":null,"archived":false,"percentageOfSessions":null}, {"name":"Вихляевский","state":"Volgograd","territory":"","country":"Russia","latitude":50.5146996,"longitude":42.3555158,"population":42,"stateCapital":false,"nationalCapital":false,"pk":null,"quiz":"asia","code":null,"archived":false,"percentageOfSessions":null}, {"name":"Вихлянцево","state":"Volgograd","territory":"","country":"Russia","latitude":50.0083173,"longitude":45.2993776,"population":1103,"stateCapital":false,"nationalCapital":false,"pk":null,"quiz":"asia","code":null,"archived":false,"percentageOfSessions":null}, {"name":"Вихлянцевский","state":"Volgograd","territory":"","country":"Russia","latitude":50.948425,"longitude":41.599506,"population":174,"stateCapital":false,"nationalCapital":false,"pk":null,"quiz":"asia","code":null,"archived":false,"percentageOfSessions":null}, {"name":"Вишневка","state":"Volgograd","territory":"","country":"Russia","latitude":49.4271798,"longitude":46.7708374,"population":1280,"stateCapital":false,"nationalCapital":false,"pk":null,"quiz":"asia","code":null,"archived":false,"percentageOfSessions":null}, {"name":"Вишневое","state":"Volgograd","territory":"","country":"Russia","latitude":50.7605717,"longitude":45.2592351,"population":241,"stateCapital":false,"nationalCapital":false,"pk":null,"quiz":"asia","code":null,"archived":false,"percentageOfSessions":null}, {"name":"Вишняковский","state":"Volgograd","territory":"","country":"Russia","latitude":50.9523681,"longitude":42.1057897,"population":326,"stateCapital":false,"nationalCapital":false,"pk":null,"quiz":"asia","code":null,"archived":false,"percentageOfSessions":null}, {"name":"Водино","state":"Volgograd","territory":"","country":"Russia","latitude":48.0180184,"longitude":43.9837319,"population":147,"stateCapital":false,"nationalCapital":false,"pk":null,"quiz":"asia","code":null,"archived":false,"percentageOfSessions":null}, {"name":"Воднобуерачное","state":"Volgograd","territory":"","country":"Russia","latitude":50.541077,"longitude":45.639446,"population":1071,"stateCapital":false,"nationalCapital":false,"pk":null,"quiz":"asia","code":null,"archived":false,"percentageOfSessions":null}, {"name":"Водопьяново","state":"Volgograd","territory":"","country":"Russia","latitude":51.041369,"longitude":43.871326,"population":102,"stateCapital":false,"nationalCapital":false,"pk":null,"quiz":"asia","code":null,"archived":false,"percentageOfSessions":null}, {"name":"Водяновский","state":"Volgograd","territory":"","country":"Russia","latitude":50.0090999,"longitude":42.38681,"population":0,"stateCapital":false,"nationalCapital":false,"pk":null,"quiz":"asia","code":null,"archived":false,"percentageOfSessions":null}, {"name":"Водяновский","state":"Volgograd","territory":"","country":"Russia","latitude":48.227501,"longitude":42.855412,"population":144,"stateCapital":false,"nationalCapital":false,"pk":null,"quiz":"asia","code":null,"archived":false,"percentageOfSessions":null}, {"name":"Водянский","state":"Volgograd","territory":"","country":"Russia","latitude":47.975712,"longitude":43.412758,"population":248,"stateCapital":false,"nationalCapital":false,"pk":null,"quiz":"asia","code":null,"archived":false,"percentageOfSessions":null}, {"name":"Волгоград","state":"Volgograd","territory":"","country":"Russia","latitude":48.7081906,"longitude":44.5153353,"population":1021215,"stateCapital":true,"nationalCapital":false,"pk":null,"quiz":"asia","code":null,"archived":false,"percentageOfSessions":null}, {"name":"Волгодонской","state":"Volgograd","territory":"","country":"Russia","latitude":48.6363202,"longitude":43.728324,"population":1272,"stateCapital":false,"nationalCapital":false,"pk":null,"quiz":"asia","code":null,"archived":false,"percentageOfSessions":null}, {"name":"Волжанка","state":"Volgograd","territory":"","country":"Russia","latitude":48.9804317,"longitude":44.9196677,"population":166,"stateCapital":false,"nationalCapital":false,"pk":null,"quiz":"asia","code":null,"archived":false,"percentageOfSessions":null}, {"name":"Волжский","state":"Volgograd","territory":"","country":"Russia","latitude":48.782102,"longitude":44.7779843,"population":314255,"stateCapital":false,"nationalCapital":false,"pk":null,"quiz":"asia","code":null,"archived":false,"percentageOfSessions":null}, {"name":"Волково","state":"Volgograd","territory":"","country":"Russia","latitude":50.9921615,"longitude":43.5898315,"population":287,"stateCapital":false,"nationalCapital":false,"pk":null,"quiz":"asia","code":null,"archived":false,"percentageOfSessions":null}, {"name":"Волоцкий","state":"Volgograd","territory":"","country":"Russia","latitude":48.3672934,"longitude":42.2130834,"population":521,"stateCapital":false,"nationalCapital":false,"pk":null,"quiz":"asia","code":null,"archived":false,"percentageOfSessions":null}, {"name":"Вондо","state":"Volgograd","territory":"","country":"Russia","latitude":49.0539386,"longitude":45.0134557,"population":28,"stateCapital":false,"nationalCapital":false,"pk":null,"quiz":"asia","code":null,"archived":false,"percentageOfSessions":null}, {"name":"Воробьев","state":"Volgograd","territory":"","country":"Russia","latitude":48.061455,"longitude":42.277954,"population":8,"stateCapital":false,"nationalCapital":false,"pk":null,"quiz":"asia","code":null,"archived":false,"percentageOfSessions":null}, {"name":"Восточный","state":"Volgograd","territory":"","country":"Russia","latitude":50.777126,"longitude":42.7465129,"population":76,"stateCapital":false,"nationalCapital":false,"pk":null,"quiz":"asia","code":null,"archived":false,"percentageOfSessions":null}, {"name":"Восьмое Марта","state":"Volgograd","territory":"","country":"Russia","latitude":48.706242,"longitude":45.058517,"population":257,"stateCapital":false,"nationalCapital":false,"pk":null,"quiz":"asia","code":null,"archived":false,"percentageOfSessions":null}, {"name":"Восьмое Марта","state":"Volgograd","territory":"","country":"Russia","latitude":49.0262409,"longitude":45.343923,"population":19,"stateCapital":false,"nationalCapital":false,"pk":null,"quiz":"asia","code":null,"archived":false,"percentageOfSessions":null}, {"name":"Вторая Пятилетка","state":"Volgograd","territory":"","country":"Russia","latitude":48.6625337,"longitude":44.5560704,"population":714,"stateCapital":false,"nationalCapital":false,"pk":null,"quiz":"asia","code":null,"archived":false,"percentageOfSessions":null}, {"name":"Выездинский","state":"Volgograd","territory":"","country":"Russia","latitude":49.529507,"longitude":43.466671,"population":62,"stateCapital":false,"nationalCapital":false,"pk":null,"quiz":"asia","code":null,"archived":false,"percentageOfSessions":null}, {"name":"Выпасной","state":"Volgograd","territory":"","country":"Russia","latitude":47.602261,"longitude":43.575726,"population":864,"stateCapital":false,"nationalCapital":false,"pk":null,"quiz":"asia","code":null,"archived":false,"percentageOfSessions":null}, {"name":"Вязовка","state":"Volgograd","territory":"","country":"Russia","latitude":50.88343,"longitude":43.954048,"population":2732,"stateCapital":false,"nationalCapital":false,"pk":null,"quiz":"asia","code":null,"archived":false,"percentageOfSessions":null}, {"name":"Вязовка","state":"Volgograd","territory":"","country":"Russia","latitude":48.6506404,"longitude":44.7506995,"population":167,"stateCapital":false,"nationalCapital":false,"pk":null,"quiz":"asia","code":null,"archived":false,"percentageOfSessions":null}, {"name":"Галка","state":"Volgograd","territory":"","country":"Russia","latitude":50.376217,"longitude":45.798153,"population":207,"stateCapital":false,"nationalCapital":false,"pk":null,"quiz":"asia","code":null,"archived":false,"percentageOfSessions":null}, {"name":"Галкин","state":"Volgograd","territory":"","country":"Russia","latitude":49.773157,"longitude":42.3114904,"population":91,"stateCapital":false,"nationalCapital":false,"pk":null,"quiz":"asia","code":null,"archived":false,"percentageOfSessions":null}, {"name":"Галушкинский","state":"Volgograd","territory":"","country":"Russia","latitude":50.7468105,"longitude":42.8474278,"population":867,"stateCapital":false,"nationalCapital":false,"pk":null,"quiz":"asia","code":null,"archived":false,"percentageOfSessions":null}, {"name":"Гвардейский","state":"Volgograd","territory":"","country":"Russia","latitude":49.141066,"longitude":43.0094533,"population":193,"stateCapital":false,"nationalCapital":false,"pk":null,"quiz":"asia","code":null,"archived":false,"percentageOfSessions":null}, {"name":"Генераловский","state":"Volgograd","territory":"","country":"Russia","latitude":48.004429,"longitude":43.221455,"population":1055,"stateCapital":false,"nationalCapital":false,"pk":null,"quiz":"asia","code":null,"archived":false,"percentageOfSessions":null}, {"name":"Гладков","state":"Volgograd","territory":"","country":"Russia","latitude":48.238056,"longitude":42.175835,"population":41,"stateCapital":false,"nationalCapital":false,"pk":null,"quiz":"asia","code":null,"archived":false,"percentageOfSessions":null}, {"name":"Глазуновская","state":"Volgograd","territory":"","country":"Russia","latitude":49.810753,"longitude":42.848015,"population":1290,"stateCapital":false,"nationalCapital":false,"pk":null,"quiz":"asia","code":null,"archived":false,"percentageOfSessions":null}, {"name":"Глинище","state":"Volgograd","territory":"","country":"Russia","latitude":50.095632,"longitude":43.4998819,"population":55,"stateCapital":false,"nationalCapital":false,"pk":null,"quiz":"asia","code":null,"archived":false,"percentageOfSessions":null}, {"name":"Глинковский","state":"Volgograd","territory":"","country":"Russia","latitude":51.1132552,"longitude":41.8312221,"population":30,"stateCapital":false,"nationalCapital":false,"pk":null,"quiz":"asia","code":null,"archived":false,"percentageOfSessions":null}, {"name":"Глубоковский","state":"Volgograd","territory":"","country":"Russia","latitude":49.4648122,"longitude":42.9043323,"population":2,"stateCapital":false,"nationalCapital":false,"pk":null,"quiz":"asia","code":null,"archived":false,"percentageOfSessions":null}, {"name":"Глуховский","state":"Volgograd","territory":"","country":"Russia","latitude":49.9288908,"longitude":42.0639478,"population":0,"stateCapital":false,"nationalCapital":false,"pk":null,"quiz":"asia","code":null,"archived":false,"percentageOfSessions":null}, {"name":"Глухой","state":"Volgograd","territory":"","country":"Russia","latitude":48.4762889,"longitude":45.3796575,"population":17,"stateCapital":false,"nationalCapital":false,"pk":null,"quiz":"asia","code":null,"archived":false,"percentageOfSessions":null}, {"name":"Глушица","state":"Volgograd","territory":"","country":"Russia","latitude":49.8660055,"longitude":42.5623302,"population":157,"stateCapital":false,"nationalCapital":false,"pk":null,"quiz":"asia","code":null,"archived":false,"percentageOfSessions":null}, {"name":"Гмелинка","state":"Volgograd","territory":"","country":"Russia","latitude":50.376461,"longitude":46.910717,"population":2017,"stateCapital":false,"nationalCapital":false,"pk":null,"quiz":"asia","code":null,"archived":false,"percentageOfSessions":null}, {"name":"Голенский","state":"Volgograd","territory":"","country":"Russia","latitude":49.5278225,"longitude":43.8072888,"population":1,"stateCapital":false,"nationalCapital":false,"pk":null,"quiz":"asia","code":null,"archived":false,"percentageOfSessions":null}, {"name":"Головский","state":"Volgograd","territory":"","country":"Russia","latitude":49.9244187,"longitude":42.5775601,"population":16,"stateCapital":false,"nationalCapital":false,"pk":null,"quiz":"asia","code":null,"archived":false,"percentageOfSessions":null}, {"name":"Головский","state":"Volgograd","territory":"","country":"Russia","latitude":50.5665288,"longitude":41.9910602,"population":186,"stateCapital":false,"nationalCapital":false,"pk":null,"quiz":"asia","code":null,"archived":false,"percentageOfSessions":null}, {"name":"Голубинская","state":"Volgograd","territory":"","country":"Russia","latitude":48.847557,"longitude":43.564846,"population":1221,"stateCapital":false,"nationalCapital":false,"pk":null,"quiz":"asia","code":null,"archived":false,"percentageOfSessions":null}, {"name":"Голубинский 2-й","state":"Volgograd","territory":"","country":"Russia","latitude":49.084248,"longitude":43.490658,"population":24,"stateCapital":false,"nationalCapital":false,"pk":null,"quiz":"asia","code":null,"archived":false,"percentageOfSessions":null}, {"name":"Гончаровка","state":"Volgograd","territory":"","country":"Russia","latitude":48.014492,"longitude":44.070892,"population":246,"stateCapital":false,"nationalCapital":false,"pk":null,"quiz":"asia","code":null,"archived":false,"percentageOfSessions":null}, {"name":"Гончары","state":"Volgograd","territory":"","country":"Russia","latitude":50.4537805,"longitude":43.9572213,"population":146,"stateCapital":false,"nationalCapital":false,"pk":null,"quiz":"asia","code":null,"archived":false,"percentageOfSessions":null}, {"name":"Гончары","state":"Volgograd","territory":"","country":"Russia","latitude":49.7658656,"longitude":46.5744652,"population":129,"stateCapital":false,"nationalCapital":false,"pk":null,"quiz":"asia","code":null,"archived":false,"percentageOfSessions":null}, {"name":"Горбатовский","state":"Volgograd","territory":"","country":"Russia","latitude":49.3581628,"longitude":42.0384268,"population":364,"stateCapital":false,"nationalCapital":false,"pk":null,"quiz":"asia","code":null,"archived":false,"percentageOfSessions":null}, {"name":"Гордеевский","state":"Volgograd","territory":"","country":"Russia","latitude":50.7838284,"longitude":43.1139546,"population":2,"stateCapital":false,"nationalCapital":false,"pk":null,"quiz":"asia","code":null,"archived":false,"percentageOfSessions":null}, {"name":"Гордиенки","state":"Volgograd","territory":"","country":"Russia","latitude":50.5765562,"longitude":44.6505215,"population":227,"stateCapital":false,"nationalCapital":false,"pk":null,"quiz":"asia","code":null,"archived":false,"percentageOfSessions":null}, {"name":"Гореловский","state":"Volgograd","territory":"","country":"Russia","latitude":50.4343492,"longitude":42.1675927,"population":0,"stateCapital":false,"nationalCapital":false,"pk":null,"quiz":"asia","code":null,"archived":false,"percentageOfSessions":null}, {"name":"Горин","state":"Volgograd","territory":"","country":"Russia","latitude":50.2653563,"longitude":43.8631057,"population":110,"stateCapital":false,"nationalCapital":false,"pk":null,"quiz":"asia","code":null,"archived":false,"percentageOfSessions":null}, {"name":"Гормаки","state":"Volgograd","territory":"","country":"Russia","latitude":49.65762,"longitude":46.0924365,"population":180,"stateCapital":false,"nationalCapital":false,"pk":null,"quiz":"asia","code":null,"archived":false,"percentageOfSessions":null}, {"name":"Горная Поляна","state":"Volgograd","territory":"","country":"Russia","latitude":48.49971,"longitude":45.117226,"population":80,"stateCapital":false,"nationalCapital":false,"pk":null,"quiz":"asia","code":null,"archived":false,"percentageOfSessions":null}, {"name":"Горная Пролейка","state":"Volgograd","territory":"","country":"Russia","latitude":49.381996,"longitude":44.988918,"population":1310,"stateCapital":false,"nationalCapital":false,"pk":null,"quiz":"asia","code":null,"archived":false,"percentageOfSessions":null}, {"name":"Горноводяное","state":"Volgograd","territory":"","country":"Russia","latitude":49.255024,"longitude":44.944283,"population":723,"stateCapital":false,"nationalCapital":false,"pk":null,"quiz":"asia","code":null,"archived":false,"percentageOfSessions":null}, {"name":"Горный Балыклей","state":"Volgograd","territory":"","country":"Russia","latitude":49.552963,"longitude":45.069469,"population":2656,"stateCapital":false,"nationalCapital":false,"pk":null,"quiz":"asia","code":null,"archived":false,"percentageOfSessions":null}, {"name":"Городище","state":"Volgograd","territory":"","country":"Russia","latitude":48.810127,"longitude":44.476082,"population":21381,"stateCapital":false,"nationalCapital":false,"pk":null,"quiz":"asia","code":null,"archived":false,"percentageOfSessions":null}, {"name":"Горский","state":"Volgograd","territory":"","country":"Russia","latitude":50.8054747,"longitude":41.9529429,"population":515,"stateCapital":false,"nationalCapital":false,"pk":null,"quiz":"asia","code":null,"archived":false,"percentageOfSessions":null}, {"name":"Горско-Поповский","state":"Volgograd","territory":"","country":"Russia","latitude":50.8119527,"longitude":41.9129455,"population":8,"stateCapital":false,"nationalCapital":false,"pk":null,"quiz":"asia","code":null,"archived":false,"percentageOfSessions":null}, {"name":"Госконюшня","state":"Volgograd","territory":"","country":"Russia","latitude":49.7974425,"longitude":44.4269486,"population":12,"stateCapital":false,"nationalCapital":false,"pk":null,"quiz":"asia","code":null,"archived":false,"percentageOfSessions":null}, {"name":"Гослесопитомник","state":"Volgograd","territory":"","country":"Russia","latitude":50.5832561,"longitude":42.7633694,"population":57,"stateCapital":false,"nationalCapital":false,"pk":null,"quiz":"asia","code":null,"archived":false,"percentageOfSessions":null}, {"name":"Госпитомник","state":"Volgograd","territory":"","country":"Russia","latitude":48.7060003,"longitude":44.6345948,"population":1005,"stateCapital":false,"nationalCapital":false,"pk":null,"quiz":"asia","code":null,"archived":false,"percentageOfSessions":null}, {"name":"Госплодопитомник","state":"Volgograd","territory":"","country":"Russia","latitude":51.0595296,"longitude":42.2695922,"population":3,"stateCapital":false,"nationalCapital":false,"pk":null,"quiz":"asia","code":null,"archived":false,"percentageOfSessions":null}, {"name":"Госселекстанция","state":"Volgograd","territory":"","country":"Russia","latitude":50.024448,"longitude":45.127491,"population":883,"stateCapital":false,"nationalCapital":false,"pk":null,"quiz":"asia","code":null,"archived":false,"percentageOfSessions":null}, {"name":"Грачи","state":"Volgograd","territory":"","country":"Russia","latitude":48.959789,"longitude":44.307819,"population":1029,"stateCapital":false,"nationalCapital":false,"pk":null,"quiz":"asia","code":null,"archived":false,"percentageOfSessions":null}, {"name":"Грачи","state":"Volgograd","territory":"","country":"Russia","latitude":50.899994,"longitude":42.283249,"population":376,"stateCapital":false,"nationalCapital":false,"pk":null,"quiz":"asia","code":null,"archived":false,"percentageOfSessions":null}, {"name":"Гремячая","state":"Volgograd","territory":"","country":"Russia","latitude":47.730865,"longitude":43.353924,"population":31,"stateCapital":false,"nationalCapital":false,"pk":null,"quiz":"asia","code":null,"archived":false,"percentageOfSessions":null}, {"name":"Гремячий","state":"Volgograd","territory":"","country":"Russia","latitude":49.9545956,"longitude":41.7667174,"population":0,"stateCapital":false,"nationalCapital":false,"pk":null,"quiz":"asia","code":null,"archived":false,"percentageOfSessions":null}, {"name":"Гремячий","state":"Volgograd","territory":"","country":"Russia","latitude":48.6000073,"longitude":43.33604,"population":5,"stateCapital":false,"nationalCapital":false,"pk":null,"quiz":"asia","code":null,"archived":false,"percentageOfSessions":null}, {"name":"Гречихино","state":"Volgograd","territory":"","country":"Russia","latitude":51.152542,"longitude":44.804203,"population":80,"stateCapital":false,"nationalCapital":false,"pk":null,"quiz":"asia","code":null,"archived":false,"percentageOfSessions":null}, {"name":"Григорьевский","state":"Volgograd","territory":"","country":"Russia","latitude":50.8639402,"longitude":41.67652,"population":43,"stateCapital":false,"nationalCapital":false,"pk":null,"quiz":"asia","code":null,"archived":false,"percentageOfSessions":null}, {"name":"Гришин","state":"Volgograd","territory":"","country":"Russia","latitude":50.6370548,"longitude":43.1492013,"population":916,"stateCapital":false,"nationalCapital":false,"pk":null,"quiz":"asia","code":null,"archived":false,"percentageOfSessions":null}, {"name":"Гришин","state":"Volgograd","territory":"","country":"Russia","latitude":50.494308,"longitude":43.42334,"population":11,"stateCapital":false,"nationalCapital":false,"pk":null,"quiz":"asia","code":null,"archived":false,"percentageOfSessions":null}, {"name":"Гришинский","state":"Volgograd","territory":"","country":"Russia","latitude":50.0204771,"longitude":42.474101,"population":143,"stateCapital":false,"nationalCapital":false,"pk":null,"quiz":"asia","code":null,"archived":false,"percentageOfSessions":null}, {"name":"Громки","state":"Volgograd","territory":"","country":"Russia","latitude":50.587116,"longitude":44.453964,"population":470,"stateCapital":false,"nationalCapital":false,"pk":null,"quiz":"asia","code":null,"archived":false,"percentageOfSessions":null}, {"name":"Громки","state":"Volgograd","territory":"","country":"Russia","latitude":48.4966971,"longitude":44.885609,"population":47,"stateCapital":false,"nationalCapital":false,"pk":null,"quiz":"asia","code":null,"archived":false,"percentageOfSessions":null}, {"name":"Громленовский","state":"Volgograd","territory":"","country":"Russia","latitude":50.7255747,"longitude":41.419807,"population":43,"stateCapital":false,"nationalCapital":false,"pk":null,"quiz":"asia","code":null,"archived":false,"percentageOfSessions":null}, {"name":"Громославка","state":"Volgograd","territory":"","country":"Russia","latitude":48.196953,"longitude":43.620316,"population":582,"stateCapital":false,"nationalCapital":false,"pk":null,"quiz":"asia","code":null,"archived":false,"percentageOfSessions":null}, {"name":"Грудне-Ермаки","state":"Volgograd","territory":"","country":"Russia","latitude":51.0550719,"longitude":42.7980416,"population":50,"stateCapital":false,"nationalCapital":false,"pk":null,"quiz":"asia","code":null,"archived":false,"percentageOfSessions":null}, {"name":"Грушин","state":"Volgograd","territory":"","country":"Russia","latitude":49.7016352,"longitude":42.840906,"population":120,"stateCapital":false,"nationalCapital":false,"pk":null,"quiz":"asia","code":null,"archived":false,"percentageOfSessions":null}, {"name":"Грязиновский","state":"Volgograd","territory":"","country":"Russia","latitude":49.7795089,"longitude":42.9693477,"population":38,"stateCapital":false,"nationalCapital":false,"pk":null,"quiz":"asia","code":null,"archived":false,"percentageOfSessions":null}, {"name":"Грязнуха","state":"Volgograd","territory":"","country":"Russia","latitude":50.7004054,"longitude":44.038554,"population":161,"stateCapital":false,"nationalCapital":false,"pk":null,"quiz":"asia","code":null,"archived":false,"percentageOfSessions":null}, {"name":"Грязнуха","state":"Volgograd","territory":"","country":"Russia","latitude":50.121693,"longitude":45.251278,"population":79,"stateCapital":false,"nationalCapital":false,"pk":null,"quiz":"asia","code":null,"archived":false,"percentageOfSessions":null}, {"name":"Грязнушкин","state":"Volgograd","territory":"","country":"Russia","latitude":49.4829695,"longitude":43.3312529,"population":3,"stateCapital":false,"nationalCapital":false,"pk":null,"quiz":"asia","code":null,"archived":false,"percentageOfSessions":null}, {"name":"Гуляевка","state":"Volgograd","territory":"","country":"Russia","latitude":49.789707,"longitude":43.490952,"population":574,"stateCapital":false,"nationalCapital":false,"pk":null,"quiz":"asia","code":null,"archived":false,"percentageOfSessions":null}, {"name":"Гуляевский","state":"Volgograd","territory":"","country":"Russia","latitude":50.4141259,"longitude":42.738709,"population":242,"stateCapital":false,"nationalCapital":false,"pk":null,"quiz":"asia","code":null,"archived":false,"percentageOfSessions":null}, {"name":"Гурово","state":"Volgograd","territory":"","country":"Russia","latitude":50.0666252,"longitude":44.4061879,"population":539,"stateCapital":false,"nationalCapital":false,"pk":null,"quiz":"asia","code":null,"archived":false,"percentageOfSessions":null}, {"name":"Гурово","state":"Volgograd","territory":"","country":"Russia","latitude":49.981945,"longitude":43.347713,"population":4,"stateCapital":false,"nationalCapital":false,"pk":null,"quiz":"asia","code":null,"archived":false,"percentageOfSessions":null}, {"name":"Гусевка","state":"Volgograd","territory":"","country":"Russia","latitude":49.9106823,"longitude":44.6877493,"population":1262,"stateCapital":false,"nationalCapital":false,"pk":null,"quiz":"asia","code":null,"archived":false,"percentageOfSessions":null}, {"name":"Гуселка","state":"Volgograd","territory":"","country":"Russia","latitude":50.456615,"longitude":45.156803,"population":332,"stateCapital":false,"nationalCapital":false,"pk":null,"quiz":"asia","code":null,"archived":false,"percentageOfSessions":null}, {"name":"Гусынка","state":"Volgograd","territory":"","country":"Russia","latitude":49.2253635,"longitude":42.1962457,"population":0,"stateCapital":false,"nationalCapital":false,"pk":null,"quiz":"asia","code":null,"archived":false,"percentageOfSessions":null}, {"name":"Гущинский","state":"Volgograd","territory":"","country":"Russia","latitude":50.332971,"longitude":42.0255612,"population":184,"stateCapital":false,"nationalCapital":false,"pk":null,"quiz":"asia","code":null,"archived":false,"percentageOfSessions":null}, {"name":"Давыдовка","state":"Volgograd","territory":"","country":"Russia","latitude":49.300091,"longitude":44.644127,"population":732,"stateCapital":false,"nationalCapital":false,"pk":null,"quiz":"asia","code":null,"archived":false,"percentageOfSessions":null}, {"name":"Дальнестепной","state":"Volgograd","territory":"","country":"Russia","latitude":50.5794301,"longitude":43.0908742,"population":14,"stateCapital":false,"nationalCapital":false,"pk":null,"quiz":"asia","code":null,"archived":false,"percentageOfSessions":null}, {"name":"Дальний","state":"Volgograd","territory":"","country":"Russia","latitude":48.2712832,"longitude":43.3865735,"population":156,"stateCapital":false,"nationalCapital":false,"pk":null,"quiz":"asia","code":null,"archived":false,"percentageOfSessions":null}, {"name":"Даниловка","state":"Volgograd","territory":"","country":"Russia","latitude":50.3519626,"longitude":44.1205144,"population":5317,"stateCapital":false,"nationalCapital":false,"pk":null,"quiz":"asia","code":null,"archived":false,"percentageOfSessions":null}, {"name":"Дарганов","state":"Volgograd","territory":"","country":"Russia","latitude":47.687592,"longitude":43.664238,"population":151,"stateCapital":false,"nationalCapital":false,"pk":null,"quiz":"asia","code":null,"archived":false,"percentageOfSessions":null}, {"name":"Двойновский","state":"Volgograd","territory":"","country":"Russia","latitude":51.043198,"longitude":42.455696,"population":813,"stateCapital":false,"nationalCapital":false,"pk":null,"quiz":"asia","code":null,"archived":false,"percentageOfSessions":null}, {"name":"Дворянское","state":"Volgograd","territory":"","country":"Russia","latitude":50.242847,"longitude":45.288963,"population":2086,"stateCapital":false,"nationalCapital":false,"pk":null,"quiz":"asia","code":null,"archived":false,"percentageOfSessions":null}, {"name":"Девкин","state":"Volgograd","territory":"","country":"Russia","latitude":49.7728274,"longitude":42.406558,"population":0,"stateCapital":false,"nationalCapital":false,"pk":null,"quiz":"asia","code":null,"archived":false,"percentageOfSessions":null}, {"name":"Демидов","state":"Volgograd","territory":"","country":"Russia","latitude":49.2243094,"longitude":45.3632477,"population":599,"stateCapital":false,"nationalCapital":false,"pk":null,"quiz":"asia","code":null,"archived":false,"percentageOfSessions":null}, {"name":"Деминский","state":"Volgograd","territory":"","country":"Russia","latitude":50.570879,"longitude":42.2846301,"population":839,"stateCapital":false,"nationalCapital":false,"pk":null,"quiz":"asia","code":null,"archived":false,"percentageOfSessions":null}, {"name":"Демочкин","state":"Volgograd","territory":"","country":"Russia","latitude":49.8642134,"longitude":43.03571,"population":63,"stateCapital":false,"nationalCapital":false,"pk":null,"quiz":"asia","code":null,"archived":false,"percentageOfSessions":null}, {"name":"Денисовский","state":"Volgograd","territory":"","country":"Russia","latitude":50.1956021,"longitude":41.9252323,"population":143,"stateCapital":false,"nationalCapital":false,"pk":null,"quiz":"asia","code":null,"archived":false,"percentageOfSessions":null}, {"name":"Динамо","state":"Volgograd","territory":"","country":"Russia","latitude":50.247459,"longitude":41.652393,"population":965,"stateCapital":false,"nationalCapital":false,"pk":null,"quiz":"asia","code":null,"archived":false,"percentageOfSessions":null}, {"name":"Дмитриевка","state":"Volgograd","territory":"","country":"Russia","latitude":48.7725587,"longitude":43.9162505,"population":109,"stateCapital":false,"nationalCapital":false,"pk":null,"quiz":"asia","code":null,"archived":false,"percentageOfSessions":null}, {"name":"Дмитриевка","state":"Volgograd","territory":"","country":"Russia","latitude":49.6848457,"longitude":44.31741,"population":87,"stateCapital":false,"nationalCapital":false,"pk":null,"quiz":"asia","code":null,"archived":false,"percentageOfSessions":null}, {"name":"Добринка","state":"Volgograd","territory":"","country":"Russia","latitude":50.0297874,"longitude":46.1494647,"population":6,"stateCapital":false,"nationalCapital":false,"pk":null,"quiz":"asia","code":null,"archived":false,"percentageOfSessions":null}, {"name":"Добринка","state":"Volgograd","territory":"","country":"Russia","latitude":48.8146169,"longitude":42.9756173,"population":754,"stateCapital":false,"nationalCapital":false,"pk":null,"quiz":"asia","code":null,"archived":false,"percentageOfSessions":null}, {"name":"Добринка","state":"Volgograd","territory":"","country":"Russia","latitude":50.8240674,"longitude":41.8536629,"population":1883,"stateCapital":false,"nationalCapital":false,"pk":null,"quiz":"asia","code":null,"archived":false,"percentageOfSessions":null}, {"name":"Долгий","state":"Volgograd","territory":"","country":"Russia","latitude":48.5242108,"longitude":45.1113452,"population":24,"stateCapital":false,"nationalCapital":false,"pk":null,"quiz":"asia","code":null,"archived":false,"percentageOfSessions":null}, {"name":"Долгий","state":"Volgograd","territory":"","country":"Russia","latitude":50.6402244,"longitude":42.3033104,"population":560,"stateCapital":false,"nationalCapital":false,"pk":null,"quiz":"asia","code":null,"archived":false,"percentageOfSessions":null}, {"name":"Долговский","state":"Volgograd","territory":"","country":"Russia","latitude":50.1534482,"longitude":42.589303,"population":0,"stateCapital":false,"nationalCapital":false,"pk":null,"quiz":"asia","code":null,"archived":false,"percentageOfSessions":null}, {"name":"Долговский","state":"Volgograd","territory":"","country":"Russia","latitude":49.8898118,"longitude":42.2728034,"population":0,"stateCapital":false,"nationalCapital":false,"pk":null,"quiz":"asia","code":null,"archived":false,"percentageOfSessions":null}, {"name":"Долговский","state":"Volgograd","territory":"","country":"Russia","latitude":50.632309,"longitude":41.954762,"population":274,"stateCapital":false,"nationalCapital":false,"pk":null,"quiz":"asia","code":null,"archived":false,"percentageOfSessions":null}, {"name":"Дом Отдыха","state":"Volgograd","territory":"","country":"Russia","latitude":48.657,"longitude":43.518,"population":109,"stateCapital":false,"nationalCapital":false,"pk":null,"quiz":"asia","code":null,"archived":false,"percentageOfSessions":null}, {"name":"Дом Отдыха 40 Лет Октября","state":"Volgograd","territory":"","country":"Russia","latitude":48.268918,"longitude":43.0734841,"population":10,"stateCapital":false,"nationalCapital":false,"pk":null,"quiz":"asia","code":null,"archived":false,"percentageOfSessions":null}, {"name":"Донской","state":"Volgograd","territory":"","country":"Russia","latitude":48.998905,"longitude":43.970493,"population":137,"stateCapital":false,"nationalCapital":false,"pk":null,"quiz":"asia","code":null,"archived":false,"percentageOfSessions":null}, {"name":"Донской","state":"Volgograd","territory":"","country":"Russia","latitude":48.4932958,"longitude":43.4589953,"population":612,"stateCapital":false,"nationalCapital":false,"pk":null,"quiz":"asia","code":null,"archived":false,"percentageOfSessions":null}, {"name":"Дорожкин","state":"Volgograd","territory":"","country":"Russia","latitude":50.2491751,"longitude":44.3520303,"population":11,"stateCapital":false,"nationalCapital":false,"pk":null,"quiz":"asia","code":null,"archived":false,"percentageOfSessions":null}, {"name":"Дорофеевский","state":"Volgograd","territory":"","country":"Russia","latitude":47.983044,"longitude":43.329727,"population":293,"stateCapital":false,"nationalCapital":false,"pk":null,"quiz":"asia","code":null,"archived":false,"percentageOfSessions":null}, {"name":"Дорошево","state":"Volgograd","territory":"","country":"Russia","latitude":50.5590047,"longitude":44.7355591,"population":68,"stateCapital":false,"nationalCapital":false,"pk":null,"quiz":"asia","code":null,"archived":false,"percentageOfSessions":null}, {"name":"Дробязкин","state":"Volgograd","territory":"","country":"Russia","latitude":50.3893779,"longitude":43.0517731,"population":116,"stateCapital":false,"nationalCapital":false,"pk":null,"quiz":"asia","code":null,"archived":false,"percentageOfSessions":null}, {"name":"Дружилинский","state":"Volgograd","territory":"","country":"Russia","latitude":49.355077,"longitude":43.193306,"population":2,"stateCapital":false,"nationalCapital":false,"pk":null,"quiz":"asia","code":null,"archived":false,"percentageOfSessions":null}, {"name":"Дрягловский","state":"Volgograd","territory":"","country":"Russia","latitude":50.6610088,"longitude":41.5052024,"population":12,"stateCapital":false,"nationalCapital":false,"pk":null,"quiz":"asia","code":null,"archived":false,"percentageOfSessions":null}, {"name":"Дубовка","state":"Volgograd","territory":"","country":"Russia","latitude":49.06052,"longitude":44.830776,"population":14347,"stateCapital":false,"nationalCapital":false,"pk":null,"quiz":"asia","code":null,"archived":false,"percentageOfSessions":null}, {"name":"Дубовка","state":"Volgograd","territory":"","country":"Russia","latitude":50.2348269,"longitude":45.5605478,"population":278,"stateCapital":false,"nationalCapital":false,"pk":null,"quiz":"asia","code":null,"archived":false,"percentageOfSessions":null}, {"name":"Дубовое","state":"Volgograd","territory":"","country":"Russia","latitude":50.9638912,"longitude":43.6176566,"population":819,"stateCapital":false,"nationalCapital":false,"pk":null,"quiz":"asia","code":null,"archived":false,"percentageOfSessions":null}, {"name":"Дубовое","state":"Volgograd","territory":"","country":"Russia","latitude":48.184467,"longitude":43.936893,"population":16,"stateCapital":false,"nationalCapital":false,"pk":null,"quiz":"asia","code":null,"archived":false,"percentageOfSessions":null}, {"name":"Дубовский","state":"Volgograd","territory":"","country":"Russia","latitude":49.8163601,"longitude":42.0560068,"population":23,"stateCapital":false,"nationalCapital":false,"pk":null,"quiz":"asia","code":null,"archived":false,"percentageOfSessions":null}, {"name":"Дубовский","state":"Volgograd","territory":"","country":"Russia","latitude":50.5301704,"longitude":41.9933747,"population":942,"stateCapital":false,"nationalCapital":false,"pk":null,"quiz":"asia","code":null,"archived":false,"percentageOfSessions":null}, {"name":"Дубовый Овраг","state":"Volgograd","territory":"","country":"Russia","latitude":48.3393931,"longitude":44.6171744,"population":2091,"stateCapital":false,"nationalCapital":false,"pk":null,"quiz":"asia","code":null,"archived":false,"percentageOfSessions":null}, {"name":"Дубровский","state":"Volgograd","territory":"","country":"Russia","latitude":50.7325133,"longitude":42.9131361,"population":597,"stateCapital":false,"nationalCapital":false,"pk":null,"quiz":"asia","code":null,"archived":false,"percentageOfSessions":null}, {"name":"Дубровский","state":"Volgograd","territory":"","country":"Russia","latitude":50.7752649,"longitude":41.5279373,"population":103,"stateCapital":false,"nationalCapital":false,"pk":null,"quiz":"asia","code":null,"archived":false,"percentageOfSessions":null}, {"name":"Дудаченский","state":"Volgograd","territory":"","country":"Russia","latitude":50.002159,"longitude":44.181351,"population":576,"stateCapital":false,"nationalCapital":false,"pk":null,"quiz":"asia","code":null,"archived":false,"percentageOfSessions":null}, {"name":"Дуплятский","state":"Volgograd","territory":"","country":"Russia","latitude":51.109013,"longitude":42.348091,"population":922,"stateCapital":false,"nationalCapital":false,"pk":null,"quiz":"asia","code":null,"archived":false,"percentageOfSessions":null}, {"name":"Дурновский","state":"Volgograd","territory":"","country":"Russia","latitude":50.464893,"longitude":42.407867,"population":432,"stateCapital":false,"nationalCapital":false,"pk":null,"quiz":"asia","code":null,"archived":false,"percentageOfSessions":null}, {"name":"Дьяконовский","state":"Volgograd","territory":"","country":"Russia","latitude":50.4391602,"longitude":41.8984818,"population":4,"stateCapital":false,"nationalCapital":false,"pk":null,"quiz":"asia","code":null,"archived":false,"percentageOfSessions":null}, {"name":"Дьяконовский 1-й","state":"Volgograd","territory":"","country":"Russia","latitude":50.6448109,"longitude":41.9730909,"population":451,"stateCapital":false,"nationalCapital":false,"pk":null,"quiz":"asia","code":null,"archived":false,"percentageOfSessions":null}, {"name":"Дьяконовский 2-й","state":"Volgograd","territory":"","country":"Russia","latitude":50.7605983,"longitude":42.0778893,"population":904,"stateCapital":false,"nationalCapital":false,"pk":null,"quiz":"asia","code":null,"archived":false,"percentageOfSessions":null}, {"name":"Евлампиевский","state":"Volgograd","territory":"","country":"Russia","latitude":48.9952956,"longitude":43.6284023,"population":0,"stateCapital":false,"nationalCapital":false,"pk":null,"quiz":"asia","code":null,"archived":false,"percentageOfSessions":null}, {"name":"Евстратовский","state":"Volgograd","territory":"","country":"Russia","latitude":49.1892034,"longitude":42.8789381,"population":407,"stateCapital":false,"nationalCapital":false,"pk":null,"quiz":"asia","code":null,"archived":false,"percentageOfSessions":null}, {"name":"Егоровка-на-Медведице","state":"Volgograd","territory":"","country":"Russia","latitude":50.8366075,"longitude":44.690971,"population":47,"stateCapital":false,"nationalCapital":false,"pk":null,"quiz":"asia","code":null,"archived":false,"percentageOfSessions":null}, {"name":"Егоровский","state":"Volgograd","territory":"","country":"Russia","latitude":50.8583564,"longitude":41.7539838,"population":36,"stateCapital":false,"nationalCapital":false,"pk":null,"quiz":"asia","code":null,"archived":false,"percentageOfSessions":null}, {"name":"Ежовка","state":"Volgograd","territory":"","country":"Russia","latitude":49.9888355,"longitude":41.7037273,"population":160,"stateCapital":false,"nationalCapital":false,"pk":null,"quiz":"asia","code":null,"archived":false,"percentageOfSessions":null}, {"name":"Ежовка","state":"Volgograd","territory":"","country":"Russia","latitude":50.9463472,"longitude":43.2172568,"population":824,"stateCapital":false,"nationalCapital":false,"pk":null,"quiz":"asia","code":null,"archived":false,"percentageOfSessions":null}, {"name":"Еланский","state":"Volgograd","territory":"","country":"Russia","latitude":49.5981534,"longitude":42.182768,"population":39,"stateCapital":false,"nationalCapital":false,"pk":null,"quiz":"asia","code":null,"archived":false,"percentageOfSessions":null}, {"name":"Елань","state":"Volgograd","territory":"","country":"Russia","latitude":50.946434,"longitude":43.743038,"population":14833,"stateCapital":false,"nationalCapital":false,"pk":null,"quiz":"asia","code":null,"archived":false,"percentageOfSessions":null}, {"name":"Елкино","state":"Volgograd","territory":"","country":"Russia","latitude":48.308372,"longitude":42.359615,"population":445,"stateCapital":false,"nationalCapital":false,"pk":null,"quiz":"asia","code":null,"archived":false,"percentageOfSessions":null}, {"name":"Ельшанка","state":"Volgograd","territory":"","country":"Russia","latitude":50.16452,"longitude":45.391781,"population":278,"stateCapital":false,"nationalCapital":false,"pk":null,"quiz":"asia","code":null,"archived":false,"percentageOfSessions":null}, {"name":"Ендовский","state":"Volgograd","territory":"","country":"Russia","latitude":50.3805741,"longitude":41.9919802,"population":10,"stateCapital":false,"nationalCapital":false,"pk":null,"quiz":"asia","code":null,"archived":false,"percentageOfSessions":null}, {"name":"Ендовский","state":"Volgograd","territory":"","country":"Russia","latitude":50.0909045,"longitude":42.4317039,"population":106,"stateCapital":false,"nationalCapital":false,"pk":null,"quiz":"asia","code":null,"archived":false,"percentageOfSessions":null}, {"name":"Ендовский","state":"Volgograd","territory":"","country":"Russia","latitude":49.6381066,"longitude":43.0809086,"population":167,"stateCapital":false,"nationalCapital":false,"pk":null,"quiz":"asia","code":null,"archived":false,"percentageOfSessions":null}, {"name":"Ерецкий","state":"Volgograd","territory":"","country":"Russia","latitude":49.2245871,"longitude":43.823498,"population":24,"stateCapital":false,"nationalCapital":false,"pk":null,"quiz":"asia","code":null,"archived":false,"percentageOfSessions":null}, {"name":"Ерешково","state":"Volgograd","territory":"","country":"Russia","latitude":51.1265268,"longitude":43.9577066,"population":47,"stateCapital":false,"nationalCapital":false,"pk":null,"quiz":"asia","code":null,"archived":false,"percentageOfSessions":null}, {"name":"Ерзовка","state":"Volgograd","territory":"","country":"Russia","latitude":48.93346,"longitude":44.637249,"population":6128,"stateCapital":false,"nationalCapital":false,"pk":null,"quiz":"asia","code":null,"archived":false,"percentageOfSessions":null}, {"name":"Ерик","state":"Volgograd","territory":"","country":"Russia","latitude":48.9718365,"longitude":43.0952536,"population":80,"stateCapital":false,"nationalCapital":false,"pk":null,"quiz":"asia","code":null,"archived":false,"percentageOfSessions":null}, {"name":"Ермаковский","state":"Volgograd","territory":"","country":"Russia","latitude":49.9464698,"longitude":42.2301609,"population":0,"stateCapital":false,"nationalCapital":false,"pk":null,"quiz":"asia","code":null,"archived":false,"percentageOfSessions":null},