{"cities":[{"name":"56 Пикет","state":"Ivanovo","territory":"","country":"Russia","latitude":56.5732412,"longitude":42.4245157,"population":0,"stateCapital":false,"nationalCapital":false,"pk":null,"quiz":"asia","code":null,"archived":false,"percentageOfSessions":null}, {"name":"Абабково","state":"Ivanovo","territory":"","country":"Russia","latitude":57.3910727,"longitude":41.7221594,"population":0,"stateCapital":false,"nationalCapital":false,"pk":null,"quiz":"asia","code":null,"archived":false,"percentageOfSessions":null}, {"name":"Абрамово","state":"Ivanovo","territory":"","country":"Russia","latitude":56.8370536,"longitude":39.5897723,"population":6,"stateCapital":false,"nationalCapital":false,"pk":null,"quiz":"asia","code":null,"archived":false,"percentageOfSessions":null}, {"name":"Абрамово","state":"Ivanovo","territory":"","country":"Russia","latitude":56.7937723,"longitude":41.2885671,"population":10,"stateCapital":false,"nationalCapital":false,"pk":null,"quiz":"asia","code":null,"archived":false,"percentageOfSessions":null}, {"name":"Абрамово","state":"Ivanovo","territory":"","country":"Russia","latitude":57.3278097,"longitude":42.8289024,"population":1,"stateCapital":false,"nationalCapital":false,"pk":null,"quiz":"asia","code":null,"archived":false,"percentageOfSessions":null}, {"name":"Аброниха","state":"Ivanovo","territory":"","country":"Russia","latitude":57.2079799,"longitude":41.230089,"population":0,"stateCapital":false,"nationalCapital":false,"pk":null,"quiz":"asia","code":null,"archived":false,"percentageOfSessions":null}, {"name":"Абросово","state":"Ivanovo","territory":"","country":"Russia","latitude":56.8519297,"longitude":42.4454261,"population":14,"stateCapital":false,"nationalCapital":false,"pk":null,"quiz":"asia","code":null,"archived":false,"percentageOfSessions":null}, {"name":"Авдеево","state":"Ivanovo","territory":"","country":"Russia","latitude":56.8778381,"longitude":41.5079381,"population":26,"stateCapital":false,"nationalCapital":false,"pk":null,"quiz":"asia","code":null,"archived":false,"percentageOfSessions":null}, {"name":"Авдотцино Большое","state":"Ivanovo","territory":"","country":"Russia","latitude":56.8436344,"longitude":40.7668848,"population":22,"stateCapital":false,"nationalCapital":false,"pk":null,"quiz":"asia","code":null,"archived":false,"percentageOfSessions":null}, {"name":"Аверино","state":"Ivanovo","territory":"","country":"Russia","latitude":57.6302884,"longitude":41.8542252,"population":4,"stateCapital":false,"nationalCapital":false,"pk":null,"quiz":"asia","code":null,"archived":false,"percentageOfSessions":null}, {"name":"Аверкиево","state":"Ivanovo","territory":"","country":"Russia","latitude":57.0171267,"longitude":40.0457847,"population":0,"stateCapital":false,"nationalCapital":false,"pk":null,"quiz":"asia","code":null,"archived":false,"percentageOfSessions":null}, {"name":"Авксеньково","state":"Ivanovo","territory":"","country":"Russia","latitude":56.9606057,"longitude":40.0281457,"population":0,"stateCapital":false,"nationalCapital":false,"pk":null,"quiz":"asia","code":null,"archived":false,"percentageOfSessions":null}, {"name":"Агафониха","state":"Ivanovo","territory":"","country":"Russia","latitude":56.8989121,"longitude":42.7198297,"population":2,"stateCapital":false,"nationalCapital":false,"pk":null,"quiz":"asia","code":null,"archived":false,"percentageOfSessions":null}, {"name":"Агафоновская","state":"Ivanovo","territory":"","country":"Russia","latitude":56.9888972,"longitude":42.5470173,"population":0,"stateCapital":false,"nationalCapital":false,"pk":null,"quiz":"asia","code":null,"archived":false,"percentageOfSessions":null}, {"name":"Агрофенино","state":"Ivanovo","territory":"","country":"Russia","latitude":56.5763778,"longitude":41.0070492,"population":508,"stateCapital":false,"nationalCapital":false,"pk":null,"quiz":"asia","code":null,"archived":false,"percentageOfSessions":null}, {"name":"Адюшкино","state":"Ivanovo","territory":"","country":"Russia","latitude":57.1054556,"longitude":42.7980696,"population":0,"stateCapital":false,"nationalCapital":false,"pk":null,"quiz":"asia","code":null,"archived":false,"percentageOfSessions":null}, {"name":"Аистово","state":"Ivanovo","territory":"","country":"Russia","latitude":56.8994208,"longitude":41.5367059,"population":42,"stateCapital":false,"nationalCapital":false,"pk":null,"quiz":"asia","code":null,"archived":false,"percentageOfSessions":null}, {"name":"Акишево","state":"Ivanovo","territory":"","country":"Russia","latitude":57.4228924,"longitude":42.2361178,"population":58,"stateCapital":false,"nationalCapital":false,"pk":null,"quiz":"asia","code":null,"archived":false,"percentageOfSessions":null}, {"name":"Аксениха","state":"Ivanovo","territory":"","country":"Russia","latitude":57.283669,"longitude":42.687023,"population":7,"stateCapital":false,"nationalCapital":false,"pk":null,"quiz":"asia","code":null,"archived":false,"percentageOfSessions":null}, {"name":"Аксениха","state":"Ivanovo","territory":"","country":"Russia","latitude":57.283669,"longitude":42.687023,"population":0,"stateCapital":false,"nationalCapital":false,"pk":null,"quiz":"asia","code":null,"archived":false,"percentageOfSessions":null}, {"name":"Аксеново","state":"Ivanovo","territory":"","country":"Russia","latitude":56.8863609,"longitude":42.7519968,"population":11,"stateCapital":false,"nationalCapital":false,"pk":null,"quiz":"asia","code":null,"archived":false,"percentageOfSessions":null}, {"name":"Аксеньково","state":"Ivanovo","territory":"","country":"Russia","latitude":57.1835979,"longitude":41.5983686,"population":1,"stateCapital":false,"nationalCapital":false,"pk":null,"quiz":"asia","code":null,"archived":false,"percentageOfSessions":null}, {"name":"Акулиха","state":"Ivanovo","territory":"","country":"Russia","latitude":57.3341221,"longitude":42.9500632,"population":0,"stateCapital":false,"nationalCapital":false,"pk":null,"quiz":"asia","code":null,"archived":false,"percentageOfSessions":null}, {"name":"Акульцево","state":"Ivanovo","territory":"","country":"Russia","latitude":57.2477228,"longitude":41.0674235,"population":38,"stateCapital":false,"nationalCapital":false,"pk":null,"quiz":"asia","code":null,"archived":false,"percentageOfSessions":null}, {"name":"Аладино","state":"Ivanovo","territory":"","country":"Russia","latitude":56.8524413,"longitude":40.6992029,"population":14,"stateCapital":false,"nationalCapital":false,"pk":null,"quiz":"asia","code":null,"archived":false,"percentageOfSessions":null}, {"name":"Александрово","state":"Ivanovo","territory":"","country":"Russia","latitude":56.9092594,"longitude":42.957256,"population":0,"stateCapital":false,"nationalCapital":false,"pk":null,"quiz":"asia","code":null,"archived":false,"percentageOfSessions":null}, {"name":"Александрово","state":"Ivanovo","territory":"","country":"Russia","latitude":56.9092594,"longitude":42.957256,"population":8,"stateCapital":false,"nationalCapital":false,"pk":null,"quiz":"asia","code":null,"archived":false,"percentageOfSessions":null}, {"name":"Алексеевка","state":"Ivanovo","territory":"","country":"Russia","latitude":56.5663539,"longitude":42.7723825,"population":0,"stateCapital":false,"nationalCapital":false,"pk":null,"quiz":"asia","code":null,"archived":false,"percentageOfSessions":null}, {"name":"Алексеевское","state":"Ivanovo","territory":"","country":"Russia","latitude":56.8918812,"longitude":39.7851553,"population":28,"stateCapital":false,"nationalCapital":false,"pk":null,"quiz":"asia","code":null,"archived":false,"percentageOfSessions":null}, {"name":"Алексино","state":"Ivanovo","territory":"","country":"Russia","latitude":56.5716655,"longitude":41.6076316,"population":10,"stateCapital":false,"nationalCapital":false,"pk":null,"quiz":"asia","code":null,"archived":false,"percentageOfSessions":null}, {"name":"Алексино","state":"Ivanovo","territory":"","country":"Russia","latitude":57.1927414,"longitude":41.152408,"population":4,"stateCapital":false,"nationalCapital":false,"pk":null,"quiz":"asia","code":null,"archived":false,"percentageOfSessions":null}, {"name":"Алехино","state":"Ivanovo","territory":"","country":"Russia","latitude":56.6128479,"longitude":42.5842173,"population":261,"stateCapital":false,"nationalCapital":false,"pk":null,"quiz":"asia","code":null,"archived":false,"percentageOfSessions":null}, {"name":"Алешево","state":"Ivanovo","territory":"","country":"Russia","latitude":56.8055394,"longitude":41.4173219,"population":20,"stateCapital":false,"nationalCapital":false,"pk":null,"quiz":"asia","code":null,"archived":false,"percentageOfSessions":null}, {"name":"Алешково","state":"Ivanovo","territory":"","country":"Russia","latitude":57.0462312,"longitude":42.1387252,"population":2,"stateCapital":false,"nationalCapital":false,"pk":null,"quiz":"asia","code":null,"archived":false,"percentageOfSessions":null}, {"name":"Алешково","state":"Ivanovo","territory":"","country":"Russia","latitude":57.0462312,"longitude":42.1387252,"population":4,"stateCapital":false,"nationalCapital":false,"pk":null,"quiz":"asia","code":null,"archived":false,"percentageOfSessions":null}, {"name":"Алешково","state":"Ivanovo","territory":"","country":"Russia","latitude":56.9796687,"longitude":41.7582722,"population":56,"stateCapital":false,"nationalCapital":false,"pk":null,"quiz":"asia","code":null,"archived":false,"percentageOfSessions":null}, {"name":"Алешково","state":"Ivanovo","territory":"","country":"Russia","latitude":57.3598522,"longitude":42.7793643,"population":0,"stateCapital":false,"nationalCapital":false,"pk":null,"quiz":"asia","code":null,"archived":false,"percentageOfSessions":null}, {"name":"Алешово","state":"Ivanovo","territory":"","country":"Russia","latitude":56.6226519,"longitude":41.390853,"population":6,"stateCapital":false,"nationalCapital":false,"pk":null,"quiz":"asia","code":null,"archived":false,"percentageOfSessions":null}, {"name":"Алферовка","state":"Ivanovo","territory":"","country":"Russia","latitude":56.8866184,"longitude":40.3137383,"population":45,"stateCapital":false,"nationalCapital":false,"pk":null,"quiz":"asia","code":null,"archived":false,"percentageOfSessions":null}, {"name":"Алферьево","state":"Ivanovo","territory":"","country":"Russia","latitude":56.9296798,"longitude":40.6218744,"population":54,"stateCapital":false,"nationalCapital":false,"pk":null,"quiz":"asia","code":null,"archived":false,"percentageOfSessions":null}, {"name":"Амбросово","state":"Ivanovo","territory":"","country":"Russia","latitude":57.3736803,"longitude":42.724481,"population":1,"stateCapital":false,"nationalCapital":false,"pk":null,"quiz":"asia","code":null,"archived":false,"percentageOfSessions":null}, {"name":"Ананьино","state":"Ivanovo","territory":"","country":"Russia","latitude":57.533709,"longitude":42.2721031,"population":5,"stateCapital":false,"nationalCapital":false,"pk":null,"quiz":"asia","code":null,"archived":false,"percentageOfSessions":null}, {"name":"Ананьино","state":"Ivanovo","territory":"","country":"Russia","latitude":56.5008834,"longitude":41.2344663,"population":0,"stateCapital":false,"nationalCapital":false,"pk":null,"quiz":"asia","code":null,"archived":false,"percentageOfSessions":null}, {"name":"Андреевка","state":"Ivanovo","territory":"","country":"Russia","latitude":56.6976552,"longitude":40.8802511,"population":0,"stateCapital":false,"nationalCapital":false,"pk":null,"quiz":"asia","code":null,"archived":false,"percentageOfSessions":null}, {"name":"Андреево","state":"Ivanovo","territory":"","country":"Russia","latitude":56.9094164,"longitude":41.006348,"population":26,"stateCapital":false,"nationalCapital":false,"pk":null,"quiz":"asia","code":null,"archived":false,"percentageOfSessions":null}, {"name":"Андреевская","state":"Ivanovo","territory":"","country":"Russia","latitude":57.0190639,"longitude":42.3930037,"population":35,"stateCapital":false,"nationalCapital":false,"pk":null,"quiz":"asia","code":null,"archived":false,"percentageOfSessions":null}, {"name":"Андреевское","state":"Ivanovo","territory":"","country":"Russia","latitude":57.3319368,"longitude":41.3633273,"population":39,"stateCapital":false,"nationalCapital":false,"pk":null,"quiz":"asia","code":null,"archived":false,"percentageOfSessions":null}, {"name":"Андреевское","state":"Ivanovo","territory":"","country":"Russia","latitude":57.1051602,"longitude":41.9266831,"population":2,"stateCapital":false,"nationalCapital":false,"pk":null,"quiz":"asia","code":null,"archived":false,"percentageOfSessions":null}, {"name":"Андрейково","state":"Ivanovo","territory":"","country":"Russia","latitude":57.3323686,"longitude":42.8685312,"population":0,"stateCapital":false,"nationalCapital":false,"pk":null,"quiz":"asia","code":null,"archived":false,"percentageOfSessions":null}, {"name":"Андреиха","state":"Ivanovo","territory":"","country":"Russia","latitude":56.7501529,"longitude":42.7391411,"population":0,"stateCapital":false,"nationalCapital":false,"pk":null,"quiz":"asia","code":null,"archived":false,"percentageOfSessions":null}, {"name":"Андроково","state":"Ivanovo","territory":"","country":"Russia","latitude":56.8285187,"longitude":42.7309678,"population":4,"stateCapital":false,"nationalCapital":false,"pk":null,"quiz":"asia","code":null,"archived":false,"percentageOfSessions":null}, {"name":"Андрониха","state":"Ivanovo","territory":"","country":"Russia","latitude":57.5438988,"longitude":42.3498,"population":1,"stateCapital":false,"nationalCapital":false,"pk":null,"quiz":"asia","code":null,"archived":false,"percentageOfSessions":null}, {"name":"Андрониха","state":"Ivanovo","territory":"","country":"Russia","latitude":57.121455,"longitude":41.4803018,"population":21,"stateCapital":false,"nationalCapital":false,"pk":null,"quiz":"asia","code":null,"archived":false,"percentageOfSessions":null}, {"name":"Андрониха","state":"Ivanovo","territory":"","country":"Russia","latitude":57.121455,"longitude":41.4803018,"population":0,"stateCapital":false,"nationalCapital":false,"pk":null,"quiz":"asia","code":null,"archived":false,"percentageOfSessions":null}, {"name":"Андрониха","state":"Ivanovo","territory":"","country":"Russia","latitude":57.235003,"longitude":42.9836519,"population":51,"stateCapital":false,"nationalCapital":false,"pk":null,"quiz":"asia","code":null,"archived":false,"percentageOfSessions":null}, {"name":"Андрюшниково","state":"Ivanovo","territory":"","country":"Russia","latitude":57.1907551,"longitude":42.1304945,"population":0,"stateCapital":false,"nationalCapital":false,"pk":null,"quiz":"asia","code":null,"archived":false,"percentageOfSessions":null}, {"name":"Анисимиха","state":"Ivanovo","territory":"","country":"Russia","latitude":57.0051422,"longitude":43.0811715,"population":3,"stateCapital":false,"nationalCapital":false,"pk":null,"quiz":"asia","code":null,"archived":false,"percentageOfSessions":null}, {"name":"Анисимово","state":"Ivanovo","territory":"","country":"Russia","latitude":56.8221925,"longitude":40.8679011,"population":74,"stateCapital":false,"nationalCapital":false,"pk":null,"quiz":"asia","code":null,"archived":false,"percentageOfSessions":null}, {"name":"Анисимово","state":"Ivanovo","territory":"","country":"Russia","latitude":56.7927908,"longitude":42.7002763,"population":1,"stateCapital":false,"nationalCapital":false,"pk":null,"quiz":"asia","code":null,"archived":false,"percentageOfSessions":null}, {"name":"Анисимцево","state":"Ivanovo","territory":"","country":"Russia","latitude":57.2155782,"longitude":40.51074,"population":3,"stateCapital":false,"nationalCapital":false,"pk":null,"quiz":"asia","code":null,"archived":false,"percentageOfSessions":null}, {"name":"Анкино","state":"Ivanovo","territory":"","country":"Russia","latitude":57.3692075,"longitude":41.7683756,"population":7,"stateCapital":false,"nationalCapital":false,"pk":null,"quiz":"asia","code":null,"archived":false,"percentageOfSessions":null}, {"name":"Анкудиново","state":"Ivanovo","territory":"","country":"Russia","latitude":57.0065762,"longitude":40.8062978,"population":72,"stateCapital":false,"nationalCapital":false,"pk":null,"quiz":"asia","code":null,"archived":false,"percentageOfSessions":null}, {"name":"Анненское","state":"Ivanovo","territory":"","country":"Russia","latitude":57.2917798,"longitude":41.3266269,"population":6,"stateCapital":false,"nationalCapital":false,"pk":null,"quiz":"asia","code":null,"archived":false,"percentageOfSessions":null}, {"name":"Аннино","state":"Ivanovo","territory":"","country":"Russia","latitude":57.4593792,"longitude":42.6981396,"population":0,"stateCapital":false,"nationalCapital":false,"pk":null,"quiz":"asia","code":null,"archived":false,"percentageOfSessions":null}, {"name":"Антилохово","state":"Ivanovo","territory":"","country":"Russia","latitude":56.50959,"longitude":41.141376,"population":75,"stateCapital":false,"nationalCapital":false,"pk":null,"quiz":"asia","code":null,"archived":false,"percentageOfSessions":null}, {"name":"Антипино","state":"Ivanovo","territory":"","country":"Russia","latitude":57.2860543,"longitude":42.303696,"population":19,"stateCapital":false,"nationalCapital":false,"pk":null,"quiz":"asia","code":null,"archived":false,"percentageOfSessions":null}, {"name":"Антипино","state":"Ivanovo","territory":"","country":"Russia","latitude":57.2860543,"longitude":42.303696,"population":98,"stateCapital":false,"nationalCapital":false,"pk":null,"quiz":"asia","code":null,"archived":false,"percentageOfSessions":null}, {"name":"Антипинская","state":"Ivanovo","territory":"","country":"Russia","latitude":57.4268283,"longitude":42.548271,"population":0,"stateCapital":false,"nationalCapital":false,"pk":null,"quiz":"asia","code":null,"archived":false,"percentageOfSessions":null}, {"name":"Антипиха","state":"Ivanovo","territory":"","country":"Russia","latitude":57.4561968,"longitude":41.7096173,"population":0,"stateCapital":false,"nationalCapital":false,"pk":null,"quiz":"asia","code":null,"archived":false,"percentageOfSessions":null}, {"name":"Антониха","state":"Ivanovo","territory":"","country":"Russia","latitude":56.8822284,"longitude":41.0985803,"population":0,"stateCapital":false,"nationalCapital":false,"pk":null,"quiz":"asia","code":null,"archived":false,"percentageOfSessions":null}, {"name":"Антоново","state":"Ivanovo","territory":"","country":"Russia","latitude":57.336934,"longitude":41.4877899,"population":12,"stateCapital":false,"nationalCapital":false,"pk":null,"quiz":"asia","code":null,"archived":false,"percentageOfSessions":null}, {"name":"Антропиха","state":"Ivanovo","territory":"","country":"Russia","latitude":57.45069,"longitude":42.0224307,"population":0,"stateCapital":false,"nationalCapital":false,"pk":null,"quiz":"asia","code":null,"archived":false,"percentageOfSessions":null}, {"name":"Антропово","state":"Ivanovo","territory":"","country":"Russia","latitude":57.5115407,"longitude":42.2819425,"population":0,"stateCapital":false,"nationalCapital":false,"pk":null,"quiz":"asia","code":null,"archived":false,"percentageOfSessions":null}, {"name":"Антропьево","state":"Ivanovo","territory":"","country":"Russia","latitude":56.8119702,"longitude":40.9321498,"population":1,"stateCapital":false,"nationalCapital":false,"pk":null,"quiz":"asia","code":null,"archived":false,"percentageOfSessions":null}, {"name":"Антушково","state":"Ivanovo","territory":"","country":"Russia","latitude":56.9332425,"longitude":39.5384314,"population":78,"stateCapital":false,"nationalCapital":false,"pk":null,"quiz":"asia","code":null,"archived":false,"percentageOfSessions":null}, {"name":"Анфимово","state":"Ivanovo","territory":"","country":"Russia","latitude":56.8124563,"longitude":41.2880411,"population":15,"stateCapital":false,"nationalCapital":false,"pk":null,"quiz":"asia","code":null,"archived":false,"percentageOfSessions":null}, {"name":"Анчигорово","state":"Ivanovo","territory":"","country":"Russia","latitude":57.1319467,"longitude":42.3155642,"population":0,"stateCapital":false,"nationalCapital":false,"pk":null,"quiz":"asia","code":null,"archived":false,"percentageOfSessions":null}, {"name":"Аньково","state":"Ivanovo","territory":"","country":"Russia","latitude":56.937345,"longitude":39.9569892,"population":1345,"stateCapital":false,"nationalCapital":false,"pk":null,"quiz":"asia","code":null,"archived":false,"percentageOfSessions":null}, {"name":"Анютино","state":"Ivanovo","territory":"","country":"Russia","latitude":56.844288,"longitude":41.909172,"population":13,"stateCapital":false,"nationalCapital":false,"pk":null,"quiz":"asia","code":null,"archived":false,"percentageOfSessions":null}, {"name":"Апаницыно","state":"Ivanovo","territory":"","country":"Russia","latitude":56.8616894,"longitude":40.9631593,"population":16,"stateCapital":false,"nationalCapital":false,"pk":null,"quiz":"asia","code":null,"archived":false,"percentageOfSessions":null}, {"name":"Апаринская","state":"Ivanovo","territory":"","country":"Russia","latitude":56.9809497,"longitude":42.5503345,"population":0,"stateCapital":false,"nationalCapital":false,"pk":null,"quiz":"asia","code":null,"archived":false,"percentageOfSessions":null}, {"name":"Арефино","state":"Ivanovo","territory":"","country":"Russia","latitude":56.7915028,"longitude":41.1307401,"population":56,"stateCapital":false,"nationalCapital":false,"pk":null,"quiz":"asia","code":null,"archived":false,"percentageOfSessions":null}, {"name":"Арефино","state":"Ivanovo","territory":"","country":"Russia","latitude":56.8259327,"longitude":41.5319123,"population":234,"stateCapital":false,"nationalCapital":false,"pk":null,"quiz":"asia","code":null,"archived":false,"percentageOfSessions":null}, {"name":"Арефинская","state":"Ivanovo","territory":"","country":"Russia","latitude":56.996912,"longitude":43.03055,"population":1,"stateCapital":false,"nationalCapital":false,"pk":null,"quiz":"asia","code":null,"archived":false,"percentageOfSessions":null}, {"name":"Аржаново","state":"Ivanovo","territory":"","country":"Russia","latitude":56.7889858,"longitude":40.7673055,"population":30,"stateCapital":false,"nationalCapital":false,"pk":null,"quiz":"asia","code":null,"archived":false,"percentageOfSessions":null}, {"name":"Аристиха","state":"Ivanovo","territory":"","country":"Russia","latitude":56.6590861,"longitude":41.346421,"population":1,"stateCapital":false,"nationalCapital":false,"pk":null,"quiz":"asia","code":null,"archived":false,"percentageOfSessions":null}, {"name":"Аристиха","state":"Ivanovo","territory":"","country":"Russia","latitude":57.2482284,"longitude":43.005848,"population":15,"stateCapital":false,"nationalCapital":false,"pk":null,"quiz":"asia","code":null,"archived":false,"percentageOfSessions":null}, {"name":"Аристово","state":"Ivanovo","territory":"","country":"Russia","latitude":57.2593835,"longitude":42.4286333,"population":0,"stateCapital":false,"nationalCapital":false,"pk":null,"quiz":"asia","code":null,"archived":false,"percentageOfSessions":null}, {"name":"Аристово","state":"Ivanovo","territory":"","country":"Russia","latitude":56.6742872,"longitude":41.5534317,"population":41,"stateCapital":false,"nationalCapital":false,"pk":null,"quiz":"asia","code":null,"archived":false,"percentageOfSessions":null}, {"name":"Арсеново","state":"Ivanovo","territory":"","country":"Russia","latitude":56.8054243,"longitude":39.4806619,"population":2,"stateCapital":false,"nationalCapital":false,"pk":null,"quiz":"asia","code":null,"archived":false,"percentageOfSessions":null}, {"name":"Артемиха","state":"Ivanovo","territory":"","country":"Russia","latitude":56.5994153,"longitude":41.1653076,"population":7,"stateCapital":false,"nationalCapital":false,"pk":null,"quiz":"asia","code":null,"archived":false,"percentageOfSessions":null}, {"name":"Артемово","state":"Ivanovo","territory":"","country":"Russia","latitude":56.7287463,"longitude":41.4468848,"population":4,"stateCapital":false,"nationalCapital":false,"pk":null,"quiz":"asia","code":null,"archived":false,"percentageOfSessions":null}, {"name":"Артемьево","state":"Ivanovo","territory":"","country":"Russia","latitude":56.6857058,"longitude":41.205451,"population":0,"stateCapital":false,"nationalCapital":false,"pk":null,"quiz":"asia","code":null,"archived":false,"percentageOfSessions":null}, {"name":"Артюково","state":"Ivanovo","territory":"","country":"Russia","latitude":57.6008673,"longitude":41.7309733,"population":0,"stateCapital":false,"nationalCapital":false,"pk":null,"quiz":"asia","code":null,"archived":false,"percentageOfSessions":null}, {"name":"Артюшино","state":"Ivanovo","territory":"","country":"Russia","latitude":57.2866415,"longitude":41.8780774,"population":140,"stateCapital":false,"nationalCapital":false,"pk":null,"quiz":"asia","code":null,"archived":false,"percentageOfSessions":null}, {"name":"Архангел","state":"Ivanovo","territory":"","country":"Russia","latitude":57.1058762,"longitude":40.3236928,"population":11,"stateCapital":false,"nationalCapital":false,"pk":null,"quiz":"asia","code":null,"archived":false,"percentageOfSessions":null}, {"name":"Архиповка","state":"Ivanovo","territory":"","country":"Russia","latitude":56.661701,"longitude":41.256367,"population":1558,"stateCapital":false,"nationalCapital":false,"pk":null,"quiz":"asia","code":null,"archived":false,"percentageOfSessions":null}, {"name":"Астафьево","state":"Ivanovo","territory":"","country":"Russia","latitude":57.1247293,"longitude":39.9381415,"population":39,"stateCapital":false,"nationalCapital":false,"pk":null,"quiz":"asia","code":null,"archived":false,"percentageOfSessions":null}, {"name":"Астафьево","state":"Ivanovo","territory":"","country":"Russia","latitude":57.3224542,"longitude":42.7386203,"population":1,"stateCapital":false,"nationalCapital":false,"pk":null,"quiz":"asia","code":null,"archived":false,"percentageOfSessions":null}, {"name":"Афанасовка","state":"Ivanovo","territory":"","country":"Russia","latitude":56.9317762,"longitude":40.1519899,"population":0,"stateCapital":false,"nationalCapital":false,"pk":null,"quiz":"asia","code":null,"archived":false,"percentageOfSessions":null}, {"name":"Афанасово","state":"Ivanovo","territory":"","country":"Russia","latitude":57.0116667,"longitude":41.0433197,"population":865,"stateCapital":false,"nationalCapital":false,"pk":null,"quiz":"asia","code":null,"archived":false,"percentageOfSessions":null}, {"name":"Афанасово","state":"Ivanovo","territory":"","country":"Russia","latitude":56.7204232,"longitude":40.8456146,"population":43,"stateCapital":false,"nationalCapital":false,"pk":null,"quiz":"asia","code":null,"archived":false,"percentageOfSessions":null}, {"name":"Афанасово","state":"Ivanovo","territory":"","country":"Russia","latitude":56.7204232,"longitude":40.8456146,"population":16,"stateCapital":false,"nationalCapital":false,"pk":null,"quiz":"asia","code":null,"archived":false,"percentageOfSessions":null}, {"name":"Афанасово","state":"Ivanovo","territory":"","country":"Russia","latitude":56.5361127,"longitude":41.0478368,"population":84,"stateCapital":false,"nationalCapital":false,"pk":null,"quiz":"asia","code":null,"archived":false,"percentageOfSessions":null}, {"name":"Афанасьево","state":"Ivanovo","territory":"","country":"Russia","latitude":57.1323762,"longitude":40.6114729,"population":27,"stateCapital":false,"nationalCapital":false,"pk":null,"quiz":"asia","code":null,"archived":false,"percentageOfSessions":null}, {"name":"Афанасьевское","state":"Ivanovo","territory":"","country":"Russia","latitude":56.8528722,"longitude":41.5396063,"population":524,"stateCapital":false,"nationalCapital":false,"pk":null,"quiz":"asia","code":null,"archived":false,"percentageOfSessions":null}, {"name":"Афачиха","state":"Ivanovo","territory":"","country":"Russia","latitude":57.1718246,"longitude":42.4942373,"population":8,"stateCapital":false,"nationalCapital":false,"pk":null,"quiz":"asia","code":null,"archived":false,"percentageOfSessions":null}, {"name":"Аферково","state":"Ivanovo","territory":"","country":"Russia","latitude":57.1464053,"longitude":41.6372191,"population":12,"stateCapital":false,"nationalCapital":false,"pk":null,"quiz":"asia","code":null,"archived":false,"percentageOfSessions":null}, {"name":"Афонасово","state":"Ivanovo","territory":"","country":"Russia","latitude":57.2446661,"longitude":41.5739272,"population":4,"stateCapital":false,"nationalCapital":false,"pk":null,"quiz":"asia","code":null,"archived":false,"percentageOfSessions":null}, {"name":"Афонинская","state":"Ivanovo","territory":"","country":"Russia","latitude":57.2926105,"longitude":42.4809243,"population":0,"stateCapital":false,"nationalCapital":false,"pk":null,"quiz":"asia","code":null,"archived":false,"percentageOfSessions":null}, {"name":"Афоново","state":"Ivanovo","territory":"","country":"Russia","latitude":57.319732,"longitude":41.7712366,"population":0,"stateCapital":false,"nationalCapital":false,"pk":null,"quiz":"asia","code":null,"archived":false,"percentageOfSessions":null}, {"name":"Ахидовка","state":"Ivanovo","territory":"","country":"Russia","latitude":57.0928506,"longitude":41.6586679,"population":10,"stateCapital":false,"nationalCapital":false,"pk":null,"quiz":"asia","code":null,"archived":false,"percentageOfSessions":null}, {"name":"Ахлебинка","state":"Ivanovo","territory":"","country":"Russia","latitude":57.4403721,"longitude":41.6740769,"population":0,"stateCapital":false,"nationalCapital":false,"pk":null,"quiz":"asia","code":null,"archived":false,"percentageOfSessions":null}, {"name":"Бабанино","state":"Ivanovo","territory":"","country":"Russia","latitude":57.0032785,"longitude":39.5622268,"population":0,"stateCapital":false,"nationalCapital":false,"pk":null,"quiz":"asia","code":null,"archived":false,"percentageOfSessions":null}, {"name":"Бабашкино","state":"Ivanovo","territory":"","country":"Russia","latitude":56.6043537,"longitude":41.5554091,"population":2,"stateCapital":false,"nationalCapital":false,"pk":null,"quiz":"asia","code":null,"archived":false,"percentageOfSessions":null}, {"name":"Бабенки","state":"Ivanovo","territory":"","country":"Russia","latitude":56.9165515,"longitude":40.9357005,"population":41,"stateCapital":false,"nationalCapital":false,"pk":null,"quiz":"asia","code":null,"archived":false,"percentageOfSessions":null}, {"name":"Бабенково","state":"Ivanovo","territory":"","country":"Russia","latitude":57.2098921,"longitude":42.5200025,"population":10,"stateCapital":false,"nationalCapital":false,"pk":null,"quiz":"asia","code":null,"archived":false,"percentageOfSessions":null}, {"name":"Бабино","state":"Ivanovo","territory":"","country":"Russia","latitude":57.2997506,"longitude":42.0299558,"population":4,"stateCapital":false,"nationalCapital":false,"pk":null,"quiz":"asia","code":null,"archived":false,"percentageOfSessions":null}, {"name":"Бабино","state":"Ivanovo","territory":"","country":"Russia","latitude":56.9994703,"longitude":42.2420642,"population":38,"stateCapital":false,"nationalCapital":false,"pk":null,"quiz":"asia","code":null,"archived":false,"percentageOfSessions":null}, {"name":"Бабино","state":"Ivanovo","territory":"","country":"Russia","latitude":57.3177559,"longitude":41.0940001,"population":48,"stateCapital":false,"nationalCapital":false,"pk":null,"quiz":"asia","code":null,"archived":false,"percentageOfSessions":null}, {"name":"Бабцыно","state":"Ivanovo","territory":"","country":"Russia","latitude":57.4703969,"longitude":41.6220028,"population":11,"stateCapital":false,"nationalCapital":false,"pk":null,"quiz":"asia","code":null,"archived":false,"percentageOfSessions":null}, {"name":"Бабцыно","state":"Ivanovo","territory":"","country":"Russia","latitude":57.4576798,"longitude":42.8156335,"population":0,"stateCapital":false,"nationalCapital":false,"pk":null,"quiz":"asia","code":null,"archived":false,"percentageOfSessions":null}, {"name":"Баглаево","state":"Ivanovo","territory":"","country":"Russia","latitude":57.147187,"longitude":40.7775462,"population":11,"stateCapital":false,"nationalCapital":false,"pk":null,"quiz":"asia","code":null,"archived":false,"percentageOfSessions":null}, {"name":"Баженово","state":"Ivanovo","territory":"","country":"Russia","latitude":56.8359266,"longitude":42.796489,"population":20,"stateCapital":false,"nationalCapital":false,"pk":null,"quiz":"asia","code":null,"archived":false,"percentageOfSessions":null}, {"name":"Базеево","state":"Ivanovo","territory":"","country":"Russia","latitude":57.2169428,"longitude":42.5468669,"population":0,"stateCapital":false,"nationalCapital":false,"pk":null,"quiz":"asia","code":null,"archived":false,"percentageOfSessions":null}, {"name":"Бакланиха","state":"Ivanovo","territory":"","country":"Russia","latitude":57.0113298,"longitude":43.0874598,"population":0,"stateCapital":false,"nationalCapital":false,"pk":null,"quiz":"asia","code":null,"archived":false,"percentageOfSessions":null}, {"name":"Бакулиха","state":"Ivanovo","territory":"","country":"Russia","latitude":56.6182612,"longitude":41.4523464,"population":3,"stateCapital":false,"nationalCapital":false,"pk":null,"quiz":"asia","code":null,"archived":false,"percentageOfSessions":null}, {"name":"Бакуниха","state":"Ivanovo","territory":"","country":"Russia","latitude":56.9375387,"longitude":42.3744462,"population":69,"stateCapital":false,"nationalCapital":false,"pk":null,"quiz":"asia","code":null,"archived":false,"percentageOfSessions":null}, {"name":"Бакшеево","state":"Ivanovo","territory":"","country":"Russia","latitude":57.2853167,"longitude":41.1609629,"population":16,"stateCapital":false,"nationalCapital":false,"pk":null,"quiz":"asia","code":null,"archived":false,"percentageOfSessions":null}, {"name":"Баламутово","state":"Ivanovo","territory":"","country":"Russia","latitude":56.8064468,"longitude":41.4514535,"population":2,"stateCapital":false,"nationalCapital":false,"pk":null,"quiz":"asia","code":null,"archived":false,"percentageOfSessions":null}, {"name":"Балахна","state":"Ivanovo","territory":"","country":"Russia","latitude":57.2245268,"longitude":40.8649974,"population":0,"stateCapital":false,"nationalCapital":false,"pk":null,"quiz":"asia","code":null,"archived":false,"percentageOfSessions":null}, {"name":"Балахонка","state":"Ivanovo","territory":"","country":"Russia","latitude":57.4396631,"longitude":42.7217857,"population":3,"stateCapital":false,"nationalCapital":false,"pk":null,"quiz":"asia","code":null,"archived":false,"percentageOfSessions":null}, {"name":"Балахонки","state":"Ivanovo","territory":"","country":"Russia","latitude":57.0905058,"longitude":40.7648801,"population":472,"stateCapital":false,"nationalCapital":false,"pk":null,"quiz":"asia","code":null,"archived":false,"percentageOfSessions":null}, {"name":"Балмышево","state":"Ivanovo","territory":"","country":"Russia","latitude":56.8540739,"longitude":43.1056509,"population":6,"stateCapital":false,"nationalCapital":false,"pk":null,"quiz":"asia","code":null,"archived":false,"percentageOfSessions":null}, {"name":"Бальбино","state":"Ivanovo","territory":"","country":"Russia","latitude":56.6306328,"longitude":41.4440806,"population":36,"stateCapital":false,"nationalCapital":false,"pk":null,"quiz":"asia","code":null,"archived":false,"percentageOfSessions":null}, {"name":"Банево","state":"Ivanovo","territory":"","country":"Russia","latitude":56.8135624,"longitude":41.4638419,"population":9,"stateCapital":false,"nationalCapital":false,"pk":null,"quiz":"asia","code":null,"archived":false,"percentageOfSessions":null}, {"name":"Барабаниха","state":"Ivanovo","territory":"","country":"Russia","latitude":57.304897,"longitude":43.0531898,"population":0,"stateCapital":false,"nationalCapital":false,"pk":null,"quiz":"asia","code":null,"archived":false,"percentageOfSessions":null}, {"name":"Бараниха","state":"Ivanovo","territory":"","country":"Russia","latitude":57.2211319,"longitude":42.9039206,"population":5,"stateCapital":false,"nationalCapital":false,"pk":null,"quiz":"asia","code":null,"archived":false,"percentageOfSessions":null}, {"name":"Бараново","state":"Ivanovo","territory":"","country":"Russia","latitude":56.9083231,"longitude":42.6449652,"population":83,"stateCapital":false,"nationalCapital":false,"pk":null,"quiz":"asia","code":null,"archived":false,"percentageOfSessions":null}, {"name":"Бараново","state":"Ivanovo","territory":"","country":"Russia","latitude":57.0219275,"longitude":42.9092007,"population":0,"stateCapital":false,"nationalCapital":false,"pk":null,"quiz":"asia","code":null,"archived":false,"percentageOfSessions":null}, {"name":"Барашово","state":"Ivanovo","territory":"","country":"Russia","latitude":57.4007521,"longitude":41.1880566,"population":40,"stateCapital":false,"nationalCapital":false,"pk":null,"quiz":"asia","code":null,"archived":false,"percentageOfSessions":null}, {"name":"Барсково","state":"Ivanovo","territory":"","country":"Russia","latitude":56.6722756,"longitude":40.9958191,"population":2,"stateCapital":false,"nationalCapital":false,"pk":null,"quiz":"asia","code":null,"archived":false,"percentageOfSessions":null}, {"name":"Барское","state":"Ivanovo","territory":"","country":"Russia","latitude":56.776943,"longitude":42.273129,"population":7,"stateCapital":false,"nationalCapital":false,"pk":null,"quiz":"asia","code":null,"archived":false,"percentageOfSessions":null}, {"name":"Барсуки","state":"Ivanovo","territory":"","country":"Russia","latitude":57.1644876,"longitude":42.5443394,"population":1,"stateCapital":false,"nationalCapital":false,"pk":null,"quiz":"asia","code":null,"archived":false,"percentageOfSessions":null}, {"name":"Барсуки","state":"Ivanovo","territory":"","country":"Russia","latitude":57.3048439,"longitude":42.6861869,"population":5,"stateCapital":false,"nationalCapital":false,"pk":null,"quiz":"asia","code":null,"archived":false,"percentageOfSessions":null}, {"name":"Барышки","state":"Ivanovo","territory":"","country":"Russia","latitude":56.811939,"longitude":41.944153,"population":10,"stateCapital":false,"nationalCapital":false,"pk":null,"quiz":"asia","code":null,"archived":false,"percentageOfSessions":null}, {"name":"Баскаково","state":"Ivanovo","territory":"","country":"Russia","latitude":57.2251785,"longitude":41.0740821,"population":22,"stateCapital":false,"nationalCapital":false,"pk":null,"quiz":"asia","code":null,"archived":false,"percentageOfSessions":null}, {"name":"Баскино","state":"Ivanovo","territory":"","country":"Russia","latitude":56.8964014,"longitude":43.0518845,"population":16,"stateCapital":false,"nationalCapital":false,"pk":null,"quiz":"asia","code":null,"archived":false,"percentageOfSessions":null}, {"name":"Батманы","state":"Ivanovo","territory":"","country":"Russia","latitude":57.2642213,"longitude":42.3030142,"population":307,"stateCapital":false,"nationalCapital":false,"pk":null,"quiz":"asia","code":null,"archived":false,"percentageOfSessions":null}, {"name":"Батраково","state":"Ivanovo","territory":"","country":"Russia","latitude":56.9151247,"longitude":42.6669497,"population":0,"stateCapital":false,"nationalCapital":false,"pk":null,"quiz":"asia","code":null,"archived":false,"percentageOfSessions":null}, {"name":"Бахаевская","state":"Ivanovo","territory":"","country":"Russia","latitude":56.9019991,"longitude":42.5193765,"population":0,"stateCapital":false,"nationalCapital":false,"pk":null,"quiz":"asia","code":null,"archived":false,"percentageOfSessions":null}, {"name":"Бахарево","state":"Ivanovo","territory":"","country":"Russia","latitude":57.1241583,"longitude":42.4941726,"population":169,"stateCapital":false,"nationalCapital":false,"pk":null,"quiz":"asia","code":null,"archived":false,"percentageOfSessions":null}, {"name":"Башки","state":"Ivanovo","territory":"","country":"Russia","latitude":56.7954738,"longitude":40.2778427,"population":0,"stateCapital":false,"nationalCapital":false,"pk":null,"quiz":"asia","code":null,"archived":false,"percentageOfSessions":null}, {"name":"Башмаки","state":"Ivanovo","territory":"","country":"Russia","latitude":56.634159,"longitude":40.8854354,"population":0,"stateCapital":false,"nationalCapital":false,"pk":null,"quiz":"asia","code":null,"archived":false,"percentageOfSessions":null}, {"name":"Бедрино","state":"Ivanovo","territory":"","country":"Russia","latitude":56.848803,"longitude":43.0929095,"population":3,"stateCapital":false,"nationalCapital":false,"pk":null,"quiz":"asia","code":null,"archived":false,"percentageOfSessions":null}, {"name":"Бедряево","state":"Ivanovo","territory":"","country":"Russia","latitude":57.036479,"longitude":41.3965136,"population":15,"stateCapital":false,"nationalCapital":false,"pk":null,"quiz":"asia","code":null,"archived":false,"percentageOfSessions":null}, {"name":"Безводново","state":"Ivanovo","territory":"","country":"Russia","latitude":56.9197152,"longitude":43.1680042,"population":2,"stateCapital":false,"nationalCapital":false,"pk":null,"quiz":"asia","code":null,"archived":false,"percentageOfSessions":null}, {"name":"Безданное","state":"Ivanovo","territory":"","country":"Russia","latitude":56.6628591,"longitude":42.6273541,"population":0,"stateCapital":false,"nationalCapital":false,"pk":null,"quiz":"asia","code":null,"archived":false,"percentageOfSessions":null}, {"name":"Безделово","state":"Ivanovo","territory":"","country":"Russia","latitude":57.087646,"longitude":42.964645,"population":0,"stateCapital":false,"nationalCapital":false,"pk":null,"quiz":"asia","code":null,"archived":false,"percentageOfSessions":null}, {"name":"Безделово","state":"Ivanovo","territory":"","country":"Russia","latitude":57.087646,"longitude":42.964645,"population":3,"stateCapital":false,"nationalCapital":false,"pk":null,"quiz":"asia","code":null,"archived":false,"percentageOfSessions":null}, {"name":"Безносово","state":"Ivanovo","territory":"","country":"Russia","latitude":57.6584676,"longitude":41.6935139,"population":1,"stateCapital":false,"nationalCapital":false,"pk":null,"quiz":"asia","code":null,"archived":false,"percentageOfSessions":null}, {"name":"Беклемищи","state":"Ivanovo","territory":"","country":"Russia","latitude":56.7727117,"longitude":42.7193407,"population":234,"stateCapital":false,"nationalCapital":false,"pk":null,"quiz":"asia","code":null,"archived":false,"percentageOfSessions":null}, {"name":"Бексерово","state":"Ivanovo","territory":"","country":"Russia","latitude":56.6011699,"longitude":40.1615735,"population":1,"stateCapital":false,"nationalCapital":false,"pk":null,"quiz":"asia","code":null,"archived":false,"percentageOfSessions":null}, {"name":"Белавино","state":"Ivanovo","territory":"","country":"Russia","latitude":56.6551411,"longitude":41.0067589,"population":0,"stateCapital":false,"nationalCapital":false,"pk":null,"quiz":"asia","code":null,"archived":false,"percentageOfSessions":null}, {"name":"Белая Рамень","state":"Ivanovo","territory":"","country":"Russia","latitude":56.6228835,"longitude":42.568679,"population":0,"stateCapital":false,"nationalCapital":false,"pk":null,"quiz":"asia","code":null,"archived":false,"percentageOfSessions":null}, {"name":"Белехово","state":"Ivanovo","territory":"","country":"Russia","latitude":56.981127,"longitude":40.2764099,"population":2,"stateCapital":false,"nationalCapital":false,"pk":null,"quiz":"asia","code":null,"archived":false,"percentageOfSessions":null}, {"name":"Беликово","state":"Ivanovo","territory":"","country":"Russia","latitude":56.820141,"longitude":41.937408,"population":25,"stateCapital":false,"nationalCapital":false,"pk":null,"quiz":"asia","code":null,"archived":false,"percentageOfSessions":null}, {"name":"Белино","state":"Ivanovo","territory":"","country":"Russia","latitude":57.2990484,"longitude":41.1634403,"population":140,"stateCapital":false,"nationalCapital":false,"pk":null,"quiz":"asia","code":null,"archived":false,"percentageOfSessions":null}, {"name":"Беловское","state":"Ivanovo","territory":"","country":"Russia","latitude":57.18931,"longitude":41.5465124,"population":7,"stateCapital":false,"nationalCapital":false,"pk":null,"quiz":"asia","code":null,"archived":false,"percentageOfSessions":null}, {"name":"Белоногово","state":"Ivanovo","territory":"","country":"Russia","latitude":57.577716,"longitude":41.7878519,"population":0,"stateCapital":false,"nationalCapital":false,"pk":null,"quiz":"asia","code":null,"archived":false,"percentageOfSessions":null}, {"name":"Белоусиха","state":"Ivanovo","territory":"","country":"Russia","latitude":57.0404317,"longitude":41.2466161,"population":0,"stateCapital":false,"nationalCapital":false,"pk":null,"quiz":"asia","code":null,"archived":false,"percentageOfSessions":null}, {"name":"Белоусиха","state":"Ivanovo","territory":"","country":"Russia","latitude":57.2126728,"longitude":42.6533607,"population":17,"stateCapital":false,"nationalCapital":false,"pk":null,"quiz":"asia","code":null,"archived":false,"percentageOfSessions":null}, {"name":"Белоусиха","state":"Ivanovo","territory":"","country":"Russia","latitude":57.2732521,"longitude":43.0557316,"population":7,"stateCapital":false,"nationalCapital":false,"pk":null,"quiz":"asia","code":null,"archived":false,"percentageOfSessions":null}, {"name":"Белухино","state":"Ivanovo","territory":"","country":"Russia","latitude":57.3549936,"longitude":42.1030693,"population":12,"stateCapital":false,"nationalCapital":false,"pk":null,"quiz":"asia","code":null,"archived":false,"percentageOfSessions":null}, {"name":"Белькашево","state":"Ivanovo","territory":"","country":"Russia","latitude":57.2298772,"longitude":41.2487225,"population":8,"stateCapital":false,"nationalCapital":false,"pk":null,"quiz":"asia","code":null,"archived":false,"percentageOfSessions":null}, {"name":"Белькаши","state":"Ivanovo","territory":"","country":"Russia","latitude":57.4884092,"longitude":41.944207,"population":4,"stateCapital":false,"nationalCapital":false,"pk":null,"quiz":"asia","code":null,"archived":false,"percentageOfSessions":null}, {"name":"Беляево","state":"Ivanovo","territory":"","country":"Russia","latitude":57.0862722,"longitude":43.0322047,"population":0,"stateCapital":false,"nationalCapital":false,"pk":null,"quiz":"asia","code":null,"archived":false,"percentageOfSessions":null}, {"name":"Беляево","state":"Ivanovo","territory":"","country":"Russia","latitude":57.2770473,"longitude":42.8529116,"population":27,"stateCapital":false,"nationalCapital":false,"pk":null,"quiz":"asia","code":null,"archived":false,"percentageOfSessions":null}, {"name":"Беляницы","state":"Ivanovo","territory":"","country":"Russia","latitude":57.0244942,"longitude":40.8976628,"population":739,"stateCapital":false,"nationalCapital":false,"pk":null,"quiz":"asia","code":null,"archived":false,"percentageOfSessions":null}, {"name":"Белянки","state":"Ivanovo","territory":"","country":"Russia","latitude":57.4047242,"longitude":42.3509902,"population":0,"stateCapital":false,"nationalCapital":false,"pk":null,"quiz":"asia","code":null,"archived":false,"percentageOfSessions":null}, {"name":"Бенькино","state":"Ivanovo","territory":"","country":"Russia","latitude":57.3326252,"longitude":43.0502591,"population":6,"stateCapital":false,"nationalCapital":false,"pk":null,"quiz":"asia","code":null,"archived":false,"percentageOfSessions":null}, {"name":"Бердиха","state":"Ivanovo","territory":"","country":"Russia","latitude":57.3055542,"longitude":43.0487548,"population":0,"stateCapital":false,"nationalCapital":false,"pk":null,"quiz":"asia","code":null,"archived":false,"percentageOfSessions":null}, {"name":"Бердюково","state":"Ivanovo","territory":"","country":"Russia","latitude":57.0487844,"longitude":41.5500119,"population":17,"stateCapital":false,"nationalCapital":false,"pk":null,"quiz":"asia","code":null,"archived":false,"percentageOfSessions":null}, {"name":"Бережок","state":"Ivanovo","territory":"","country":"Russia","latitude":56.653171,"longitude":39.9278079,"population":249,"stateCapital":false,"nationalCapital":false,"pk":null,"quiz":"asia","code":null,"archived":false,"percentageOfSessions":null}, {"name":"Березники","state":"Ivanovo","territory":"","country":"Russia","latitude":57.4389498,"longitude":42.3899692,"population":2,"stateCapital":false,"nationalCapital":false,"pk":null,"quiz":"asia","code":null,"archived":false,"percentageOfSessions":null}, {"name":"Березники","state":"Ivanovo","territory":"","country":"Russia","latitude":57.1983325,"longitude":40.3872338,"population":79,"stateCapital":false,"nationalCapital":false,"pk":null,"quiz":"asia","code":null,"archived":false,"percentageOfSessions":null}, {"name":"Березники","state":"Ivanovo","territory":"","country":"Russia","latitude":57.016328,"longitude":41.7124388,"population":94,"stateCapital":false,"nationalCapital":false,"pk":null,"quiz":"asia","code":null,"archived":false,"percentageOfSessions":null}, {"name":"Березники","state":"Ivanovo","territory":"","country":"Russia","latitude":57.2626343,"longitude":40.9028672,"population":36,"stateCapital":false,"nationalCapital":false,"pk":null,"quiz":"asia","code":null,"archived":false,"percentageOfSessions":null}, {"name":"Березовик","state":"Ivanovo","territory":"","country":"Russia","latitude":56.8171952,"longitude":40.6422684,"population":17,"stateCapital":false,"nationalCapital":false,"pk":null,"quiz":"asia","code":null,"archived":false,"percentageOfSessions":null}, {"name":"Березовка","state":"Ivanovo","territory":"","country":"Russia","latitude":57.5412675,"longitude":42.3388841,"population":2,"stateCapital":false,"nationalCapital":false,"pk":null,"quiz":"asia","code":null,"archived":false,"percentageOfSessions":null}, {"name":"Березовка","state":"Ivanovo","territory":"","country":"Russia","latitude":57.4459394,"longitude":42.5887347,"population":4,"stateCapital":false,"nationalCapital":false,"pk":null,"quiz":"asia","code":null,"archived":false,"percentageOfSessions":null}, {"name":"Березово","state":"Ivanovo","territory":"","country":"Russia","latitude":57.3292649,"longitude":41.6537402,"population":3,"stateCapital":false,"nationalCapital":false,"pk":null,"quiz":"asia","code":null,"archived":false,"percentageOfSessions":null}, {"name":"Беркино","state":"Ivanovo","territory":"","country":"Russia","latitude":57.0077854,"longitude":40.7477328,"population":50,"stateCapital":false,"nationalCapital":false,"pk":null,"quiz":"asia","code":null,"archived":false,"percentageOfSessions":null}, {"name":"Берлово","state":"Ivanovo","territory":"","country":"Russia","latitude":56.8901432,"longitude":40.6858602,"population":6,"stateCapital":false,"nationalCapital":false,"pk":null,"quiz":"asia","code":null,"archived":false,"percentageOfSessions":null}, {"name":"Беседы","state":"Ivanovo","territory":"","country":"Russia","latitude":57.4199278,"longitude":41.80639,"population":0,"stateCapital":false,"nationalCapital":false,"pk":null,"quiz":"asia","code":null,"archived":false,"percentageOfSessions":null}, {"name":"Бибирево","state":"Ivanovo","territory":"","country":"Russia","latitude":57.1376154,"longitude":41.0384946,"population":236,"stateCapital":false,"nationalCapital":false,"pk":null,"quiz":"asia","code":null,"archived":false,"percentageOfSessions":null}, {"name":"Бильдюхино","state":"Ivanovo","territory":"","country":"Russia","latitude":56.826036,"longitude":41.3692892,"population":172,"stateCapital":false,"nationalCapital":false,"pk":null,"quiz":"asia","code":null,"archived":false,"percentageOfSessions":null}, {"name":"Билюково","state":"Ivanovo","territory":"","country":"Russia","latitude":56.9396739,"longitude":39.9107542,"population":3,"stateCapital":false,"nationalCapital":false,"pk":null,"quiz":"asia","code":null,"archived":false,"percentageOfSessions":null}, {"name":"Бирюково","state":"Ivanovo","territory":"","country":"Russia","latitude":56.8082454,"longitude":40.3969798,"population":11,"stateCapital":false,"nationalCapital":false,"pk":null,"quiz":"asia","code":null,"archived":false,"percentageOfSessions":null}, {"name":"Благинино","state":"Ivanovo","territory":"","country":"Russia","latitude":57.3345032,"longitude":41.3232556,"population":44,"stateCapital":false,"nationalCapital":false,"pk":null,"quiz":"asia","code":null,"archived":false,"percentageOfSessions":null}, {"name":"Благовещенье","state":"Ivanovo","territory":"","country":"Russia","latitude":57.017101,"longitude":42.405506,"population":256,"stateCapital":false,"nationalCapital":false,"pk":null,"quiz":"asia","code":null,"archived":false,"percentageOfSessions":null}, {"name":"Ближняя","state":"Ivanovo","territory":"","country":"Russia","latitude":56.6490345,"longitude":41.3470149,"population":0,"stateCapital":false,"nationalCapital":false,"pk":null,"quiz":"asia","code":null,"archived":false,"percentageOfSessions":null}, {"name":"Блиниха","state":"Ivanovo","territory":"","country":"Russia","latitude":57.074296,"longitude":42.6332755,"population":46,"stateCapital":false,"nationalCapital":false,"pk":null,"quiz":"asia","code":null,"archived":false,"percentageOfSessions":null}, {"name":"Блинново","state":"Ivanovo","territory":"","country":"Russia","latitude":57.0832012,"longitude":43.0023372,"population":15,"stateCapital":false,"nationalCapital":false,"pk":null,"quiz":"asia","code":null,"archived":false,"percentageOfSessions":null}, {"name":"Блудницыно","state":"Ivanovo","territory":"","country":"Russia","latitude":56.9686953,"longitude":41.6494255,"population":4,"stateCapital":false,"nationalCapital":false,"pk":null,"quiz":"asia","code":null,"archived":false,"percentageOfSessions":null}, {"name":"Боброво","state":"Ivanovo","territory":"","country":"Russia","latitude":56.5098138,"longitude":41.4918016,"population":0,"stateCapital":false,"nationalCapital":false,"pk":null,"quiz":"asia","code":null,"archived":false,"percentageOfSessions":null}, {"name":"Боброково","state":"Ivanovo","territory":"","country":"Russia","latitude":57.080775,"longitude":41.4324695,"population":17,"stateCapital":false,"nationalCapital":false,"pk":null,"quiz":"asia","code":null,"archived":false,"percentageOfSessions":null}, {"name":"Бобры","state":"Ivanovo","territory":"","country":"Russia","latitude":57.0638054,"longitude":42.7534489,"population":0,"stateCapital":false,"nationalCapital":false,"pk":null,"quiz":"asia","code":null,"archived":false,"percentageOfSessions":null}, {"name":"Бобры","state":"Ivanovo","territory":"","country":"Russia","latitude":57.0021694,"longitude":41.6167196,"population":1,"stateCapital":false,"nationalCapital":false,"pk":null,"quiz":"asia","code":null,"archived":false,"percentageOfSessions":null}, {"name":"Богатищи","state":"Ivanovo","territory":"","country":"Russia","latitude":56.857563,"longitude":41.873405,"population":9,"stateCapital":false,"nationalCapital":false,"pk":null,"quiz":"asia","code":null,"archived":false,"percentageOfSessions":null}, {"name":"Богатырево","state":"Ivanovo","territory":"","country":"Russia","latitude":56.8476279,"longitude":40.3347798,"population":48,"stateCapital":false,"nationalCapital":false,"pk":null,"quiz":"asia","code":null,"archived":false,"percentageOfSessions":null}, {"name":"Богданиха","state":"Ivanovo","territory":"","country":"Russia","latitude":56.9190063,"longitude":41.1208283,"population":1707,"stateCapital":false,"nationalCapital":false,"pk":null,"quiz":"asia","code":null,"archived":false,"percentageOfSessions":null}, {"name":"Богомолово","state":"Ivanovo","territory":"","country":"Russia","latitude":57.3490283,"longitude":43.0483506,"population":15,"stateCapital":false,"nationalCapital":false,"pk":null,"quiz":"asia","code":null,"archived":false,"percentageOfSessions":null}, {"name":"Богородское","state":"Ivanovo","territory":"","country":"Russia","latitude":57.0446153,"longitude":41.0123558,"population":18,"stateCapital":false,"nationalCapital":false,"pk":null,"quiz":"asia","code":null,"archived":false,"percentageOfSessions":null}, {"name":"Богородское","state":"Ivanovo","territory":"","country":"Russia","latitude":57.0446153,"longitude":41.0123558,"population":2969,"stateCapital":false,"nationalCapital":false,"pk":null,"quiz":"asia","code":null,"archived":false,"percentageOfSessions":null}, {"name":"Богот","state":"Ivanovo","territory":"","country":"Russia","latitude":57.3460261,"longitude":42.1063013,"population":166,"stateCapital":false,"nationalCapital":false,"pk":null,"quiz":"asia","code":null,"archived":false,"percentageOfSessions":null}, {"name":"Боевик","state":"Ivanovo","territory":"","country":"Russia","latitude":56.9480292,"longitude":41.083333,"population":104,"stateCapital":false,"nationalCapital":false,"pk":null,"quiz":"asia","code":null,"archived":false,"percentageOfSessions":null}, {"name":"Бокари","state":"Ivanovo","territory":"","country":"Russia","latitude":56.851273,"longitude":42.070873,"population":63,"stateCapital":false,"nationalCapital":false,"pk":null,"quiz":"asia","code":null,"archived":false,"percentageOfSessions":null}, {"name":"Болгачиново","state":"Ivanovo","territory":"","country":"Russia","latitude":56.985849,"longitude":40.0010847,"population":6,"stateCapital":false,"nationalCapital":false,"pk":null,"quiz":"asia","code":null,"archived":false,"percentageOfSessions":null}, {"name":"Болгово Большое","state":"Ivanovo","territory":"","country":"Russia","latitude":56.8058752,"longitude":40.7472788,"population":12,"stateCapital":false,"nationalCapital":false,"pk":null,"quiz":"asia","code":null,"archived":false,"percentageOfSessions":null}, {"name":"Болгово Малое","state":"Ivanovo","territory":"","country":"Russia","latitude":56.7996876,"longitude":40.7428973,"population":7,"stateCapital":false,"nationalCapital":false,"pk":null,"quiz":"asia","code":null,"archived":false,"percentageOfSessions":null}, {"name":"Болобино","state":"Ivanovo","territory":"","country":"Russia","latitude":56.7411121,"longitude":42.55397,"population":17,"stateCapital":false,"nationalCapital":false,"pk":null,"quiz":"asia","code":null,"archived":false,"percentageOfSessions":null}, {"name":"Болотниково","state":"Ivanovo","territory":"","country":"Russia","latitude":57.5039138,"longitude":42.1271124,"population":14,"stateCapital":false,"nationalCapital":false,"pk":null,"quiz":"asia","code":null,"archived":false,"percentageOfSessions":null}, {"name":"Болотново","state":"Ivanovo","territory":"","country":"Russia","latitude":56.963932,"longitude":41.876694,"population":415,"stateCapital":false,"nationalCapital":false,"pk":null,"quiz":"asia","code":null,"archived":false,"percentageOfSessions":null}, {"name":"Болсово","state":"Ivanovo","territory":"","country":"Russia","latitude":56.8902013,"longitude":43.1444634,"population":0,"stateCapital":false,"nationalCapital":false,"pk":null,"quiz":"asia","code":null,"archived":false,"percentageOfSessions":null}, {"name":"Болтино","state":"Ivanovo","territory":"","country":"Russia","latitude":57.0908001,"longitude":41.6787859,"population":13,"stateCapital":false,"nationalCapital":false,"pk":null,"quiz":"asia","code":null,"archived":false,"percentageOfSessions":null}, {"name":"Большая Протасиха","state":"Ivanovo","territory":"","country":"Russia","latitude":56.9322425,"longitude":43.0773002,"population":12,"stateCapital":false,"nationalCapital":false,"pk":null,"quiz":"asia","code":null,"archived":false,"percentageOfSessions":null}, {"name":"Большое","state":"Ivanovo","territory":"","country":"Russia","latitude":56.49317,"longitude":42.2858076,"population":0,"stateCapital":false,"nationalCapital":false,"pk":null,"quiz":"asia","code":null,"archived":false,"percentageOfSessions":null}, {"name":"Боняково","state":"Ivanovo","territory":"","country":"Russia","latitude":56.6376314,"longitude":41.4043325,"population":0,"stateCapital":false,"nationalCapital":false,"pk":null,"quiz":"asia","code":null,"archived":false,"percentageOfSessions":null}, {"name":"Бордовое","state":"Ivanovo","territory":"","country":"Russia","latitude":56.879341,"longitude":39.506986,"population":38,"stateCapital":false,"nationalCapital":false,"pk":null,"quiz":"asia","code":null,"archived":false,"percentageOfSessions":null}, {"name":"Борис-Глеб","state":"Ivanovo","territory":"","country":"Russia","latitude":57.104917,"longitude":41.672371,"population":2,"stateCapital":false,"nationalCapital":false,"pk":null,"quiz":"asia","code":null,"archived":false,"percentageOfSessions":null}, {"name":"Борисенки","state":"Ivanovo","territory":"","country":"Russia","latitude":56.9646366,"longitude":43.1582953,"population":38,"stateCapital":false,"nationalCapital":false,"pk":null,"quiz":"asia","code":null,"archived":false,"percentageOfSessions":null}, {"name":"Борисково","state":"Ivanovo","territory":"","country":"Russia","latitude":57.3742806,"longitude":41.2426807,"population":45,"stateCapital":false,"nationalCapital":false,"pk":null,"quiz":"asia","code":null,"archived":false,"percentageOfSessions":null}, {"name":"Борисовка","state":"Ivanovo","territory":"","country":"Russia","latitude":56.7251567,"longitude":41.7230241,"population":0,"stateCapital":false,"nationalCapital":false,"pk":null,"quiz":"asia","code":null,"archived":false,"percentageOfSessions":null}, {"name":"Борисово","state":"Ivanovo","territory":"","country":"Russia","latitude":56.7066621,"longitude":42.5586266,"population":8,"stateCapital":false,"nationalCapital":false,"pk":null,"quiz":"asia","code":null,"archived":false,"percentageOfSessions":null}, {"name":"Борисово","state":"Ivanovo","territory":"","country":"Russia","latitude":57.0018779,"longitude":42.8712497,"population":1,"stateCapital":false,"nationalCapital":false,"pk":null,"quiz":"asia","code":null,"archived":false,"percentageOfSessions":null}, {"name":"Борисцево","state":"Ivanovo","territory":"","country":"Russia","latitude":57.5022234,"longitude":42.0700209,"population":23,"stateCapital":false,"nationalCapital":false,"pk":null,"quiz":"asia","code":null,"archived":false,"percentageOfSessions":null}, {"name":"Борисцево","state":"Ivanovo","territory":"","country":"Russia","latitude":56.7137945,"longitude":41.0204727,"population":16,"stateCapital":false,"nationalCapital":false,"pk":null,"quiz":"asia","code":null,"archived":false,"percentageOfSessions":null}, {"name":"Боровитиха","state":"Ivanovo","territory":"","country":"Russia","latitude":57.2631607,"longitude":41.9505727,"population":16,"stateCapital":false,"nationalCapital":false,"pk":null,"quiz":"asia","code":null,"archived":false,"percentageOfSessions":null}, {"name":"Боровое","state":"Ivanovo","territory":"","country":"Russia","latitude":57.2518099,"longitude":42.7082599,"population":3,"stateCapital":false,"nationalCapital":false,"pk":null,"quiz":"asia","code":null,"archived":false,"percentageOfSessions":null}, {"name":"Бородино","state":"Ivanovo","territory":"","country":"Russia","latitude":56.5522127,"longitude":40.2521953,"population":1332,"stateCapital":false,"nationalCapital":false,"pk":null,"quiz":"asia","code":null,"archived":false,"percentageOfSessions":null}, {"name":"Бородино","state":"Ivanovo","territory":"","country":"Russia","latitude":57.2267525,"longitude":42.3152215,"population":0,"stateCapital":false,"nationalCapital":false,"pk":null,"quiz":"asia","code":null,"archived":false,"percentageOfSessions":null}, {"name":"Бородино","state":"Ivanovo","territory":"","country":"Russia","latitude":56.786659,"longitude":42.072968,"population":21,"stateCapital":false,"nationalCapital":false,"pk":null,"quiz":"asia","code":null,"archived":false,"percentageOfSessions":null}, {"name":"Бородкино","state":"Ivanovo","territory":"","country":"Russia","latitude":57.2962637,"longitude":41.6232661,"population":12,"stateCapital":false,"nationalCapital":false,"pk":null,"quiz":"asia","code":null,"archived":false,"percentageOfSessions":null}, {"name":"Борок","state":"Ivanovo","territory":"","country":"Russia","latitude":56.5883992,"longitude":41.8622688,"population":49,"stateCapital":false,"nationalCapital":false,"pk":null,"quiz":"asia","code":null,"archived":false,"percentageOfSessions":null}, {"name":"Бортиха","state":"Ivanovo","territory":"","country":"Russia","latitude":57.2914669,"longitude":41.7584297,"population":0,"stateCapital":false,"nationalCapital":false,"pk":null,"quiz":"asia","code":null,"archived":false,"percentageOfSessions":null}, {"name":"Бортниково","state":"Ivanovo","territory":"","country":"Russia","latitude":57.1226743,"longitude":39.9184836,"population":0,"stateCapital":false,"nationalCapital":false,"pk":null,"quiz":"asia","code":null,"archived":false,"percentageOfSessions":null}, {"name":"Бортницы","state":"Ivanovo","territory":"","country":"Russia","latitude":56.9950775,"longitude":41.844195,"population":2,"stateCapital":false,"nationalCapital":false,"pk":null,"quiz":"asia","code":null,"archived":false,"percentageOfSessions":null}, {"name":"Бортное Большое","state":"Ivanovo","territory":"","country":"Russia","latitude":56.8140613,"longitude":42.7606521,"population":21,"stateCapital":false,"nationalCapital":false,"pk":null,"quiz":"asia","code":null,"archived":false,"percentageOfSessions":null}, {"name":"Борутиха","state":"Ivanovo","territory":"","country":"Russia","latitude":57.3780981,"longitude":41.8235436,"population":73,"stateCapital":false,"nationalCapital":false,"pk":null,"quiz":"asia","code":null,"archived":false,"percentageOfSessions":null}, {"name":"Борщевка","state":"Ivanovo","territory":"","country":"Russia","latitude":57.4085724,"longitude":41.7921224,"population":22,"stateCapital":false,"nationalCapital":false,"pk":null,"quiz":"asia","code":null,"archived":false,"percentageOfSessions":null}, {"name":"Борщевка","state":"Ivanovo","territory":"","country":"Russia","latitude":57.443962,"longitude":41.6761663,"population":12,"stateCapital":false,"nationalCapital":false,"pk":null,"quiz":"asia","code":null,"archived":false,"percentageOfSessions":null}, {"name":"Борщево","state":"Ivanovo","territory":"","country":"Russia","latitude":57.0794808,"longitude":41.7566288,"population":28,"stateCapital":false,"nationalCapital":false,"pk":null,"quiz":"asia","code":null,"archived":false,"percentageOfSessions":null}, {"name":"Боры","state":"Ivanovo","territory":"","country":"Russia","latitude":57.323398,"longitude":41.9562902,"population":2,"stateCapital":false,"nationalCapital":false,"pk":null,"quiz":"asia","code":null,"archived":false,"percentageOfSessions":null}, {"name":"Борячиха","state":"Ivanovo","territory":"","country":"Russia","latitude":56.9506712,"longitude":41.4368618,"population":4,"stateCapital":false,"nationalCapital":false,"pk":null,"quiz":"asia","code":null,"archived":false,"percentageOfSessions":null}, {"name":"Ботеево","state":"Ivanovo","territory":"","country":"Russia","latitude":57.2746147,"longitude":41.0991672,"population":61,"stateCapital":false,"nationalCapital":false,"pk":null,"quiz":"asia","code":null,"archived":false,"percentageOfSessions":null}, {"name":"Ботынино","state":"Ivanovo","territory":"","country":"Russia","latitude":57.3279964,"longitude":42.8367806,"population":0,"stateCapital":false,"nationalCapital":false,"pk":null,"quiz":"asia","code":null,"archived":false,"percentageOfSessions":null}, {"name":"Бражново","state":"Ivanovo","territory":"","country":"Russia","latitude":56.811062,"longitude":42.214485,"population":25,"stateCapital":false,"nationalCapital":false,"pk":null,"quiz":"asia","code":null,"archived":false,"percentageOfSessions":null}, {"name":"Бразино","state":"Ivanovo","territory":"","country":"Russia","latitude":57.1647981,"longitude":40.4576681,"population":9,"stateCapital":false,"nationalCapital":false,"pk":null,"quiz":"asia","code":null,"archived":false,"percentageOfSessions":null}, {"name":"Братилово","state":"Ivanovo","territory":"","country":"Russia","latitude":57.3544681,"longitude":41.9547891,"population":13,"stateCapital":false,"nationalCapital":false,"pk":null,"quiz":"asia","code":null,"archived":false,"percentageOfSessions":null}, {"name":"Бредихино","state":"Ivanovo","territory":"","country":"Russia","latitude":57.4772749,"longitude":42.1622088,"population":131,"stateCapital":false,"nationalCapital":false,"pk":null,"quiz":"asia","code":null,"archived":false,"percentageOfSessions":null}, {"name":"Бродки","state":"Ivanovo","territory":"","country":"Russia","latitude":57.2938009,"longitude":41.4553251,"population":2,"stateCapital":false,"nationalCapital":false,"pk":null,"quiz":"asia","code":null,"archived":false,"percentageOfSessions":null}, {"name":"Бруснижново","state":"Ivanovo","territory":"","country":"Russia","latitude":56.747754,"longitude":41.1095552,"population":0,"stateCapital":false,"nationalCapital":false,"pk":null,"quiz":"asia","code":null,"archived":false,"percentageOfSessions":null}, {"name":"Брусово Большое","state":"Ivanovo","territory":"","country":"Russia","latitude":56.9047448,"longitude":42.5109016,"population":20,"stateCapital":false,"nationalCapital":false,"pk":null,"quiz":"asia","code":null,"archived":false,"percentageOfSessions":null}, {"name":"Брылиха","state":"Ivanovo","territory":"","country":"Russia","latitude":56.812091,"longitude":41.2410082,"population":3,"stateCapital":false,"nationalCapital":false,"pk":null,"quiz":"asia","code":null,"archived":false,"percentageOfSessions":null}, {"name":"Брюхатово","state":"Ivanovo","territory":"","country":"Russia","latitude":56.6295296,"longitude":42.8734078,"population":0,"stateCapital":false,"nationalCapital":false,"pk":null,"quiz":"asia","code":null,"archived":false,"percentageOfSessions":null}, {"name":"Брюховая","state":"Ivanovo","territory":"","country":"Russia","latitude":56.400761,"longitude":42.055611,"population":3,"stateCapital":false,"nationalCapital":false,"pk":null,"quiz":"asia","code":null,"archived":false,"percentageOfSessions":null}, {"name":"Брюхово","state":"Ivanovo","territory":"","country":"Russia","latitude":57.1094386,"longitude":40.6900867,"population":141,"stateCapital":false,"nationalCapital":false,"pk":null,"quiz":"asia","code":null,"archived":false,"percentageOfSessions":null}, {"name":"Брюшково","state":"Ivanovo","territory":"","country":"Russia","latitude":57.0346391,"longitude":39.7741528,"population":3,"stateCapital":false,"nationalCapital":false,"pk":null,"quiz":"asia","code":null,"archived":false,"percentageOfSessions":null}, {"name":"Бубякино","state":"Ivanovo","territory":"","country":"Russia","latitude":57.3874975,"longitude":42.6554674,"population":0,"stateCapital":false,"nationalCapital":false,"pk":null,"quiz":"asia","code":null,"archived":false,"percentageOfSessions":null}, {"name":"Бугрино","state":"Ivanovo","territory":"","country":"Russia","latitude":57.04515,"longitude":40.1432702,"population":0,"stateCapital":false,"nationalCapital":false,"pk":null,"quiz":"asia","code":null,"archived":false,"percentageOfSessions":null}, {"name":"Будилово","state":"Ivanovo","territory":"","country":"Russia","latitude":57.4029826,"longitude":42.6008432,"population":2,"stateCapital":false,"nationalCapital":false,"pk":null,"quiz":"asia","code":null,"archived":false,"percentageOfSessions":null}, {"name":"Бузинская","state":"Ivanovo","territory":"","country":"Russia","latitude":57.4210902,"longitude":42.5673012,"population":11,"stateCapital":false,"nationalCapital":false,"pk":null,"quiz":"asia","code":null,"archived":false,"percentageOfSessions":null}, {"name":"Букино","state":"Ivanovo","territory":"","country":"Russia","latitude":56.923566,"longitude":43.153903,"population":7,"stateCapital":false,"nationalCapital":false,"pk":null,"quiz":"asia","code":null,"archived":false,"percentageOfSessions":null}, {"name":"Буково","state":"Ivanovo","territory":"","country":"Russia","latitude":57.183842,"longitude":41.6489604,"population":6,"stateCapital":false,"nationalCapital":false,"pk":null,"quiz":"asia","code":null,"archived":false,"percentageOfSessions":null}, {"name":"Булавино","state":"Ivanovo","territory":"","country":"Russia","latitude":57.3789542,"longitude":42.1521069,"population":35,"stateCapital":false,"nationalCapital":false,"pk":null,"quiz":"asia","code":null,"archived":false,"percentageOfSessions":null}, {"name":"Булатиха","state":"Ivanovo","territory":"","country":"Russia","latitude":57.1444639,"longitude":42.1316775,"population":18,"stateCapital":false,"nationalCapital":false,"pk":null,"quiz":"asia","code":null,"archived":false,"percentageOfSessions":null}, {"name":"Булатцево","state":"Ivanovo","territory":"","country":"Russia","latitude":56.6808105,"longitude":40.9038897,"population":3,"stateCapital":false,"nationalCapital":false,"pk":null,"quiz":"asia","code":null,"archived":false,"percentageOfSessions":null}, {"name":"Булгаково","state":"Ivanovo","territory":"","country":"Russia","latitude":56.5529271,"longitude":40.4211751,"population":6,"stateCapital":false,"nationalCapital":false,"pk":null,"quiz":"asia","code":null,"archived":false,"percentageOfSessions":null}, {"name":"Буньково","state":"Ivanovo","territory":"","country":"Russia","latitude":57.0662632,"longitude":40.7044969,"population":489,"stateCapital":false,"nationalCapital":false,"pk":null,"quiz":"asia","code":null,"archived":false,"percentageOfSessions":null}, {"name":"Бураково","state":"Ivanovo","territory":"","country":"Russia","latitude":57.0617759,"longitude":41.439691,"population":1,"stateCapital":false,"nationalCapital":false,"pk":null,"quiz":"asia","code":null,"archived":false,"percentageOfSessions":null}, {"name":"Бураково","state":"Ivanovo","territory":"","country":"Russia","latitude":56.8336382,"longitude":40.6370274,"population":32,"stateCapital":false,"nationalCapital":false,"pk":null,"quiz":"asia","code":null,"archived":false,"percentageOfSessions":null}, {"name":"Бурачиха","state":"Ivanovo","territory":"","country":"Russia","latitude":56.6568106,"longitude":39.8940687,"population":0,"stateCapital":false,"nationalCapital":false,"pk":null,"quiz":"asia","code":null,"archived":false,"percentageOfSessions":null}, {"name":"Бурдаки","state":"Ivanovo","territory":"","country":"Russia","latitude":56.9323804,"longitude":40.1319991,"population":0,"stateCapital":false,"nationalCapital":false,"pk":null,"quiz":"asia","code":null,"archived":false,"percentageOfSessions":null}, {"name":"Бурдинка","state":"Ivanovo","territory":"","country":"Russia","latitude":56.752457,"longitude":41.81921,"population":11,"stateCapital":false,"nationalCapital":false,"pk":null,"quiz":"asia","code":null,"archived":false,"percentageOfSessions":null}, {"name":"Бурково","state":"Ivanovo","territory":"","country":"Russia","latitude":56.9293342,"longitude":42.3370393,"population":22,"stateCapital":false,"nationalCapital":false,"pk":null,"quiz":"asia","code":null,"archived":false,"percentageOfSessions":null}, {"name":"Бурково","state":"Ivanovo","territory":"","country":"Russia","latitude":57.1390284,"longitude":43.0102133,"population":5,"stateCapital":false,"nationalCapital":false,"pk":null,"quiz":"asia","code":null,"archived":false,"percentageOfSessions":null}, {"name":"Бурмакино","state":"Ivanovo","territory":"","country":"Russia","latitude":56.9066387,"longitude":41.1754798,"population":10,"stateCapital":false,"nationalCapital":false,"pk":null,"quiz":"asia","code":null,"archived":false,"percentageOfSessions":null}, {"name":"Бутово","state":"Ivanovo","territory":"","country":"Russia","latitude":57.4480786,"longitude":41.7689995,"population":15,"stateCapital":false,"nationalCapital":false,"pk":null,"quiz":"asia","code":null,"archived":false,"percentageOfSessions":null}, {"name":"Бутово","state":"Ivanovo","territory":"","country":"Russia","latitude":57.1425306,"longitude":40.4424702,"population":271,"stateCapital":false,"nationalCapital":false,"pk":null,"quiz":"asia","code":null,"archived":false,"percentageOfSessions":null}, {"name":"Бутырево","state":"Ivanovo","territory":"","country":"Russia","latitude":57.0061046,"longitude":39.5945984,"population":2,"stateCapital":false,"nationalCapital":false,"pk":null,"quiz":"asia","code":null,"archived":false,"percentageOfSessions":null}, {"name":"Бутырки","state":"Ivanovo","territory":"","country":"Russia","latitude":57.2065498,"longitude":41.5204879,"population":4,"stateCapital":false,"nationalCapital":false,"pk":null,"quiz":"asia","code":null,"archived":false,"percentageOfSessions":null}, {"name":"Бухарево","state":"Ivanovo","territory":"","country":"Russia","latitude":57.5563605,"longitude":42.2725775,"population":0,"stateCapital":false,"nationalCapital":false,"pk":null,"quiz":"asia","code":null,"archived":false,"percentageOfSessions":null}, {"name":"Бухарино","state":"Ivanovo","territory":"","country":"Russia","latitude":57.1198888,"longitude":41.9180901,"population":0,"stateCapital":false,"nationalCapital":false,"pk":null,"quiz":"asia","code":null,"archived":false,"percentageOfSessions":null}, {"name":"Бухарино","state":"Ivanovo","territory":"","country":"Russia","latitude":57.1387603,"longitude":42.9858863,"population":4,"stateCapital":false,"nationalCapital":false,"pk":null,"quiz":"asia","code":null,"archived":false,"percentageOfSessions":null}, {"name":"Бухарово","state":"Ivanovo","territory":"","country":"Russia","latitude":56.9443693,"longitude":40.9845673,"population":576,"stateCapital":false,"nationalCapital":false,"pk":null,"quiz":"asia","code":null,"archived":false,"percentageOfSessions":null}, {"name":"Бушариха","state":"Ivanovo","territory":"","country":"Russia","latitude":56.5797583,"longitude":40.3797705,"population":109,"stateCapital":false,"nationalCapital":false,"pk":null,"quiz":"asia","code":null,"archived":false,"percentageOfSessions":null}, {"name":"Бушманово","state":"Ivanovo","territory":"","country":"Russia","latitude":56.7616254,"longitude":40.7713445,"population":26,"stateCapital":false,"nationalCapital":false,"pk":null,"quiz":"asia","code":null,"archived":false,"percentageOfSessions":null}, {"name":"Буяково","state":"Ivanovo","territory":"","country":"Russia","latitude":57.5156929,"longitude":41.9518476,"population":0,"stateCapital":false,"nationalCapital":false,"pk":null,"quiz":"asia","code":null,"archived":false,"percentageOfSessions":null}, {"name":"Буяново","state":"Ivanovo","territory":"","country":"Russia","latitude":57.0471402,"longitude":42.1918053,"population":6,"stateCapital":false,"nationalCapital":false,"pk":null,"quiz":"asia","code":null,"archived":false,"percentageOfSessions":null}, {"name":"Быковка","state":"Ivanovo","territory":"","country":"Russia","latitude":57.5494989,"longitude":41.9954831,"population":3,"stateCapital":false,"nationalCapital":false,"pk":null,"quiz":"asia","code":null,"archived":false,"percentageOfSessions":null}, {"name":"Быковка","state":"Ivanovo","territory":"","country":"Russia","latitude":57.4437412,"longitude":41.922375,"population":16,"stateCapital":false,"nationalCapital":false,"pk":null,"quiz":"asia","code":null,"archived":false,"percentageOfSessions":null}, {"name":"Быковка","state":"Ivanovo","territory":"","country":"Russia","latitude":56.7196791,"longitude":40.9391011,"population":20,"stateCapital":false,"nationalCapital":false,"pk":null,"quiz":"asia","code":null,"archived":false,"percentageOfSessions":null}, {"name":"Быково","state":"Ivanovo","territory":"","country":"Russia","latitude":56.8904774,"longitude":42.2540446,"population":353,"stateCapital":false,"nationalCapital":false,"pk":null,"quiz":"asia","code":null,"archived":false,"percentageOfSessions":null}, {"name":"Быково","state":"Ivanovo","territory":"","country":"Russia","latitude":56.8904774,"longitude":42.2540446,"population":20,"stateCapital":false,"nationalCapital":false,"pk":null,"quiz":"asia","code":null,"archived":false,"percentageOfSessions":null}, {"name":"Быково","state":"Ivanovo","territory":"","country":"Russia","latitude":56.6916357,"longitude":42.4767423,"population":0,"stateCapital":false,"nationalCapital":false,"pk":null,"quiz":"asia","code":null,"archived":false,"percentageOfSessions":null}, {"name":"Быково","state":"Ivanovo","territory":"","country":"Russia","latitude":57.010605,"longitude":42.951904,"population":0,"stateCapital":false,"nationalCapital":false,"pk":null,"quiz":"asia","code":null,"archived":false,"percentageOfSessions":null}, {"name":"Быково","state":"Ivanovo","territory":"","country":"Russia","latitude":56.7366421,"longitude":40.5501163,"population":3,"stateCapital":false,"nationalCapital":false,"pk":null,"quiz":"asia","code":null,"archived":false,"percentageOfSessions":null}, {"name":"Быково","state":"Ivanovo","territory":"","country":"Russia","latitude":57.297392,"longitude":41.104225,"population":27,"stateCapital":false,"nationalCapital":false,"pk":null,"quiz":"asia","code":null,"archived":false,"percentageOfSessions":null}, {"name":"Быково","state":"Ivanovo","territory":"","country":"Russia","latitude":56.6610901,"longitude":42.1304232,"population":2,"stateCapital":false,"nationalCapital":false,"pk":null,"quiz":"asia","code":null,"archived":false,"percentageOfSessions":null}, {"name":"Быстри","state":"Ivanovo","territory":"","country":"Russia","latitude":57.2949819,"longitude":41.8996884,"population":40,"stateCapital":false,"nationalCapital":false,"pk":null,"quiz":"asia","code":null,"archived":false,"percentageOfSessions":null}, {"name":"Быстри","state":"Ivanovo","territory":"","country":"Russia","latitude":56.7806564,"longitude":39.9292664,"population":2,"stateCapital":false,"nationalCapital":false,"pk":null,"quiz":"asia","code":null,"archived":false,"percentageOfSessions":null}, {"name":"Быстрица","state":"Ivanovo","territory":"","country":"Russia","latitude":57.3794287,"longitude":42.8322693,"population":4,"stateCapital":false,"nationalCapital":false,"pk":null,"quiz":"asia","code":null,"archived":false,"percentageOfSessions":null}, {"name":"Бяково","state":"Ivanovo","territory":"","country":"Russia","latitude":57.0639341,"longitude":41.0669416,"population":44,"stateCapital":false,"nationalCapital":false,"pk":null,"quiz":"asia","code":null,"archived":false,"percentageOfSessions":null}, {"name":"Вадищево","state":"Ivanovo","territory":"","country":"Russia","latitude":56.9533343,"longitude":42.1269897,"population":17,"stateCapital":false,"nationalCapital":false,"pk":null,"quiz":"asia","code":null,"archived":false,"percentageOfSessions":null}, {"name":"Вакорино","state":"Ivanovo","territory":"","country":"Russia","latitude":57.2975585,"longitude":40.9282002,"population":1,"stateCapital":false,"nationalCapital":false,"pk":null,"quiz":"asia","code":null,"archived":false,"percentageOfSessions":null}, {"name":"Валгусиха","state":"Ivanovo","territory":"","country":"Russia","latitude":57.4287566,"longitude":42.3157697,"population":0,"stateCapital":false,"nationalCapital":false,"pk":null,"quiz":"asia","code":null,"archived":false,"percentageOfSessions":null}, {"name":"Валы","state":"Ivanovo","territory":"","country":"Russia","latitude":57.4303938,"longitude":42.7770027,"population":3,"stateCapital":false,"nationalCapital":false,"pk":null,"quiz":"asia","code":null,"archived":false,"percentageOfSessions":null}, {"name":"Вандышево","state":"Ivanovo","territory":"","country":"Russia","latitude":57.3193127,"longitude":41.6470535,"population":98,"stateCapital":false,"nationalCapital":false,"pk":null,"quiz":"asia","code":null,"archived":false,"percentageOfSessions":null}, {"name":"Вандышиха","state":"Ivanovo","territory":"","country":"Russia","latitude":56.9981196,"longitude":43.0587548,"population":2,"stateCapital":false,"nationalCapital":false,"pk":null,"quiz":"asia","code":null,"archived":false,"percentageOfSessions":null}, {"name":"Ванино","state":"Ivanovo","territory":"","country":"Russia","latitude":56.8485544,"longitude":42.2827587,"population":10,"stateCapital":false,"nationalCapital":false,"pk":null,"quiz":"asia","code":null,"archived":false,"percentageOfSessions":null}, {"name":"Ванино","state":"Ivanovo","territory":"","country":"Russia","latitude":57.2441806,"longitude":41.5069793,"population":0,"stateCapital":false,"nationalCapital":false,"pk":null,"quiz":"asia","code":null,"archived":false,"percentageOfSessions":null}, {"name":"Вантино","state":"Ivanovo","territory":"","country":"Russia","latitude":56.9091312,"longitude":40.5920374,"population":10,"stateCapital":false,"nationalCapital":false,"pk":null,"quiz":"asia","code":null,"archived":false,"percentageOfSessions":null}, {"name":"Ваньково","state":"Ivanovo","territory":"","country":"Russia","latitude":57.2755712,"longitude":42.7078429,"population":132,"stateCapital":false,"nationalCapital":false,"pk":null,"quiz":"asia","code":null,"archived":false,"percentageOfSessions":null}, {"name":"Ванюково","state":"Ivanovo","territory":"","country":"Russia","latitude":57.2420075,"longitude":42.542193,"population":12,"stateCapital":false,"nationalCapital":false,"pk":null,"quiz":"asia","code":null,"archived":false,"percentageOfSessions":null}, {"name":"Ванютино","state":"Ivanovo","territory":"","country":"Russia","latitude":57.4319182,"longitude":41.7921076,"population":0,"stateCapital":false,"nationalCapital":false,"pk":null,"quiz":"asia","code":null,"archived":false,"percentageOfSessions":null}, {"name":"Варашино","state":"Ivanovo","territory":"","country":"Russia","latitude":57.2311175,"longitude":42.343042,"population":0,"stateCapital":false,"nationalCapital":false,"pk":null,"quiz":"asia","code":null,"archived":false,"percentageOfSessions":null}, {"name":"Варварино","state":"Ivanovo","territory":"","country":"Russia","latitude":57.110683,"longitude":39.9681275,"population":0,"stateCapital":false,"nationalCapital":false,"pk":null,"quiz":"asia","code":null,"archived":false,"percentageOfSessions":null}, {"name":"Варварино","state":"Ivanovo","territory":"","country":"Russia","latitude":56.718791,"longitude":40.3273925,"population":5,"stateCapital":false,"nationalCapital":false,"pk":null,"quiz":"asia","code":null,"archived":false,"percentageOfSessions":null}, {"name":"Варвариха","state":"Ivanovo","territory":"","country":"Russia","latitude":57.171618,"longitude":41.5463459,"population":7,"stateCapital":false,"nationalCapital":false,"pk":null,"quiz":"asia","code":null,"archived":false,"percentageOfSessions":null}, {"name":"Вареево","state":"Ivanovo","territory":"","country":"Russia","latitude":56.880379,"longitude":42.03714,"population":2,"stateCapital":false,"nationalCapital":false,"pk":null,"quiz":"asia","code":null,"archived":false,"percentageOfSessions":null}, {"name":"Василево","state":"Ivanovo","territory":"","country":"Russia","latitude":56.821658,"longitude":39.9327813,"population":6,"stateCapital":false,"nationalCapital":false,"pk":null,"quiz":"asia","code":null,"archived":false,"percentageOfSessions":null}, {"name":"Василево","state":"Ivanovo","territory":"","country":"Russia","latitude":56.9959534,"longitude":41.1916341,"population":59,"stateCapital":false,"nationalCapital":false,"pk":null,"quiz":"asia","code":null,"archived":false,"percentageOfSessions":null}, {"name":"Василево","state":"Ivanovo","territory":"","country":"Russia","latitude":57.363152,"longitude":41.3001304,"population":145,"stateCapital":false,"nationalCapital":false,"pk":null,"quiz":"asia","code":null,"archived":false,"percentageOfSessions":null}, {"name":"Василево","state":"Ivanovo","territory":"","country":"Russia","latitude":57.1794345,"longitude":41.3300469,"population":0,"stateCapital":false,"nationalCapital":false,"pk":null,"quiz":"asia","code":null,"archived":false,"percentageOfSessions":null}, {"name":"Василево","state":"Ivanovo","territory":"","country":"Russia","latitude":56.7555407,"longitude":41.3514154,"population":8,"stateCapital":false,"nationalCapital":false,"pk":null,"quiz":"asia","code":null,"archived":false,"percentageOfSessions":null}, {"name":"Васильевка","state":"Ivanovo","territory":"","country":"Russia","latitude":57.3350928,"longitude":42.872333,"population":11,"stateCapital":false,"nationalCapital":false,"pk":null,"quiz":"asia","code":null,"archived":false,"percentageOfSessions":null}, {"name":"Васильевское","state":"Ivanovo","territory":"","country":"Russia","latitude":57.0288913,"longitude":41.2612832,"population":23,"stateCapital":false,"nationalCapital":false,"pk":null,"quiz":"asia","code":null,"archived":false,"percentageOfSessions":null}, {"name":"Васильевское","state":"Ivanovo","territory":"","country":"Russia","latitude":57.3926192,"longitude":41.2252764,"population":70,"stateCapital":false,"nationalCapital":false,"pk":null,"quiz":"asia","code":null,"archived":false,"percentageOfSessions":null}, {"name":"Васильевское","state":"Ivanovo","territory":"","country":"Russia","latitude":56.932434,"longitude":41.662243,"population":1110,"stateCapital":false,"nationalCapital":false,"pk":null,"quiz":"asia","code":null,"archived":false,"percentageOfSessions":null}, {"name":"Васильково","state":"Ivanovo","territory":"","country":"Russia","latitude":57.3010384,"longitude":41.6081001,"population":0,"stateCapital":false,"nationalCapital":false,"pk":null,"quiz":"asia","code":null,"archived":false,"percentageOfSessions":null}, {"name":"Васильково","state":"Ivanovo","territory":"","country":"Russia","latitude":57.0189953,"longitude":43.0726497,"population":9,"stateCapital":false,"nationalCapital":false,"pk":null,"quiz":"asia","code":null,"archived":false,"percentageOfSessions":null}, {"name":"Васильково","state":"Ivanovo","territory":"","country":"Russia","latitude":56.4905467,"longitude":41.246057,"population":0,"stateCapital":false,"nationalCapital":false,"pk":null,"quiz":"asia","code":null,"archived":false,"percentageOfSessions":null}, {"name":"Васильчинино","state":"Ivanovo","territory":"","country":"Russia","latitude":57.2109891,"longitude":41.4011149,"population":13,"stateCapital":false,"nationalCapital":false,"pk":null,"quiz":"asia","code":null,"archived":false,"percentageOfSessions":null}, {"name":"Васинская","state":"Ivanovo","territory":"","country":"Russia","latitude":56.975894,"longitude":42.6465197,"population":12,"stateCapital":false,"nationalCapital":false,"pk":null,"quiz":"asia","code":null,"archived":false,"percentageOfSessions":null}, {"name":"Васькин Поток","state":"Ivanovo","territory":"","country":"Russia","latitude":57.4038589,"longitude":41.2878782,"population":144,"stateCapital":false,"nationalCapital":false,"pk":null,"quiz":"asia","code":null,"archived":false,"percentageOfSessions":null}, {"name":"Васьково","state":"Ivanovo","territory":"","country":"Russia","latitude":57.3499949,"longitude":41.8519775,"population":6,"stateCapital":false,"nationalCapital":false,"pk":null,"quiz":"asia","code":null,"archived":false,"percentageOfSessions":null}, {"name":"Васьково","state":"Ivanovo","territory":"","country":"Russia","latitude":56.7122339,"longitude":42.3857905,"population":1,"stateCapital":false,"nationalCapital":false,"pk":null,"quiz":"asia","code":null,"archived":false,"percentageOfSessions":null}, {"name":"Васюково","state":"Ivanovo","territory":"","country":"Russia","latitude":56.8465407,"longitude":39.6023208,"population":3,"stateCapital":false,"nationalCapital":false,"pk":null,"quiz":"asia","code":null,"archived":false,"percentageOfSessions":null}, {"name":"Ватаги","state":"Ivanovo","territory":"","country":"Russia","latitude":57.4530849,"longitude":41.8850463,"population":0,"stateCapital":false,"nationalCapital":false,"pk":null,"quiz":"asia","code":null,"archived":false,"percentageOfSessions":null}, {"name":"Вахнево","state":"Ivanovo","territory":"","country":"Russia","latitude":57.3939541,"longitude":42.5257666,"population":0,"stateCapital":false,"nationalCapital":false,"pk":null,"quiz":"asia","code":null,"archived":false,"percentageOfSessions":null}, {"name":"Вахнеево","state":"Ivanovo","territory":"","country":"Russia","latitude":56.6604402,"longitude":40.8993051,"population":0,"stateCapital":false,"nationalCapital":false,"pk":null,"quiz":"asia","code":null,"archived":false,"percentageOfSessions":null}, {"name":"Вахрино","state":"Ivanovo","territory":"","country":"Russia","latitude":56.9009221,"longitude":42.8626602,"population":0,"stateCapital":false,"nationalCapital":false,"pk":null,"quiz":"asia","code":null,"archived":false,"percentageOfSessions":null}, {"name":"Вахрово","state":"Ivanovo","territory":"","country":"Russia","latitude":57.2722923,"longitude":40.8998601,"population":0,"stateCapital":false,"nationalCapital":false,"pk":null,"quiz":"asia","code":null,"archived":false,"percentageOfSessions":null}, {"name":"Вахрушиха","state":"Ivanovo","territory":"","country":"Russia","latitude":57.0709237,"longitude":43.0291749,"population":2,"stateCapital":false,"nationalCapital":false,"pk":null,"quiz":"asia","code":null,"archived":false,"percentageOfSessions":null}, {"name":"Вахутино","state":"Ivanovo","territory":"","country":"Russia","latitude":57.4843382,"longitude":42.0251983,"population":0,"stateCapital":false,"nationalCapital":false,"pk":null,"quiz":"asia","code":null,"archived":false,"percentageOfSessions":null}, {"name":"Вахутки","state":"Ivanovo","territory":"","country":"Russia","latitude":57.2569121,"longitude":42.2519391,"population":183,"stateCapital":false,"nationalCapital":false,"pk":null,"quiz":"asia","code":null,"archived":false,"percentageOfSessions":null}, {"name":"Вашеевская","state":"Ivanovo","territory":"","country":"Russia","latitude":56.6982708,"longitude":42.4781656,"population":1,"stateCapital":false,"nationalCapital":false,"pk":null,"quiz":"asia","code":null,"archived":false,"percentageOfSessions":null}, {"name":"Вашкино","state":"Ivanovo","territory":"","country":"Russia","latitude":56.5999499,"longitude":42.744503,"population":13,"stateCapital":false,"nationalCapital":false,"pk":null,"quiz":"asia","code":null,"archived":false,"percentageOfSessions":null}, {"name":"Вашурово","state":"Ivanovo","territory":"","country":"Russia","latitude":57.2196583,"longitude":42.5712737,"population":7,"stateCapital":false,"nationalCapital":false,"pk":null,"quiz":"asia","code":null,"archived":false,"percentageOfSessions":null}, {"name":"Введенское","state":"Ivanovo","territory":"","country":"Russia","latitude":57.2563637,"longitude":40.2004984,"population":0,"stateCapital":false,"nationalCapital":false,"pk":null,"quiz":"asia","code":null,"archived":false,"percentageOfSessions":null}, {"name":"Введенское","state":"Ivanovo","territory":"","country":"Russia","latitude":57.3048755,"longitude":41.1356018,"population":21,"stateCapital":false,"nationalCapital":false,"pk":null,"quiz":"asia","code":null,"archived":false,"percentageOfSessions":null}, {"name":"Введенье","state":"Ivanovo","territory":"","country":"Russia","latitude":56.964413,"longitude":41.332863,"population":521,"stateCapital":false,"nationalCapital":false,"pk":null,"quiz":"asia","code":null,"archived":false,"percentageOfSessions":null}, {"name":"Ведерново","state":"Ivanovo","territory":"","country":"Russia","latitude":57.4458512,"longitude":41.6082613,"population":1,"stateCapital":false,"nationalCapital":false,"pk":null,"quiz":"asia","code":null,"archived":false,"percentageOfSessions":null}, {"name":"Ведрово","state":"Ivanovo","territory":"","country":"Russia","latitude":56.9483921,"longitude":41.910097,"population":7,"stateCapital":false,"nationalCapital":false,"pk":null,"quiz":"asia","code":null,"archived":false,"percentageOfSessions":null}, {"name":"Векино","state":"Ivanovo","territory":"","country":"Russia","latitude":56.7384311,"longitude":41.4017941,"population":2,"stateCapital":false,"nationalCapital":false,"pk":null,"quiz":"asia","code":null,"archived":false,"percentageOfSessions":null}, {"name":"Велизанец","state":"Ivanovo","territory":"","country":"Russia","latitude":57.4099574,"longitude":42.0587619,"population":3,"stateCapital":false,"nationalCapital":false,"pk":null,"quiz":"asia","code":null,"archived":false,"percentageOfSessions":null}, {"name":"Великодворское","state":"Ivanovo","territory":"","country":"Russia","latitude":56.7765537,"longitude":40.840084,"population":36,"stateCapital":false,"nationalCapital":false,"pk":null,"quiz":"asia","code":null,"archived":false,"percentageOfSessions":null}, {"name":"Вербино","state":"Ivanovo","territory":"","country":"Russia","latitude":56.6335377,"longitude":42.7271918,"population":72,"stateCapital":false,"nationalCapital":false,"pk":null,"quiz":"asia","code":null,"archived":false,"percentageOfSessions":null}, {"name":"Вербиха","state":"Ivanovo","territory":"","country":"Russia","latitude":56.8982289,"longitude":42.9090677,"population":14,"stateCapital":false,"nationalCapital":false,"pk":null,"quiz":"asia","code":null,"archived":false,"percentageOfSessions":null}, {"name":"Верещагино","state":"Ivanovo","territory":"","country":"Russia","latitude":57.2098814,"longitude":42.6012283,"population":13,"stateCapital":false,"nationalCapital":false,"pk":null,"quiz":"asia","code":null,"archived":false,"percentageOfSessions":null}, {"name":"Верещагино","state":"Ivanovo","territory":"","country":"Russia","latitude":56.5923474,"longitude":42.7086011,"population":3,"stateCapital":false,"nationalCapital":false,"pk":null,"quiz":"asia","code":null,"archived":false,"percentageOfSessions":null}, {"name":"Верещагино","state":"Ivanovo","territory":"","country":"Russia","latitude":56.9831291,"longitude":42.9250412,"population":36,"stateCapital":false,"nationalCapital":false,"pk":null,"quiz":"asia","code":null,"archived":false,"percentageOfSessions":null}, {"name":"Верещагино-Подлесное","state":"Ivanovo","territory":"","country":"Russia","latitude":56.9980259,"longitude":42.832685,"population":0,"stateCapital":false,"nationalCapital":false,"pk":null,"quiz":"asia","code":null,"archived":false,"percentageOfSessions":null}, {"name":"Верзякино","state":"Ivanovo","territory":"","country":"Russia","latitude":56.737099,"longitude":42.083538,"population":27,"stateCapital":false,"nationalCapital":false,"pk":null,"quiz":"asia","code":null,"archived":false,"percentageOfSessions":null}, {"name":"Веригино","state":"Ivanovo","territory":"","country":"Russia","latitude":56.8806707,"longitude":39.7190634,"population":3,"stateCapital":false,"nationalCapital":false,"pk":null,"quiz":"asia","code":null,"archived":false,"percentageOfSessions":null}, {"name":"Верино","state":"Ivanovo","territory":"","country":"Russia","latitude":57.2251268,"longitude":41.1268173,"population":5,"stateCapital":false,"nationalCapital":false,"pk":null,"quiz":"asia","code":null,"archived":false,"percentageOfSessions":null}, {"name":"Вертлужное","state":"Ivanovo","territory":"","country":"Russia","latitude":57.4944147,"longitude":41.9818482,"population":16,"stateCapital":false,"nationalCapital":false,"pk":null,"quiz":"asia","code":null,"archived":false,"percentageOfSessions":null}, {"name":"Верхний Ландех","state":"Ivanovo","territory":"","country":"Russia","latitude":56.840488,"longitude":42.595818,"population":2027,"stateCapital":false,"nationalCapital":false,"pk":null,"quiz":"asia","code":null,"archived":false,"percentageOfSessions":null}, {"name":"Вершинино","state":"Ivanovo","territory":"","country":"Russia","latitude":57.459788,"longitude":42.2027055,"population":9,"stateCapital":false,"nationalCapital":false,"pk":null,"quiz":"asia","code":null,"archived":false,"percentageOfSessions":null}, {"name":"Вершиниха","state":"Ivanovo","territory":"","country":"Russia","latitude":56.8089438,"longitude":42.5356478,"population":9,"stateCapital":false,"nationalCapital":false,"pk":null,"quiz":"asia","code":null,"archived":false,"percentageOfSessions":null}, {"name":"Веска","state":"Ivanovo","territory":"","country":"Russia","latitude":56.8914892,"longitude":39.9742552,"population":80,"stateCapital":false,"nationalCapital":false,"pk":null,"quiz":"asia","code":null,"archived":false,"percentageOfSessions":null}, {"name":"Веснево","state":"Ivanovo","territory":"","country":"Russia","latitude":56.9213632,"longitude":40.771073,"population":18,"stateCapital":false,"nationalCapital":false,"pk":null,"quiz":"asia","code":null,"archived":false,"percentageOfSessions":null}, {"name":"Вехтево","state":"Ivanovo","territory":"","country":"Russia","latitude":57.3183059,"longitude":41.8817667,"population":5,"stateCapital":false,"nationalCapital":false,"pk":null,"quiz":"asia","code":null,"archived":false,"percentageOfSessions":null}, {"name":"Взвоз","state":"Ivanovo","territory":"","country":"Russia","latitude":56.5454395,"longitude":42.3124175,"population":35,"stateCapital":false,"nationalCapital":false,"pk":null,"quiz":"asia","code":null,"archived":false,"percentageOfSessions":null},