{"cities":[{"name":"1 Ивановка","state":"Lipetsk","territory":"","country":"Russia","latitude":53.0801698,"longitude":38.6668004,"population":9,"stateCapital":false,"nationalCapital":false,"pk":null,"quiz":"asia","code":null,"archived":false,"percentageOfSessions":null}, {"name":"1 Красное","state":"Lipetsk","territory":"","country":"Russia","latitude":53.0731445,"longitude":38.6887516,"population":3,"stateCapital":false,"nationalCapital":false,"pk":null,"quiz":"asia","code":null,"archived":false,"percentageOfSessions":null}, {"name":"1-я Набережная","state":"Lipetsk","territory":"","country":"Russia","latitude":52.491737,"longitude":38.168766,"population":32,"stateCapital":false,"nationalCapital":false,"pk":null,"quiz":"asia","code":null,"archived":false,"percentageOfSessions":null}, {"name":"1-я Ольшанка","state":"Lipetsk","territory":"","country":"Russia","latitude":52.302643,"longitude":38.186516,"population":34,"stateCapital":false,"nationalCapital":false,"pk":null,"quiz":"asia","code":null,"archived":false,"percentageOfSessions":null}, {"name":"1-я Тепленькая","state":"Lipetsk","territory":"","country":"Russia","latitude":52.302742,"longitude":38.559319,"population":52,"stateCapital":false,"nationalCapital":false,"pk":null,"quiz":"asia","code":null,"archived":false,"percentageOfSessions":null}, {"name":"215 км","state":"Lipetsk","territory":"","country":"Russia","latitude":52.618835,"longitude":38.809956,"population":13,"stateCapital":false,"nationalCapital":false,"pk":null,"quiz":"asia","code":null,"archived":false,"percentageOfSessions":null}, {"name":"2-ая Ламская","state":"Lipetsk","territory":"","country":"Russia","latitude":52.933333,"longitude":38.15,"population":27,"stateCapital":false,"nationalCapital":false,"pk":null,"quiz":"asia","code":null,"archived":false,"percentageOfSessions":null}, {"name":"2-я Набережная","state":"Lipetsk","territory":"","country":"Russia","latitude":52.494194,"longitude":38.175251,"population":30,"stateCapital":false,"nationalCapital":false,"pk":null,"quiz":"asia","code":null,"archived":false,"percentageOfSessions":null}, {"name":"2-я Сергеевка","state":"Lipetsk","territory":"","country":"Russia","latitude":52.307648,"longitude":38.549835,"population":57,"stateCapital":false,"nationalCapital":false,"pk":null,"quiz":"asia","code":null,"archived":false,"percentageOfSessions":null}, {"name":"386 км","state":"Lipetsk","territory":"","country":"Russia","latitude":52.826611,"longitude":38.34433,"population":16,"stateCapital":false,"nationalCapital":false,"pk":null,"quiz":"asia","code":null,"archived":false,"percentageOfSessions":null}, {"name":"Авдулово","state":"Lipetsk","territory":"","country":"Russia","latitude":53.300995,"longitude":38.62825,"population":150,"stateCapital":false,"nationalCapital":false,"pk":null,"quiz":"asia","code":null,"archived":false,"percentageOfSessions":null}, {"name":"Агарково","state":"Lipetsk","territory":"","country":"Russia","latitude":52.461269,"longitude":38.256916,"population":54,"stateCapital":false,"nationalCapital":false,"pk":null,"quiz":"asia","code":null,"archived":false,"percentageOfSessions":null}, {"name":"Агеевка","state":"Lipetsk","territory":"","country":"Russia","latitude":52.7222868,"longitude":38.407841,"population":10,"stateCapital":false,"nationalCapital":false,"pk":null,"quiz":"asia","code":null,"archived":false,"percentageOfSessions":null}, {"name":"Аксай","state":"Lipetsk","territory":"","country":"Russia","latitude":52.2489438,"longitude":39.7224654,"population":251,"stateCapital":false,"nationalCapital":false,"pk":null,"quiz":"asia","code":null,"archived":false,"percentageOfSessions":null}, {"name":"Аксенкино","state":"Lipetsk","territory":"","country":"Russia","latitude":52.621548,"longitude":38.356594,"population":103,"stateCapital":false,"nationalCapital":false,"pk":null,"quiz":"asia","code":null,"archived":false,"percentageOfSessions":null}, {"name":"Александровка","state":"Lipetsk","territory":"","country":"Russia","latitude":52.098091,"longitude":38.045963,"population":106,"stateCapital":false,"nationalCapital":false,"pk":null,"quiz":"asia","code":null,"archived":false,"percentageOfSessions":null}, {"name":"Александровка","state":"Lipetsk","territory":"","country":"Russia","latitude":52.3587298,"longitude":39.7903116,"population":2,"stateCapital":false,"nationalCapital":false,"pk":null,"quiz":"asia","code":null,"archived":false,"percentageOfSessions":null}, {"name":"Александровка","state":"Lipetsk","territory":"","country":"Russia","latitude":52.3587298,"longitude":39.7903116,"population":23,"stateCapital":false,"nationalCapital":false,"pk":null,"quiz":"asia","code":null,"archived":false,"percentageOfSessions":null}, {"name":"Александровка","state":"Lipetsk","territory":"","country":"Russia","latitude":53.4828814,"longitude":38.9180129,"population":21,"stateCapital":false,"nationalCapital":false,"pk":null,"quiz":"asia","code":null,"archived":false,"percentageOfSessions":null}, {"name":"Александровка","state":"Lipetsk","territory":"","country":"Russia","latitude":52.303627,"longitude":40.468864,"population":388,"stateCapital":false,"nationalCapital":false,"pk":null,"quiz":"asia","code":null,"archived":false,"percentageOfSessions":null}, {"name":"Александровка","state":"Lipetsk","territory":"","country":"Russia","latitude":52.303627,"longitude":40.468864,"population":50,"stateCapital":false,"nationalCapital":false,"pk":null,"quiz":"asia","code":null,"archived":false,"percentageOfSessions":null}, {"name":"Александровка","state":"Lipetsk","territory":"","country":"Russia","latitude":52.299152,"longitude":38.600983,"population":44,"stateCapital":false,"nationalCapital":false,"pk":null,"quiz":"asia","code":null,"archived":false,"percentageOfSessions":null}, {"name":"Александровка","state":"Lipetsk","territory":"","country":"Russia","latitude":52.661232,"longitude":38.246235,"population":0,"stateCapital":false,"nationalCapital":false,"pk":null,"quiz":"asia","code":null,"archived":false,"percentageOfSessions":null}, {"name":"Александровка","state":"Lipetsk","territory":"","country":"Russia","latitude":52.8326513,"longitude":38.7847511,"population":203,"stateCapital":false,"nationalCapital":false,"pk":null,"quiz":"asia","code":null,"archived":false,"percentageOfSessions":null}, {"name":"Александровка","state":"Lipetsk","territory":"","country":"Russia","latitude":52.8326513,"longitude":38.7847511,"population":15,"stateCapital":false,"nationalCapital":false,"pk":null,"quiz":"asia","code":null,"archived":false,"percentageOfSessions":null}, {"name":"Александровка","state":"Lipetsk","territory":"","country":"Russia","latitude":52.525524,"longitude":39.20166,"population":33,"stateCapital":false,"nationalCapital":false,"pk":null,"quiz":"asia","code":null,"archived":false,"percentageOfSessions":null}, {"name":"Александровка","state":"Lipetsk","territory":"","country":"Russia","latitude":52.9364,"longitude":38.1931,"population":63,"stateCapital":false,"nationalCapital":false,"pk":null,"quiz":"asia","code":null,"archived":false,"percentageOfSessions":null}, {"name":"Александровка","state":"Lipetsk","territory":"","country":"Russia","latitude":52.2425469,"longitude":38.2575167,"population":19,"stateCapital":false,"nationalCapital":false,"pk":null,"quiz":"asia","code":null,"archived":false,"percentageOfSessions":null}, {"name":"Александровка 1-ая","state":"Lipetsk","territory":"","country":"Russia","latitude":52.1354184,"longitude":40.3381583,"population":131,"stateCapital":false,"nationalCapital":false,"pk":null,"quiz":"asia","code":null,"archived":false,"percentageOfSessions":null}, {"name":"Александровка 2-я","state":"Lipetsk","territory":"","country":"Russia","latitude":52.1326961,"longitude":40.3958703,"population":233,"stateCapital":false,"nationalCapital":false,"pk":null,"quiz":"asia","code":null,"archived":false,"percentageOfSessions":null}, {"name":"Александрово-Жуково","state":"Lipetsk","territory":"","country":"Russia","latitude":52.683861,"longitude":39.140781,"population":28,"stateCapital":false,"nationalCapital":false,"pk":null,"quiz":"asia","code":null,"archived":false,"percentageOfSessions":null}, {"name":"Алексеевка","state":"Lipetsk","territory":"","country":"Russia","latitude":52.103733,"longitude":37.899792,"population":131,"stateCapital":false,"nationalCapital":false,"pk":null,"quiz":"asia","code":null,"archived":false,"percentageOfSessions":null}, {"name":"Алексеевка","state":"Lipetsk","territory":"","country":"Russia","latitude":53.2766999,"longitude":38.6556741,"population":23,"stateCapital":false,"nationalCapital":false,"pk":null,"quiz":"asia","code":null,"archived":false,"percentageOfSessions":null}, {"name":"Алексеевка","state":"Lipetsk","territory":"","country":"Russia","latitude":52.1633013,"longitude":40.3379294,"population":97,"stateCapital":false,"nationalCapital":false,"pk":null,"quiz":"asia","code":null,"archived":false,"percentageOfSessions":null}, {"name":"Алексеевка","state":"Lipetsk","territory":"","country":"Russia","latitude":52.1633013,"longitude":40.3379294,"population":5,"stateCapital":false,"nationalCapital":false,"pk":null,"quiz":"asia","code":null,"archived":false,"percentageOfSessions":null}, {"name":"Алексеевка","state":"Lipetsk","territory":"","country":"Russia","latitude":52.755001,"longitude":38.725201,"population":0,"stateCapital":false,"nationalCapital":false,"pk":null,"quiz":"asia","code":null,"archived":false,"percentageOfSessions":null}, {"name":"Алексеевка","state":"Lipetsk","territory":"","country":"Russia","latitude":52.384346,"longitude":38.77681,"population":262,"stateCapital":false,"nationalCapital":false,"pk":null,"quiz":"asia","code":null,"archived":false,"percentageOfSessions":null}, {"name":"Алексеевка","state":"Lipetsk","territory":"","country":"Russia","latitude":52.384346,"longitude":38.77681,"population":12,"stateCapital":false,"nationalCapital":false,"pk":null,"quiz":"asia","code":null,"archived":false,"percentageOfSessions":null}, {"name":"Алексеевка","state":"Lipetsk","territory":"","country":"Russia","latitude":52.384346,"longitude":38.77681,"population":38,"stateCapital":false,"nationalCapital":false,"pk":null,"quiz":"asia","code":null,"archived":false,"percentageOfSessions":null}, {"name":"Алексеевка","state":"Lipetsk","territory":"","country":"Russia","latitude":52.484211,"longitude":39.21954,"population":151,"stateCapital":false,"nationalCapital":false,"pk":null,"quiz":"asia","code":null,"archived":false,"percentageOfSessions":null}, {"name":"Алексеевка","state":"Lipetsk","territory":"","country":"Russia","latitude":52.7431,"longitude":38.5547,"population":2,"stateCapital":false,"nationalCapital":false,"pk":null,"quiz":"asia","code":null,"archived":false,"percentageOfSessions":null}, {"name":"Алексеевка","state":"Lipetsk","territory":"","country":"Russia","latitude":52.7431,"longitude":38.5547,"population":3,"stateCapital":false,"nationalCapital":false,"pk":null,"quiz":"asia","code":null,"archived":false,"percentageOfSessions":null}, {"name":"Алексеевка 2-ая","state":"Lipetsk","territory":"","country":"Russia","latitude":52.0935558,"longitude":38.0081101,"population":17,"stateCapital":false,"nationalCapital":false,"pk":null,"quiz":"asia","code":null,"archived":false,"percentageOfSessions":null}, {"name":"Алексеевские Выселки","state":"Lipetsk","territory":"","country":"Russia","latitude":53.1047306,"longitude":38.972218,"population":3,"stateCapital":false,"nationalCapital":false,"pk":null,"quiz":"asia","code":null,"archived":false,"percentageOfSessions":null}, {"name":"Алексеевский","state":"Lipetsk","territory":"","country":"Russia","latitude":53.1881437,"longitude":38.6306919,"population":1,"stateCapital":false,"nationalCapital":false,"pk":null,"quiz":"asia","code":null,"archived":false,"percentageOfSessions":null}, {"name":"Аленка","state":"Lipetsk","territory":"","country":"Russia","latitude":52.531742,"longitude":38.687729,"population":21,"stateCapital":false,"nationalCapital":false,"pk":null,"quiz":"asia","code":null,"archived":false,"percentageOfSessions":null}, {"name":"Алешки","state":"Lipetsk","territory":"","country":"Russia","latitude":52.140327,"longitude":38.096962,"population":111,"stateCapital":false,"nationalCapital":false,"pk":null,"quiz":"asia","code":null,"archived":false,"percentageOfSessions":null}, {"name":"Алисово","state":"Lipetsk","territory":"","country":"Russia","latitude":52.348701,"longitude":38.741901,"population":173,"stateCapital":false,"nationalCapital":false,"pk":null,"quiz":"asia","code":null,"archived":false,"percentageOfSessions":null}, {"name":"Андреевка","state":"Lipetsk","territory":"","country":"Russia","latitude":52.1726629,"longitude":40.3443465,"population":57,"stateCapital":false,"nationalCapital":false,"pk":null,"quiz":"asia","code":null,"archived":false,"percentageOfSessions":null}, {"name":"Андреевка","state":"Lipetsk","territory":"","country":"Russia","latitude":52.9261838,"longitude":39.329973,"population":2,"stateCapital":false,"nationalCapital":false,"pk":null,"quiz":"asia","code":null,"archived":false,"percentageOfSessions":null}, {"name":"Аникеевка","state":"Lipetsk","territory":"","country":"Russia","latitude":52.107681,"longitude":38.91959,"population":39,"stateCapital":false,"nationalCapital":false,"pk":null,"quiz":"asia","code":null,"archived":false,"percentageOfSessions":null}, {"name":"Аничково","state":"Lipetsk","territory":"","country":"Russia","latitude":52.14408,"longitude":40.3280589,"population":77,"stateCapital":false,"nationalCapital":false,"pk":null,"quiz":"asia","code":null,"archived":false,"percentageOfSessions":null}, {"name":"Анненка","state":"Lipetsk","territory":"","country":"Russia","latitude":52.309807,"longitude":38.37265,"population":35,"stateCapital":false,"nationalCapital":false,"pk":null,"quiz":"asia","code":null,"archived":false,"percentageOfSessions":null}, {"name":"Анненка","state":"Lipetsk","territory":"","country":"Russia","latitude":52.625462,"longitude":38.956757,"population":38,"stateCapital":false,"nationalCapital":false,"pk":null,"quiz":"asia","code":null,"archived":false,"percentageOfSessions":null}, {"name":"Аннино","state":"Lipetsk","territory":"","country":"Russia","latitude":52.4877592,"longitude":40.0137988,"population":1174,"stateCapital":false,"nationalCapital":false,"pk":null,"quiz":"asia","code":null,"archived":false,"percentageOfSessions":null}, {"name":"Апраксино","state":"Lipetsk","territory":"","country":"Russia","latitude":53.268478,"longitude":38.900818,"population":2,"stateCapital":false,"nationalCapital":false,"pk":null,"quiz":"asia","code":null,"archived":false,"percentageOfSessions":null}, {"name":"Апросимовка","state":"Lipetsk","territory":"","country":"Russia","latitude":52.1683551,"longitude":38.0817917,"population":0,"stateCapital":false,"nationalCapital":false,"pk":null,"quiz":"asia","code":null,"archived":false,"percentageOfSessions":null}, {"name":"Апухтино","state":"Lipetsk","territory":"","country":"Russia","latitude":52.442162,"longitude":38.842346,"population":12,"stateCapital":false,"nationalCapital":false,"pk":null,"quiz":"asia","code":null,"archived":false,"percentageOfSessions":null}, {"name":"Апухтино","state":"Lipetsk","territory":"","country":"Russia","latitude":52.1908085,"longitude":38.0740991,"population":11,"stateCapital":false,"nationalCapital":false,"pk":null,"quiz":"asia","code":null,"archived":false,"percentageOfSessions":null}, {"name":"Аргамач-Пальна","state":"Lipetsk","territory":"","country":"Russia","latitude":52.679668,"longitude":38.595364,"population":155,"stateCapital":false,"nationalCapital":false,"pk":null,"quiz":"asia","code":null,"archived":false,"percentageOfSessions":null}, {"name":"Арзыбовка","state":"Lipetsk","territory":"","country":"Russia","latitude":52.0923316,"longitude":39.4991467,"population":108,"stateCapital":false,"nationalCapital":false,"pk":null,"quiz":"asia","code":null,"archived":false,"percentageOfSessions":null}, {"name":"Аркатово","state":"Lipetsk","territory":"","country":"Russia","latitude":52.606201,"longitude":38.768501,"population":82,"stateCapital":false,"nationalCapital":false,"pk":null,"quiz":"asia","code":null,"archived":false,"percentageOfSessions":null}, {"name":"Арсёновка","state":"Lipetsk","territory":"","country":"Russia","latitude":53.3551301,"longitude":39.2909933,"population":1,"stateCapital":false,"nationalCapital":false,"pk":null,"quiz":"asia","code":null,"archived":false,"percentageOfSessions":null}, {"name":"Арсентьево","state":"Lipetsk","territory":"","country":"Russia","latitude":52.7419368,"longitude":38.240639,"population":199,"stateCapital":false,"nationalCapital":false,"pk":null,"quiz":"asia","code":null,"archived":false,"percentageOfSessions":null}, {"name":"Архангельские Борки","state":"Lipetsk","territory":"","country":"Russia","latitude":52.421902,"longitude":39.170723,"population":88,"stateCapital":false,"nationalCapital":false,"pk":null,"quiz":"asia","code":null,"archived":false,"percentageOfSessions":null}, {"name":"Архангельское","state":"Lipetsk","territory":"","country":"Russia","latitude":52.562748,"longitude":38.612679,"population":309,"stateCapital":false,"nationalCapital":false,"pk":null,"quiz":"asia","code":null,"archived":false,"percentageOfSessions":null}, {"name":"Архангельское","state":"Lipetsk","territory":"","country":"Russia","latitude":52.2015,"longitude":38.708401,"population":35,"stateCapital":false,"nationalCapital":false,"pk":null,"quiz":"asia","code":null,"archived":false,"percentageOfSessions":null}, {"name":"Архангельское","state":"Lipetsk","territory":"","country":"Russia","latitude":52.804138,"longitude":38.58292,"population":25,"stateCapital":false,"nationalCapital":false,"pk":null,"quiz":"asia","code":null,"archived":false,"percentageOfSessions":null}, {"name":"Архангельское","state":"Lipetsk","territory":"","country":"Russia","latitude":53.4747,"longitude":39.6637,"population":1,"stateCapital":false,"nationalCapital":false,"pk":null,"quiz":"asia","code":null,"archived":false,"percentageOfSessions":null}, {"name":"Архангельское второе","state":"Lipetsk","territory":"","country":"Russia","latitude":52.5707642,"longitude":38.0657248,"population":0,"stateCapital":false,"nationalCapital":false,"pk":null,"quiz":"asia","code":null,"archived":false,"percentageOfSessions":null}, {"name":"Архангельское первое","state":"Lipetsk","territory":"","country":"Russia","latitude":52.562168,"longitude":38.068062,"population":4,"stateCapital":false,"nationalCapital":false,"pk":null,"quiz":"asia","code":null,"archived":false,"percentageOfSessions":null}, {"name":"Архиповка","state":"Lipetsk","territory":"","country":"Russia","latitude":52.293839,"longitude":40.389427,"population":9,"stateCapital":false,"nationalCapital":false,"pk":null,"quiz":"asia","code":null,"archived":false,"percentageOfSessions":null}, {"name":"Асламово","state":"Lipetsk","territory":"","country":"Russia","latitude":52.509735,"longitude":38.153522,"population":86,"stateCapital":false,"nationalCapital":false,"pk":null,"quiz":"asia","code":null,"archived":false,"percentageOfSessions":null}, {"name":"Астапово","state":"Lipetsk","territory":"","country":"Russia","latitude":53.210632,"longitude":39.52618,"population":277,"stateCapital":false,"nationalCapital":false,"pk":null,"quiz":"asia","code":null,"archived":false,"percentageOfSessions":null}, {"name":"Асташевка","state":"Lipetsk","territory":"","country":"Russia","latitude":52.139259,"longitude":40.196976,"population":27,"stateCapital":false,"nationalCapital":false,"pk":null,"quiz":"asia","code":null,"archived":false,"percentageOfSessions":null}, {"name":"Афанасьево","state":"Lipetsk","territory":"","country":"Russia","latitude":52.572784,"longitude":38.199429,"population":1872,"stateCapital":false,"nationalCapital":false,"pk":null,"quiz":"asia","code":null,"archived":false,"percentageOfSessions":null}, {"name":"Ачкасова","state":"Lipetsk","territory":"","country":"Russia","latitude":52.589806,"longitude":38.057838,"population":2,"stateCapital":false,"nationalCapital":false,"pk":null,"quiz":"asia","code":null,"archived":false,"percentageOfSessions":null}, {"name":"Ашанино","state":"Lipetsk","territory":"","country":"Russia","latitude":53.4147151,"longitude":39.1383325,"population":1,"stateCapital":false,"nationalCapital":false,"pk":null,"quiz":"asia","code":null,"archived":false,"percentageOfSessions":null}, {"name":"Бабарыкино","state":"Lipetsk","territory":"","country":"Russia","latitude":52.9488447,"longitude":38.2411875,"population":182,"stateCapital":false,"nationalCapital":false,"pk":null,"quiz":"asia","code":null,"archived":false,"percentageOfSessions":null}, {"name":"Багровка","state":"Lipetsk","territory":"","country":"Russia","latitude":52.1488331,"longitude":37.9792884,"population":9,"stateCapital":false,"nationalCapital":false,"pk":null,"quiz":"asia","code":null,"archived":false,"percentageOfSessions":null}, {"name":"Баевка","state":"Lipetsk","territory":"","country":"Russia","latitude":52.7273901,"longitude":38.2222589,"population":58,"stateCapital":false,"nationalCapital":false,"pk":null,"quiz":"asia","code":null,"archived":false,"percentageOfSessions":null}, {"name":"Байгора","state":"Lipetsk","territory":"","country":"Russia","latitude":52.407898,"longitude":40.105404,"population":148,"stateCapital":false,"nationalCapital":false,"pk":null,"quiz":"asia","code":null,"archived":false,"percentageOfSessions":null}, {"name":"Бакеевский","state":"Lipetsk","territory":"","country":"Russia","latitude":52.303711,"longitude":38.208939,"population":0,"stateCapital":false,"nationalCapital":false,"pk":null,"quiz":"asia","code":null,"archived":false,"percentageOfSessions":null}, {"name":"Балахна","state":"Lipetsk","territory":"","country":"Russia","latitude":52.291203,"longitude":38.852158,"population":313,"stateCapital":false,"nationalCapital":false,"pk":null,"quiz":"asia","code":null,"archived":false,"percentageOfSessions":null}, {"name":"Баловинки","state":"Lipetsk","territory":"","country":"Russia","latitude":53.4035327,"longitude":38.8298615,"population":83,"stateCapital":false,"nationalCapital":false,"pk":null,"quiz":"asia","code":null,"archived":false,"percentageOfSessions":null}, {"name":"Баловнево","state":"Lipetsk","territory":"","country":"Russia","latitude":53.215443,"longitude":39.039265,"population":637,"stateCapital":false,"nationalCapital":false,"pk":null,"quiz":"asia","code":null,"archived":false,"percentageOfSessions":null}, {"name":"Бандуровка","state":"Lipetsk","territory":"","country":"Russia","latitude":52.850422,"longitude":37.965912,"population":11,"stateCapital":false,"nationalCapital":false,"pk":null,"quiz":"asia","code":null,"archived":false,"percentageOfSessions":null}, {"name":"Барановка","state":"Lipetsk","territory":"","country":"Russia","latitude":53.239166,"longitude":39.0825,"population":43,"stateCapital":false,"nationalCapital":false,"pk":null,"quiz":"asia","code":null,"archived":false,"percentageOfSessions":null}, {"name":"Барановка","state":"Lipetsk","territory":"","country":"Russia","latitude":52.442299,"longitude":38.648998,"population":60,"stateCapital":false,"nationalCapital":false,"pk":null,"quiz":"asia","code":null,"archived":false,"percentageOfSessions":null}, {"name":"Барановка","state":"Lipetsk","territory":"","country":"Russia","latitude":52.6729156,"longitude":38.2084528,"population":40,"stateCapital":false,"nationalCapital":false,"pk":null,"quiz":"asia","code":null,"archived":false,"percentageOfSessions":null}, {"name":"Бараново","state":"Lipetsk","territory":"","country":"Russia","latitude":52.549175,"longitude":38.109741,"population":67,"stateCapital":false,"nationalCapital":false,"pk":null,"quiz":"asia","code":null,"archived":false,"percentageOfSessions":null}, {"name":"Барсуково","state":"Lipetsk","territory":"","country":"Russia","latitude":52.964443,"longitude":37.90361,"population":428,"stateCapital":false,"nationalCapital":false,"pk":null,"quiz":"asia","code":null,"archived":false,"percentageOfSessions":null}, {"name":"Барымовка","state":"Lipetsk","territory":"","country":"Russia","latitude":52.455601,"longitude":38.827301,"population":12,"stateCapital":false,"nationalCapital":false,"pk":null,"quiz":"asia","code":null,"archived":false,"percentageOfSessions":null}, {"name":"Барышниково","state":"Lipetsk","territory":"","country":"Russia","latitude":52.011744,"longitude":38.2177662,"population":104,"stateCapital":false,"nationalCapital":false,"pk":null,"quiz":"asia","code":null,"archived":false,"percentageOfSessions":null}, {"name":"Барятино","state":"Lipetsk","territory":"","country":"Russia","latitude":53.341125,"longitude":38.756416,"population":425,"stateCapital":false,"nationalCapital":false,"pk":null,"quiz":"asia","code":null,"archived":false,"percentageOfSessions":null}, {"name":"Барятино","state":"Lipetsk","territory":"","country":"Russia","latitude":53.264473,"longitude":39.502457,"population":9,"stateCapital":false,"nationalCapital":false,"pk":null,"quiz":"asia","code":null,"archived":false,"percentageOfSessions":null}, {"name":"Батыревский","state":"Lipetsk","territory":"","country":"Russia","latitude":53.0798811,"longitude":40.0157339,"population":0,"stateCapital":false,"nationalCapital":false,"pk":null,"quiz":"asia","code":null,"archived":false,"percentageOfSessions":null}, {"name":"Бахаев","state":"Lipetsk","territory":"","country":"Russia","latitude":52.424313,"longitude":39.606358,"population":27,"stateCapital":false,"nationalCapital":false,"pk":null,"quiz":"asia","code":null,"archived":false,"percentageOfSessions":null}, {"name":"Бахтияровка","state":"Lipetsk","territory":"","country":"Russia","latitude":52.7800296,"longitude":37.9890051,"population":21,"stateCapital":false,"nationalCapital":false,"pk":null,"quiz":"asia","code":null,"archived":false,"percentageOfSessions":null}, {"name":"Бацевка","state":"Lipetsk","territory":"","country":"Russia","latitude":51.9552367,"longitude":38.0992304,"population":11,"stateCapital":false,"nationalCapital":false,"pk":null,"quiz":"asia","code":null,"archived":false,"percentageOfSessions":null}, {"name":"Бегичево","state":"Lipetsk","territory":"","country":"Russia","latitude":53.568832,"longitude":38.911331,"population":11,"stateCapital":false,"nationalCapital":false,"pk":null,"quiz":"asia","code":null,"archived":false,"percentageOfSessions":null}, {"name":"Бекетовка","state":"Lipetsk","territory":"","country":"Russia","latitude":52.9488966,"longitude":38.0111291,"population":8,"stateCapital":false,"nationalCapital":false,"pk":null,"quiz":"asia","code":null,"archived":false,"percentageOfSessions":null}, {"name":"Белевец","state":"Lipetsk","territory":"","country":"Russia","latitude":52.6903,"longitude":38.469101,"population":8,"stateCapital":false,"nationalCapital":false,"pk":null,"quiz":"asia","code":null,"archived":false,"percentageOfSessions":null}, {"name":"Белевец","state":"Lipetsk","territory":"","country":"Russia","latitude":52.731944,"longitude":38.467222,"population":72,"stateCapital":false,"nationalCapital":false,"pk":null,"quiz":"asia","code":null,"archived":false,"percentageOfSessions":null}, {"name":"Белоносовка","state":"Lipetsk","territory":"","country":"Russia","latitude":51.968967,"longitude":40.276493,"population":50,"stateCapital":false,"nationalCapital":false,"pk":null,"quiz":"asia","code":null,"archived":false,"percentageOfSessions":null}, {"name":"Белый Конь","state":"Lipetsk","territory":"","country":"Russia","latitude":52.359154,"longitude":38.080956,"population":60,"stateCapital":false,"nationalCapital":false,"pk":null,"quiz":"asia","code":null,"archived":false,"percentageOfSessions":null}, {"name":"Беляево","state":"Lipetsk","territory":"","country":"Russia","latitude":51.9846974,"longitude":39.5212201,"population":203,"stateCapital":false,"nationalCapital":false,"pk":null,"quiz":"asia","code":null,"archived":false,"percentageOfSessions":null}, {"name":"Бережки","state":"Lipetsk","territory":"","country":"Russia","latitude":52.5399455,"longitude":37.9289565,"population":3,"stateCapital":false,"nationalCapital":false,"pk":null,"quiz":"asia","code":null,"archived":false,"percentageOfSessions":null}, {"name":"Березнеговатка","state":"Lipetsk","territory":"","country":"Russia","latitude":52.055,"longitude":40.315327,"population":605,"stateCapital":false,"nationalCapital":false,"pk":null,"quiz":"asia","code":null,"archived":false,"percentageOfSessions":null}, {"name":"Березняговка","state":"Lipetsk","territory":"","country":"Russia","latitude":52.150928,"longitude":40.061539,"population":675,"stateCapital":false,"nationalCapital":false,"pk":null,"quiz":"asia","code":null,"archived":false,"percentageOfSessions":null}, {"name":"Березовая Роща","state":"Lipetsk","territory":"","country":"Russia","latitude":52.8457247,"longitude":38.4864513,"population":38,"stateCapital":false,"nationalCapital":false,"pk":null,"quiz":"asia","code":null,"archived":false,"percentageOfSessions":null}, {"name":"Березовка","state":"Lipetsk","territory":"","country":"Russia","latitude":52.358482,"longitude":39.817059,"population":55,"stateCapital":false,"nationalCapital":false,"pk":null,"quiz":"asia","code":null,"archived":false,"percentageOfSessions":null}, {"name":"Березовка","state":"Lipetsk","territory":"","country":"Russia","latitude":53.435112,"longitude":38.885025,"population":693,"stateCapital":false,"nationalCapital":false,"pk":null,"quiz":"asia","code":null,"archived":false,"percentageOfSessions":null}, {"name":"Березовка","state":"Lipetsk","territory":"","country":"Russia","latitude":52.05888,"longitude":40.2618834,"population":35,"stateCapital":false,"nationalCapital":false,"pk":null,"quiz":"asia","code":null,"archived":false,"percentageOfSessions":null}, {"name":"Березовка","state":"Lipetsk","territory":"","country":"Russia","latitude":52.60297,"longitude":38.324364,"population":23,"stateCapital":false,"nationalCapital":false,"pk":null,"quiz":"asia","code":null,"archived":false,"percentageOfSessions":null}, {"name":"Березовка","state":"Lipetsk","territory":"","country":"Russia","latitude":52.9115254,"longitude":38.0195732,"population":406,"stateCapital":false,"nationalCapital":false,"pk":null,"quiz":"asia","code":null,"archived":false,"percentageOfSessions":null}, {"name":"Березовка","state":"Lipetsk","territory":"","country":"Russia","latitude":52.016506,"longitude":38.307213,"population":669,"stateCapital":false,"nationalCapital":false,"pk":null,"quiz":"asia","code":null,"archived":false,"percentageOfSessions":null}, {"name":"Березовые Выселки","state":"Lipetsk","territory":"","country":"Russia","latitude":53.3554563,"longitude":39.025139,"population":10,"stateCapital":false,"nationalCapital":false,"pk":null,"quiz":"asia","code":null,"archived":false,"percentageOfSessions":null}, {"name":"Бехтеевка","state":"Lipetsk","territory":"","country":"Russia","latitude":52.535301,"longitude":38.888901,"population":8,"stateCapital":false,"nationalCapital":false,"pk":null,"quiz":"asia","code":null,"archived":false,"percentageOfSessions":null}, {"name":"Бехтеевка","state":"Lipetsk","territory":"","country":"Russia","latitude":52.535301,"longitude":38.888901,"population":13,"stateCapital":false,"nationalCapital":false,"pk":null,"quiz":"asia","code":null,"archived":false,"percentageOfSessions":null}, {"name":"Бибиково","state":"Lipetsk","territory":"","country":"Russia","latitude":53.434715,"longitude":38.988705,"population":12,"stateCapital":false,"nationalCapital":false,"pk":null,"quiz":"asia","code":null,"archived":false,"percentageOfSessions":null}, {"name":"Бибиково","state":"Lipetsk","territory":"","country":"Russia","latitude":53.1214361,"longitude":38.7192388,"population":27,"stateCapital":false,"nationalCapital":false,"pk":null,"quiz":"asia","code":null,"archived":false,"percentageOfSessions":null}, {"name":"Бигильдино","state":"Lipetsk","territory":"","country":"Russia","latitude":53.344269,"longitude":39.14027,"population":943,"stateCapital":false,"nationalCapital":false,"pk":null,"quiz":"asia","code":null,"archived":false,"percentageOfSessions":null}, {"name":"Благодатная","state":"Lipetsk","territory":"","country":"Russia","latitude":52.080402,"longitude":38.993519,"population":7,"stateCapital":false,"nationalCapital":false,"pk":null,"quiz":"asia","code":null,"archived":false,"percentageOfSessions":null}, {"name":"Благодать","state":"Lipetsk","territory":"","country":"Russia","latitude":52.2294803,"longitude":40.3524159,"population":199,"stateCapital":false,"nationalCapital":false,"pk":null,"quiz":"asia","code":null,"archived":false,"percentageOfSessions":null}, {"name":"Бобыли","state":"Lipetsk","territory":"","country":"Russia","latitude":52.974311,"longitude":39.2549263,"population":10,"stateCapital":false,"nationalCapital":false,"pk":null,"quiz":"asia","code":null,"archived":false,"percentageOfSessions":null}, {"name":"Богатые Плоты","state":"Lipetsk","territory":"","country":"Russia","latitude":52.32814,"longitude":38.231823,"population":55,"stateCapital":false,"nationalCapital":false,"pk":null,"quiz":"asia","code":null,"archived":false,"percentageOfSessions":null}, {"name":"Богатые Плоты","state":"Lipetsk","territory":"","country":"Russia","latitude":52.2064116,"longitude":38.2105546,"population":22,"stateCapital":false,"nationalCapital":false,"pk":null,"quiz":"asia","code":null,"archived":false,"percentageOfSessions":null}, {"name":"Богданова","state":"Lipetsk","territory":"","country":"Russia","latitude":52.057297,"longitude":37.9449905,"population":58,"stateCapital":false,"nationalCapital":false,"pk":null,"quiz":"asia","code":null,"archived":false,"percentageOfSessions":null}, {"name":"Богородицкое","state":"Lipetsk","territory":"","country":"Russia","latitude":52.281799,"longitude":40.359409,"population":331,"stateCapital":false,"nationalCapital":false,"pk":null,"quiz":"asia","code":null,"archived":false,"percentageOfSessions":null}, {"name":"Богородицкое","state":"Lipetsk","territory":"","country":"Russia","latitude":52.819588,"longitude":39.762848,"population":337,"stateCapital":false,"nationalCapital":false,"pk":null,"quiz":"asia","code":null,"archived":false,"percentageOfSessions":null}, {"name":"Болховское","state":"Lipetsk","territory":"","country":"Russia","latitude":52.414124,"longitude":38.863285,"population":709,"stateCapital":false,"nationalCapital":false,"pk":null,"quiz":"asia","code":null,"archived":false,"percentageOfSessions":null}, {"name":"Большая Александровка","state":"Lipetsk","territory":"","country":"Russia","latitude":52.5042,"longitude":38.3862,"population":60,"stateCapital":false,"nationalCapital":false,"pk":null,"quiz":"asia","code":null,"archived":false,"percentageOfSessions":null}, {"name":"Большая Боевка","state":"Lipetsk","territory":"","country":"Russia","latitude":52.391697,"longitude":38.548092,"population":521,"stateCapital":false,"nationalCapital":false,"pk":null,"quiz":"asia","code":null,"archived":false,"percentageOfSessions":null}, {"name":"Большая Вершина","state":"Lipetsk","territory":"","country":"Russia","latitude":52.1361586,"longitude":37.9111051,"population":6,"stateCapital":false,"nationalCapital":false,"pk":null,"quiz":"asia","code":null,"archived":false,"percentageOfSessions":null}, {"name":"Большая Ивановка","state":"Lipetsk","territory":"","country":"Russia","latitude":52.1495705,"longitude":38.0095008,"population":338,"stateCapital":false,"nationalCapital":false,"pk":null,"quiz":"asia","code":null,"archived":false,"percentageOfSessions":null}, {"name":"Большая Карповка","state":"Lipetsk","territory":"","country":"Russia","latitude":53.299126,"longitude":39.499451,"population":7,"stateCapital":false,"nationalCapital":false,"pk":null,"quiz":"asia","code":null,"archived":false,"percentageOfSessions":null}, {"name":"Большая Киреевка","state":"Lipetsk","territory":"","country":"Russia","latitude":52.2093569,"longitude":38.2308268,"population":32,"stateCapital":false,"nationalCapital":false,"pk":null,"quiz":"asia","code":null,"archived":false,"percentageOfSessions":null}, {"name":"Большая Кузьминка","state":"Lipetsk","territory":"","country":"Russia","latitude":52.752998,"longitude":39.720917,"population":799,"stateCapital":false,"nationalCapital":false,"pk":null,"quiz":"asia","code":null,"archived":false,"percentageOfSessions":null}, {"name":"Большая Отрада","state":"Lipetsk","territory":"","country":"Russia","latitude":52.340069,"longitude":40.381111,"population":273,"stateCapital":false,"nationalCapital":false,"pk":null,"quiz":"asia","code":null,"archived":false,"percentageOfSessions":null}, {"name":"Большая Плавица","state":"Lipetsk","territory":"","country":"Russia","latitude":52.204193,"longitude":40.338615,"population":509,"stateCapital":false,"nationalCapital":false,"pk":null,"quiz":"asia","code":null,"archived":false,"percentageOfSessions":null}, {"name":"Большая Поляна","state":"Lipetsk","territory":"","country":"Russia","latitude":52.129303,"longitude":38.673367,"population":617,"stateCapital":false,"nationalCapital":false,"pk":null,"quiz":"asia","code":null,"archived":false,"percentageOfSessions":null}, {"name":"Большие Бутырки","state":"Lipetsk","territory":"","country":"Russia","latitude":52.9420826,"longitude":37.9656815,"population":18,"stateCapital":false,"nationalCapital":false,"pk":null,"quiz":"asia","code":null,"archived":false,"percentageOfSessions":null}, {"name":"Большие Выселки","state":"Lipetsk","territory":"","country":"Russia","latitude":52.9437,"longitude":38.4022,"population":1,"stateCapital":false,"nationalCapital":false,"pk":null,"quiz":"asia","code":null,"archived":false,"percentageOfSessions":null}, {"name":"Большие Избищи","state":"Lipetsk","territory":"","country":"Russia","latitude":52.9638139,"longitude":39.3851559,"population":495,"stateCapital":false,"nationalCapital":false,"pk":null,"quiz":"asia","code":null,"archived":false,"percentageOfSessions":null}, {"name":"Большие Извалы","state":"Lipetsk","territory":"","country":"Russia","latitude":52.543396,"longitude":38.748001,"population":546,"stateCapital":false,"nationalCapital":false,"pk":null,"quiz":"asia","code":null,"archived":false,"percentageOfSessions":null}, {"name":"Большие Отрожки","state":"Lipetsk","territory":"","country":"Russia","latitude":52.100658,"longitude":40.327457,"population":64,"stateCapital":false,"nationalCapital":false,"pk":null,"quiz":"asia","code":null,"archived":false,"percentageOfSessions":null}, {"name":"Большие Хомяки","state":"Lipetsk","territory":"","country":"Russia","latitude":52.99651,"longitude":39.525269,"population":75,"stateCapital":false,"nationalCapital":false,"pk":null,"quiz":"asia","code":null,"archived":false,"percentageOfSessions":null}, {"name":"Большовка","state":"Lipetsk","territory":"","country":"Russia","latitude":52.0075977,"longitude":38.0834673,"population":88,"stateCapital":false,"nationalCapital":false,"pk":null,"quiz":"asia","code":null,"archived":false,"percentageOfSessions":null}, {"name":"Большовские Выселки","state":"Lipetsk","territory":"","country":"Russia","latitude":51.9301426,"longitude":37.9747806,"population":55,"stateCapital":false,"nationalCapital":false,"pk":null,"quiz":"asia","code":null,"archived":false,"percentageOfSessions":null}, {"name":"Большое Панарино","state":"Lipetsk","territory":"","country":"Russia","latitude":52.3830096,"longitude":38.8968158,"population":160,"stateCapital":false,"nationalCapital":false,"pk":null,"quiz":"asia","code":null,"archived":false,"percentageOfSessions":null}, {"name":"Большое Петелино","state":"Lipetsk","territory":"","country":"Russia","latitude":53.2535836,"longitude":39.9298845,"population":149,"stateCapital":false,"nationalCapital":false,"pk":null,"quiz":"asia","code":null,"archived":false,"percentageOfSessions":null}, {"name":"Большое Попово","state":"Lipetsk","territory":"","country":"Russia","latitude":52.926434,"longitude":39.088474,"population":705,"stateCapital":false,"nationalCapital":false,"pk":null,"quiz":"asia","code":null,"archived":false,"percentageOfSessions":null}, {"name":"Большой Верх","state":"Lipetsk","territory":"","country":"Russia","latitude":53.0957771,"longitude":38.7467047,"population":225,"stateCapital":false,"nationalCapital":false,"pk":null,"quiz":"asia","code":null,"archived":false,"percentageOfSessions":null}, {"name":"Большой Колодезь","state":"Lipetsk","territory":"","country":"Russia","latitude":52.2283978,"longitude":38.4705862,"population":167,"stateCapital":false,"nationalCapital":false,"pk":null,"quiz":"asia","code":null,"archived":false,"percentageOfSessions":null}, {"name":"Большой Лотошок","state":"Lipetsk","territory":"","country":"Russia","latitude":53.0361073,"longitude":38.0773384,"population":21,"stateCapital":false,"nationalCapital":false,"pk":null,"quiz":"asia","code":null,"archived":false,"percentageOfSessions":null}, {"name":"Большой Мечёк","state":"Lipetsk","territory":"","country":"Russia","latitude":52.261922,"longitude":39.3295991,"population":42,"stateCapital":false,"nationalCapital":false,"pk":null,"quiz":"asia","code":null,"archived":false,"percentageOfSessions":null}, {"name":"Большой Самовец","state":"Lipetsk","territory":"","country":"Russia","latitude":52.528893,"longitude":39.94128,"population":2539,"stateCapital":false,"nationalCapital":false,"pk":null,"quiz":"asia","code":null,"archived":false,"percentageOfSessions":null}, {"name":"Большой Снежеток","state":"Lipetsk","territory":"","country":"Russia","latitude":53.2325,"longitude":40.0675,"population":154,"stateCapital":false,"nationalCapital":false,"pk":null,"quiz":"asia","code":null,"archived":false,"percentageOfSessions":null}, {"name":"Большой Хомутец","state":"Lipetsk","territory":"","country":"Russia","latitude":52.78688,"longitude":39.8503,"population":1060,"stateCapital":false,"nationalCapital":false,"pk":null,"quiz":"asia","code":null,"archived":false,"percentageOfSessions":null}, {"name":"Боринское","state":"Lipetsk","territory":"","country":"Russia","latitude":52.4572761,"longitude":39.3718283,"population":6556,"stateCapital":false,"nationalCapital":false,"pk":null,"quiz":"asia","code":null,"archived":false,"percentageOfSessions":null}, {"name":"Борисовка","state":"Lipetsk","territory":"","country":"Russia","latitude":52.845028,"longitude":39.98798,"population":870,"stateCapital":false,"nationalCapital":false,"pk":null,"quiz":"asia","code":null,"archived":false,"percentageOfSessions":null}, {"name":"Борки","state":"Lipetsk","territory":"","country":"Russia","latitude":52.409115,"longitude":38.702389,"population":47,"stateCapital":false,"nationalCapital":false,"pk":null,"quiz":"asia","code":null,"archived":false,"percentageOfSessions":null}, {"name":"Борки","state":"Lipetsk","territory":"","country":"Russia","latitude":52.152897,"longitude":38.109943,"population":531,"stateCapital":false,"nationalCapital":false,"pk":null,"quiz":"asia","code":null,"archived":false,"percentageOfSessions":null}, {"name":"Боровое","state":"Lipetsk","territory":"","country":"Russia","latitude":52.208115,"longitude":39.516163,"population":350,"stateCapital":false,"nationalCapital":false,"pk":null,"quiz":"asia","code":null,"archived":false,"percentageOfSessions":null}, {"name":"Боровское","state":"Lipetsk","territory":"","country":"Russia","latitude":52.1633719,"longitude":40.3582636,"population":148,"stateCapital":false,"nationalCapital":false,"pk":null,"quiz":"asia","code":null,"archived":false,"percentageOfSessions":null}, {"name":"Борщевка","state":"Lipetsk","territory":"","country":"Russia","latitude":53.53452,"longitude":39.7532839,"population":28,"stateCapital":false,"nationalCapital":false,"pk":null,"quiz":"asia","code":null,"archived":false,"percentageOfSessions":null}, {"name":"Борщевка Государственная","state":"Lipetsk","territory":"","country":"Russia","latitude":53.5636098,"longitude":39.7482205,"population":6,"stateCapital":false,"nationalCapital":false,"pk":null,"quiz":"asia","code":null,"archived":false,"percentageOfSessions":null}, {"name":"Бочиновка","state":"Lipetsk","territory":"","country":"Russia","latitude":52.078251,"longitude":39.757645,"population":621,"stateCapital":false,"nationalCapital":false,"pk":null,"quiz":"asia","code":null,"archived":false,"percentageOfSessions":null}, {"name":"Братовка","state":"Lipetsk","territory":"","country":"Russia","latitude":53.3436856,"longitude":39.9608806,"population":399,"stateCapital":false,"nationalCapital":false,"pk":null,"quiz":"asia","code":null,"archived":false,"percentageOfSessions":null}, {"name":"Братовщина","state":"Lipetsk","territory":"","country":"Russia","latitude":52.3097348,"longitude":38.3421901,"population":1132,"stateCapital":false,"nationalCapital":false,"pk":null,"quiz":"asia","code":null,"archived":false,"percentageOfSessions":null}, {"name":"Бревенное","state":"Lipetsk","territory":"","country":"Russia","latitude":53.311348,"longitude":39.015926,"population":76,"stateCapital":false,"nationalCapital":false,"pk":null,"quiz":"asia","code":null,"archived":false,"percentageOfSessions":null}, {"name":"Бредихино","state":"Lipetsk","territory":"","country":"Russia","latitude":52.0104731,"longitude":40.3397829,"population":7,"stateCapital":false,"nationalCapital":false,"pk":null,"quiz":"asia","code":null,"archived":false,"percentageOfSessions":null}, {"name":"Бредихино","state":"Lipetsk","territory":"","country":"Russia","latitude":52.8703255,"longitude":38.8286826,"population":178,"stateCapital":false,"nationalCapital":false,"pk":null,"quiz":"asia","code":null,"archived":false,"percentageOfSessions":null}, {"name":"Бредихино","state":"Lipetsk","territory":"","country":"Russia","latitude":52.8703255,"longitude":38.8286826,"population":79,"stateCapital":false,"nationalCapital":false,"pk":null,"quiz":"asia","code":null,"archived":false,"percentageOfSessions":null}, {"name":"Бредихины Отруба","state":"Lipetsk","territory":"","country":"Russia","latitude":51.9897836,"longitude":40.3316146,"population":5,"stateCapital":false,"nationalCapital":false,"pk":null,"quiz":"asia","code":null,"archived":false,"percentageOfSessions":null}, {"name":"Бреславка","state":"Lipetsk","territory":"","country":"Russia","latitude":52.220818,"longitude":39.927681,"population":485,"stateCapital":false,"nationalCapital":false,"pk":null,"quiz":"asia","code":null,"archived":false,"percentageOfSessions":null}, {"name":"Бродки","state":"Lipetsk","territory":"","country":"Russia","latitude":52.8267649,"longitude":38.4653518,"population":265,"stateCapital":false,"nationalCapital":false,"pk":null,"quiz":"asia","code":null,"archived":false,"percentageOfSessions":null}, {"name":"Брусенцево","state":"Lipetsk","territory":"","country":"Russia","latitude":52.9252387,"longitude":37.9723553,"population":4,"stateCapital":false,"nationalCapital":false,"pk":null,"quiz":"asia","code":null,"archived":false,"percentageOfSessions":null}, {"name":"Бруслановка","state":"Lipetsk","territory":"","country":"Russia","latitude":52.605278,"longitude":39.28278,"population":456,"stateCapital":false,"nationalCapital":false,"pk":null,"quiz":"asia","code":null,"archived":false,"percentageOfSessions":null}, {"name":"Брусы","state":"Lipetsk","territory":"","country":"Russia","latitude":53.222923,"longitude":38.992229,"population":1,"stateCapital":false,"nationalCapital":false,"pk":null,"quiz":"asia","code":null,"archived":false,"percentageOfSessions":null}, {"name":"Брянский","state":"Lipetsk","territory":"","country":"Russia","latitude":52.159056,"longitude":40.5340719,"population":13,"stateCapital":false,"nationalCapital":false,"pk":null,"quiz":"asia","code":null,"archived":false,"percentageOfSessions":null}, {"name":"Брянцево","state":"Lipetsk","territory":"","country":"Russia","latitude":52.938511,"longitude":38.7935189,"population":68,"stateCapital":false,"nationalCapital":false,"pk":null,"quiz":"asia","code":null,"archived":false,"percentageOfSessions":null}, {"name":"будка 434 км","state":"Lipetsk","territory":"","country":"Russia","latitude":52.578098,"longitude":38.660156,"population":8,"stateCapital":false,"nationalCapital":false,"pk":null,"quiz":"asia","code":null,"archived":false,"percentageOfSessions":null}, {"name":"будка 442 км","state":"Lipetsk","territory":"","country":"Russia","latitude":52.5157331,"longitude":38.6549232,"population":9,"stateCapital":false,"nationalCapital":false,"pk":null,"quiz":"asia","code":null,"archived":false,"percentageOfSessions":null}, {"name":"Буевка","state":"Lipetsk","territory":"","country":"Russia","latitude":52.580368,"longitude":38.63015,"population":15,"stateCapital":false,"nationalCapital":false,"pk":null,"quiz":"asia","code":null,"archived":false,"percentageOfSessions":null}, {"name":"Бунино","state":"Lipetsk","territory":"","country":"Russia","latitude":52.6829242,"longitude":38.3331841,"population":31,"stateCapital":false,"nationalCapital":false,"pk":null,"quiz":"asia","code":null,"archived":false,"percentageOfSessions":null}, {"name":"Буравцева","state":"Lipetsk","territory":"","country":"Russia","latitude":53.085983,"longitude":38.748764,"population":16,"stateCapital":false,"nationalCapital":false,"pk":null,"quiz":"asia","code":null,"archived":false,"percentageOfSessions":null}, {"name":"Бурдино","state":"Lipetsk","territory":"","country":"Russia","latitude":52.142139,"longitude":38.471657,"population":645,"stateCapital":false,"nationalCapital":false,"pk":null,"quiz":"asia","code":null,"archived":false,"percentageOfSessions":null}, {"name":"Бурелом","state":"Lipetsk","territory":"","country":"Russia","latitude":52.337261,"longitude":38.496128,"population":3,"stateCapital":false,"nationalCapital":false,"pk":null,"quiz":"asia","code":null,"archived":false,"percentageOfSessions":null}, {"name":"Бутырки","state":"Lipetsk","territory":"","country":"Russia","latitude":52.680023,"longitude":39.834229,"population":1092,"stateCapital":false,"nationalCapital":false,"pk":null,"quiz":"asia","code":null,"archived":false,"percentageOfSessions":null}, {"name":"Бутырки","state":"Lipetsk","territory":"","country":"Russia","latitude":52.548756,"longitude":38.96019,"population":497,"stateCapital":false,"nationalCapital":false,"pk":null,"quiz":"asia","code":null,"archived":false,"percentageOfSessions":null}, {"name":"Бутырки","state":"Lipetsk","territory":"","country":"Russia","latitude":52.796902,"longitude":38.4221,"population":120,"stateCapital":false,"nationalCapital":false,"pk":null,"quiz":"asia","code":null,"archived":false,"percentageOfSessions":null}, {"name":"Бутырки","state":"Lipetsk","territory":"","country":"Russia","latitude":53.5084091,"longitude":39.8865069,"population":11,"stateCapital":false,"nationalCapital":false,"pk":null,"quiz":"asia","code":null,"archived":false,"percentageOfSessions":null}, {"name":"Буховка","state":"Lipetsk","territory":"","country":"Russia","latitude":53.0684,"longitude":39.9227,"population":50,"stateCapital":false,"nationalCapital":false,"pk":null,"quiz":"asia","code":null,"archived":false,"percentageOfSessions":null}, {"name":"Буховое","state":"Lipetsk","territory":"","country":"Russia","latitude":53.068199,"longitude":39.9734,"population":369,"stateCapital":false,"nationalCapital":false,"pk":null,"quiz":"asia","code":null,"archived":false,"percentageOfSessions":null}, {"name":"Буховские выселки","state":"Lipetsk","territory":"","country":"Russia","latitude":53.1300715,"longitude":39.7605988,"population":8,"stateCapital":false,"nationalCapital":false,"pk":null,"quiz":"asia","code":null,"archived":false,"percentageOfSessions":null}, {"name":"Бухолдино","state":"Lipetsk","territory":"","country":"Russia","latitude":52.5047427,"longitude":38.0890758,"population":96,"stateCapital":false,"nationalCapital":false,"pk":null,"quiz":"asia","code":null,"archived":false,"percentageOfSessions":null}, {"name":"Быковка","state":"Lipetsk","territory":"","country":"Russia","latitude":52.531277,"longitude":38.506485,"population":149,"stateCapital":false,"nationalCapital":false,"pk":null,"quiz":"asia","code":null,"archived":false,"percentageOfSessions":null}, {"name":"Быково","state":"Lipetsk","territory":"","country":"Russia","latitude":52.5142523,"longitude":37.9475495,"population":300,"stateCapital":false,"nationalCapital":false,"pk":null,"quiz":"asia","code":null,"archived":false,"percentageOfSessions":null}, {"name":"Бычки","state":"Lipetsk","territory":"","country":"Russia","latitude":53.3764986,"longitude":39.7754402,"population":54,"stateCapital":false,"nationalCapital":false,"pk":null,"quiz":"asia","code":null,"archived":false,"percentageOfSessions":null}, {"name":"Варваринка","state":"Lipetsk","territory":"","country":"Russia","latitude":52.783554,"longitude":39.442268,"population":53,"stateCapital":false,"nationalCapital":false,"pk":null,"quiz":"asia","code":null,"archived":false,"percentageOfSessions":null}, {"name":"Варваро-Борки","state":"Lipetsk","territory":"","country":"Russia","latitude":52.633671,"longitude":39.162418,"population":362,"stateCapital":false,"nationalCapital":false,"pk":null,"quiz":"asia","code":null,"archived":false,"percentageOfSessions":null}, {"name":"Васильевка","state":"Lipetsk","territory":"","country":"Russia","latitude":51.9780354,"longitude":38.0289563,"population":590,"stateCapital":false,"nationalCapital":false,"pk":null,"quiz":"asia","code":null,"archived":false,"percentageOfSessions":null}, {"name":"Васильевка","state":"Lipetsk","territory":"","country":"Russia","latitude":52.2220183,"longitude":40.7137979,"population":188,"stateCapital":false,"nationalCapital":false,"pk":null,"quiz":"asia","code":null,"archived":false,"percentageOfSessions":null}, {"name":"Васильевка","state":"Lipetsk","territory":"","country":"Russia","latitude":52.4338,"longitude":38.4774,"population":0,"stateCapital":false,"nationalCapital":false,"pk":null,"quiz":"asia","code":null,"archived":false,"percentageOfSessions":null}, {"name":"Васильевка","state":"Lipetsk","territory":"","country":"Russia","latitude":52.7732136,"longitude":37.9996502,"population":286,"stateCapital":false,"nationalCapital":false,"pk":null,"quiz":"asia","code":null,"archived":false,"percentageOfSessions":null}, {"name":"Васильевка","state":"Lipetsk","territory":"","country":"Russia","latitude":52.7732136,"longitude":37.9996502,"population":6,"stateCapital":false,"nationalCapital":false,"pk":null,"quiz":"asia","code":null,"archived":false,"percentageOfSessions":null}, {"name":"Васильевка","state":"Lipetsk","territory":"","country":"Russia","latitude":52.803459,"longitude":38.68409,"population":10,"stateCapital":false,"nationalCapital":false,"pk":null,"quiz":"asia","code":null,"archived":false,"percentageOfSessions":null}, {"name":"Васильевка","state":"Lipetsk","territory":"","country":"Russia","latitude":53.0072995,"longitude":39.0690857,"population":97,"stateCapital":false,"nationalCapital":false,"pk":null,"quiz":"asia","code":null,"archived":false,"percentageOfSessions":null}, {"name":"Васильевка","state":"Lipetsk","territory":"","country":"Russia","latitude":52.506275,"longitude":39.21505,"population":395,"stateCapital":false,"nationalCapital":false,"pk":null,"quiz":"asia","code":null,"archived":false,"percentageOfSessions":null}, {"name":"Васильевка","state":"Lipetsk","territory":"","country":"Russia","latitude":52.116047,"longitude":38.232754,"population":471,"stateCapital":false,"nationalCapital":false,"pk":null,"quiz":"asia","code":null,"archived":false,"percentageOfSessions":null}, {"name":"Васильевка","state":"Lipetsk","territory":"","country":"Russia","latitude":52.2945188,"longitude":39.9501883,"population":29,"stateCapital":false,"nationalCapital":false,"pk":null,"quiz":"asia","code":null,"archived":false,"percentageOfSessions":null}, {"name":"Васильевская Пустошь","state":"Lipetsk","territory":"","country":"Russia","latitude":53.0338006,"longitude":38.9401173,"population":10,"stateCapital":false,"nationalCapital":false,"pk":null,"quiz":"asia","code":null,"archived":false,"percentageOfSessions":null}, {"name":"Введенка","state":"Lipetsk","territory":"","country":"Russia","latitude":52.7088323,"longitude":39.6742629,"population":677,"stateCapital":false,"nationalCapital":false,"pk":null,"quiz":"asia","code":null,"archived":false,"percentageOfSessions":null}, {"name":"Введенка","state":"Lipetsk","territory":"","country":"Russia","latitude":52.291714,"longitude":39.067638,"population":554,"stateCapital":false,"nationalCapital":false,"pk":null,"quiz":"asia","code":null,"archived":false,"percentageOfSessions":null}, {"name":"Ведное","state":"Lipetsk","territory":"","country":"Russia","latitude":53.490898,"longitude":39.786201,"population":412,"stateCapital":false,"nationalCapital":false,"pk":null,"quiz":"asia","code":null,"archived":false,"percentageOfSessions":null}, {"name":"Вербилово","state":"Lipetsk","territory":"","country":"Russia","latitude":52.300842,"longitude":39.421417,"population":824,"stateCapital":false,"nationalCapital":false,"pk":null,"quiz":"asia","code":null,"archived":false,"percentageOfSessions":null}, {"name":"Верещагино","state":"Lipetsk","territory":"","country":"Russia","latitude":52.849594,"longitude":40.029552,"population":15,"stateCapital":false,"nationalCapital":false,"pk":null,"quiz":"asia","code":null,"archived":false,"percentageOfSessions":null}, {"name":"Веригино","state":"Lipetsk","territory":"","country":"Russia","latitude":52.8754,"longitude":38.1374,"population":3,"stateCapital":false,"nationalCapital":false,"pk":null,"quiz":"asia","code":null,"archived":false,"percentageOfSessions":null}, {"name":"Верный Путь","state":"Lipetsk","territory":"","country":"Russia","latitude":52.3362255,"longitude":39.8169834,"population":2,"stateCapital":false,"nationalCapital":false,"pk":null,"quiz":"asia","code":null,"archived":false,"percentageOfSessions":null}, {"name":"Вертячье","state":"Lipetsk","territory":"","country":"Russia","latitude":52.22324,"longitude":39.357323,"population":83,"stateCapital":false,"nationalCapital":false,"pk":null,"quiz":"asia","code":null,"archived":false,"percentageOfSessions":null}, {"name":"Верхнедрезгалово","state":"Lipetsk","territory":"","country":"Russia","latitude":52.76675,"longitude":38.811935,"population":441,"stateCapital":false,"nationalCapital":false,"pk":null,"quiz":"asia","code":null,"archived":false,"percentageOfSessions":null}, {"name":"Верхнее Брусланово","state":"Lipetsk","territory":"","country":"Russia","latitude":52.9301239,"longitude":38.9401195,"population":226,"stateCapital":false,"nationalCapital":false,"pk":null,"quiz":"asia","code":null,"archived":false,"percentageOfSessions":null}, {"name":"Верхнее Казачье","state":"Lipetsk","territory":"","country":"Russia","latitude":52.34906,"longitude":38.88699,"population":412,"stateCapital":false,"nationalCapital":false,"pk":null,"quiz":"asia","code":null,"archived":false,"percentageOfSessions":null}, {"name":"Верхнее Чесночное","state":"Lipetsk","territory":"","country":"Russia","latitude":51.926441,"longitude":38.019184,"population":106,"stateCapital":false,"nationalCapital":false,"pk":null,"quiz":"asia","code":null,"archived":false,"percentageOfSessions":null}, {"name":"Верхний Ломовец","state":"Lipetsk","territory":"","country":"Russia","latitude":52.240498,"longitude":38.603821,"population":758,"stateCapital":false,"nationalCapital":false,"pk":null,"quiz":"asia","code":null,"archived":false,"percentageOfSessions":null}, {"name":"Верхний Студенец","state":"Lipetsk","territory":"","country":"Russia","latitude":52.605091,"longitude":39.058308,"population":543,"stateCapital":false,"nationalCapital":false,"pk":null,"quiz":"asia","code":null,"archived":false,"percentageOfSessions":null}, {"name":"Верхний Телелюй","state":"Lipetsk","territory":"","country":"Russia","latitude":52.3508444,"longitude":39.8938894,"population":729,"stateCapital":false,"nationalCapital":false,"pk":null,"quiz":"asia","code":null,"archived":false,"percentageOfSessions":null}, {"name":"Верхняя Колыбелька","state":"Lipetsk","territory":"","country":"Russia","latitude":52.192692,"longitude":38.917271,"population":699,"stateCapital":false,"nationalCapital":false,"pk":null,"quiz":"asia","code":null,"archived":false,"percentageOfSessions":null}, {"name":"Верхняя Лукавка","state":"Lipetsk","territory":"","country":"Russia","latitude":52.451702,"longitude":40.209045,"population":8,"stateCapital":false,"nationalCapital":false,"pk":null,"quiz":"asia","code":null,"archived":false,"percentageOfSessions":null}, {"name":"Верхняя Матренка","state":"Lipetsk","territory":"","country":"Russia","latitude":52.057503,"longitude":40.184803,"population":921,"stateCapital":false,"nationalCapital":false,"pk":null,"quiz":"asia","code":null,"archived":false,"percentageOfSessions":null}, {"name":"Верхняя Мосоловка","state":"Lipetsk","territory":"","country":"Russia","latitude":52.0528919,"longitude":40.078999,"population":438,"stateCapital":false,"nationalCapital":false,"pk":null,"quiz":"asia","code":null,"archived":false,"percentageOfSessions":null}, {"name":"Верхняя Павловка","state":"Lipetsk","territory":"","country":"Russia","latitude":53.472519,"longitude":38.99157,"population":24,"stateCapital":false,"nationalCapital":false,"pk":null,"quiz":"asia","code":null,"archived":false,"percentageOfSessions":null}, {"name":"Вершина","state":"Lipetsk","territory":"","country":"Russia","latitude":52.0592167,"longitude":38.6191969,"population":45,"stateCapital":false,"nationalCapital":false,"pk":null,"quiz":"asia","code":null,"archived":false,"percentageOfSessions":null}, {"name":"Веселая","state":"Lipetsk","territory":"","country":"Russia","latitude":52.345345,"longitude":38.079273,"population":320,"stateCapital":false,"nationalCapital":false,"pk":null,"quiz":"asia","code":null,"archived":false,"percentageOfSessions":null}, {"name":"Веселовка","state":"Lipetsk","territory":"","country":"Russia","latitude":52.3282993,"longitude":40.3779093,"population":31,"stateCapital":false,"nationalCapital":false,"pk":null,"quiz":"asia","code":null,"archived":false,"percentageOfSessions":null}, {"name":"Весёлое","state":"Lipetsk","territory":"","country":"Russia","latitude":52.437973,"longitude":39.067982,"population":10,"stateCapital":false,"nationalCapital":false,"pk":null,"quiz":"asia","code":null,"archived":false,"percentageOfSessions":null}, {"name":"Вешаловка","state":"Lipetsk","territory":"","country":"Russia","latitude":52.7569026,"longitude":39.2984856,"population":678,"stateCapital":false,"nationalCapital":false,"pk":null,"quiz":"asia","code":null,"archived":false,"percentageOfSessions":null}, {"name":"Виноградовка","state":"Lipetsk","territory":"","country":"Russia","latitude":52.364445,"longitude":39.890945,"population":52,"stateCapital":false,"nationalCapital":false,"pk":null,"quiz":"asia","code":null,"archived":false,"percentageOfSessions":null}, {"name":"Вислая","state":"Lipetsk","territory":"","country":"Russia","latitude":53.251354,"longitude":38.987461,"population":68,"stateCapital":false,"nationalCapital":false,"pk":null,"quiz":"asia","code":null,"archived":false,"percentageOfSessions":null}, {"name":"Вислая Поляна","state":"Lipetsk","territory":"","country":"Russia","latitude":52.150093,"longitude":38.614159,"population":584,"stateCapital":false,"nationalCapital":false,"pk":null,"quiz":"asia","code":null,"archived":false,"percentageOfSessions":null}, {"name":"Вислый колодезь","state":"Lipetsk","territory":"","country":"Russia","latitude":52.0955068,"longitude":37.8033181,"population":18,"stateCapital":false,"nationalCapital":false,"pk":null,"quiz":"asia","code":null,"archived":false,"percentageOfSessions":null}, {"name":"Вихровка","state":"Lipetsk","territory":"","country":"Russia","latitude":53.3534237,"longitude":39.157263,"population":25,"stateCapital":false,"nationalCapital":false,"pk":null,"quiz":"asia","code":null,"archived":false,"percentageOfSessions":null}, {"name":"Вишенки","state":"Lipetsk","territory":"","country":"Russia","latitude":53.177395,"longitude":39.565773,"population":1,"stateCapital":false,"nationalCapital":false,"pk":null,"quiz":"asia","code":null,"archived":false,"percentageOfSessions":null}, {"name":"Вишневая","state":"Lipetsk","territory":"","country":"Russia","latitude":53.046063,"longitude":37.9786609,"population":115,"stateCapital":false,"nationalCapital":false,"pk":null,"quiz":"asia","code":null,"archived":false,"percentageOfSessions":null}, {"name":"Владимировка","state":"Lipetsk","territory":"","country":"Russia","latitude":52.477699,"longitude":38.742279,"population":39,"stateCapital":false,"nationalCapital":false,"pk":null,"quiz":"asia","code":null,"archived":false,"percentageOfSessions":null}, {"name":"Власово","state":"Lipetsk","territory":"","country":"Russia","latitude":52.531269,"longitude":38.181015,"population":218,"stateCapital":false,"nationalCapital":false,"pk":null,"quiz":"asia","code":null,"archived":false,"percentageOfSessions":null}, {"name":"Воейково","state":"Lipetsk","territory":"","country":"Russia","latitude":52.0728884,"longitude":38.270899,"population":123,"stateCapital":false,"nationalCapital":false,"pk":null,"quiz":"asia","code":null,"archived":false,"percentageOfSessions":null}, {"name":"Воздвиженка","state":"Lipetsk","territory":"","country":"Russia","latitude":51.978527,"longitude":38.101711,"population":72,"stateCapital":false,"nationalCapital":false,"pk":null,"quiz":"asia","code":null,"archived":false,"percentageOfSessions":null}, {"name":"Войсковая Казинка","state":"Lipetsk","territory":"","country":"Russia","latitude":52.413616,"longitude":38.066654,"population":197,"stateCapital":false,"nationalCapital":false,"pk":null,"quiz":"asia","code":null,"archived":false,"percentageOfSessions":null}, {"name":"Волгоэлектросетьстрой","state":"Lipetsk","territory":"","country":"Russia","latitude":52.541699,"longitude":40.0640841,"population":307,"stateCapital":false,"nationalCapital":false,"pk":null,"quiz":"asia","code":null,"archived":false,"percentageOfSessions":null}, {"name":"Волково","state":"Lipetsk","territory":"","country":"Russia","latitude":53.4802,"longitude":39.7699,"population":9,"stateCapital":false,"nationalCapital":false,"pk":null,"quiz":"asia","code":null,"archived":false,"percentageOfSessions":null}, {"name":"Волово","state":"Lipetsk","territory":"","country":"Russia","latitude":52.0283838,"longitude":37.8790391,"population":3734,"stateCapital":false,"nationalCapital":false,"pk":null,"quiz":"asia","code":null,"archived":false,"percentageOfSessions":null}, {"name":"Воловские Выселки","state":"Lipetsk","territory":"","country":"Russia","latitude":52.0038363,"longitude":37.924534,"population":15,"stateCapital":false,"nationalCapital":false,"pk":null,"quiz":"asia","code":null,"archived":false,"percentageOfSessions":null}, {"name":"Воловский 1-ый","state":"Lipetsk","territory":"","country":"Russia","latitude":51.9450949,"longitude":38.1250286,"population":7,"stateCapital":false,"nationalCapital":false,"pk":null,"quiz":"asia","code":null,"archived":false,"percentageOfSessions":null}, {"name":"Воловский 2-ой","state":"Lipetsk","territory":"","country":"Russia","latitude":51.9299823,"longitude":38.0791919,"population":47,"stateCapital":false,"nationalCapital":false,"pk":null,"quiz":"asia","code":null,"archived":false,"percentageOfSessions":null}, {"name":"Воловчик","state":"Lipetsk","territory":"","country":"Russia","latitude":52.021278,"longitude":37.812721,"population":467,"stateCapital":false,"nationalCapital":false,"pk":null,"quiz":"asia","code":null,"archived":false,"percentageOfSessions":null}, {"name":"Володаровка","state":"Lipetsk","territory":"","country":"Russia","latitude":52.0477285,"longitude":38.0947736,"population":37,"stateCapital":false,"nationalCapital":false,"pk":null,"quiz":"asia","code":null,"archived":false,"percentageOfSessions":null}, {"name":"Володарского","state":"Lipetsk","territory":"","country":"Russia","latitude":52.4422811,"longitude":37.9501194,"population":7,"stateCapital":false,"nationalCapital":false,"pk":null,"quiz":"asia","code":null,"archived":false,"percentageOfSessions":null}, {"name":"Волотово","state":"Lipetsk","territory":"","country":"Russia","latitude":52.964809,"longitude":39.086929,"population":596,"stateCapital":false,"nationalCapital":false,"pk":null,"quiz":"asia","code":null,"archived":false,"percentageOfSessions":null}, {"name":"Волотовские Дворики","state":"Lipetsk","territory":"","country":"Russia","latitude":52.9033941,"longitude":39.1739178,"population":6,"stateCapital":false,"nationalCapital":false,"pk":null,"quiz":"asia","code":null,"archived":false,"percentageOfSessions":null}, {"name":"Волотовские Озерки","state":"Lipetsk","territory":"","country":"Russia","latitude":52.8898672,"longitude":39.173789,"population":1,"stateCapital":false,"nationalCapital":false,"pk":null,"quiz":"asia","code":null,"archived":false,"percentageOfSessions":null}, {"name":"Волтовской","state":"Lipetsk","territory":"","country":"Russia","latitude":52.8556788,"longitude":38.9479874,"population":13,"stateCapital":false,"nationalCapital":false,"pk":null,"quiz":"asia","code":null,"archived":false,"percentageOfSessions":null}, {"name":"Волхонские Выселки","state":"Lipetsk","territory":"","country":"Russia","latitude":53.196534,"longitude":39.9974011,"population":1,"stateCapital":false,"nationalCapital":false,"pk":null,"quiz":"asia","code":null,"archived":false,"percentageOfSessions":null}, {"name":"Волчье","state":"Lipetsk","territory":"","country":"Russia","latitude":53.026775,"longitude":39.634121,"population":857,"stateCapital":false,"nationalCapital":false,"pk":null,"quiz":"asia","code":null,"archived":false,"percentageOfSessions":null}, {"name":"Волчье","state":"Lipetsk","territory":"","country":"Russia","latitude":52.527699,"longitude":38.291,"population":113,"stateCapital":false,"nationalCapital":false,"pk":null,"quiz":"asia","code":null,"archived":false,"percentageOfSessions":null}, {"name":"Волынское","state":"Lipetsk","territory":"","country":"Russia","latitude":52.9859476,"longitude":37.8788215,"population":0,"stateCapital":false,"nationalCapital":false,"pk":null,"quiz":"asia","code":null,"archived":false,"percentageOfSessions":null}, {"name":"Воля","state":"Lipetsk","territory":"","country":"Russia","latitude":52.072071,"longitude":40.271324,"population":6,"stateCapital":false,"nationalCapital":false,"pk":null,"quiz":"asia","code":null,"archived":false,"percentageOfSessions":null}, {"name":"Воргол","state":"Lipetsk","territory":"","country":"Russia","latitude":52.7053683,"longitude":37.9859615,"population":14,"stateCapital":false,"nationalCapital":false,"pk":null,"quiz":"asia","code":null,"archived":false,"percentageOfSessions":null}, {"name":"Воробьевка","state":"Lipetsk","territory":"","country":"Russia","latitude":52.227341,"longitude":39.196903,"population":1047,"stateCapital":false,"nationalCapital":false,"pk":null,"quiz":"asia","code":null,"archived":false,"percentageOfSessions":null}, {"name":"Воронежское Маланино","state":"Lipetsk","territory":"","country":"Russia","latitude":52.10463,"longitude":39.328934,"population":0,"stateCapital":false,"nationalCapital":false,"pk":null,"quiz":"asia","code":null,"archived":false,"percentageOfSessions":null}, {"name":"Воронец","state":"Lipetsk","territory":"","country":"Russia","latitude":52.5214,"longitude":38.4991,"population":1153,"stateCapital":false,"nationalCapital":false,"pk":null,"quiz":"asia","code":null,"archived":false,"percentageOfSessions":null}, {"name":"Ворон-Лозовка","state":"Lipetsk","territory":"","country":"Russia","latitude":52.2056761,"longitude":39.2727792,"population":318,"stateCapital":false,"nationalCapital":false,"pk":null,"quiz":"asia","code":null,"archived":false,"percentageOfSessions":null}, {"name":"Вороновка","state":"Lipetsk","territory":"","country":"Russia","latitude":52.288506,"longitude":38.507843,"population":17,"stateCapital":false,"nationalCapital":false,"pk":null,"quiz":"asia","code":null,"archived":false,"percentageOfSessions":null}, {"name":"Вороново","state":"Lipetsk","territory":"","country":"Russia","latitude":52.446602,"longitude":38.7715,"population":0,"stateCapital":false,"nationalCapital":false,"pk":null,"quiz":"asia","code":null,"archived":false,"percentageOfSessions":null}, {"name":"Воронцовка","state":"Lipetsk","territory":"","country":"Russia","latitude":52.0757397,"longitude":37.770614,"population":82,"stateCapital":false,"nationalCapital":false,"pk":null,"quiz":"asia","code":null,"archived":false,"percentageOfSessions":null}, {"name":"Воскресеновка","state":"Lipetsk","territory":"","country":"Russia","latitude":52.1162205,"longitude":40.5101311,"population":79,"stateCapital":false,"nationalCapital":false,"pk":null,"quiz":"asia","code":null,"archived":false,"percentageOfSessions":null}, {"name":"Воскресеновка","state":"Lipetsk","territory":"","country":"Russia","latitude":52.692585,"longitude":39.682846,"population":815,"stateCapital":false,"nationalCapital":false,"pk":null,"quiz":"asia","code":null,"archived":false,"percentageOfSessions":null}, {"name":"Воскресеновский","state":"Lipetsk","territory":"","country":"Russia","latitude":52.9404512,"longitude":37.9592338,"population":7,"stateCapital":false,"nationalCapital":false,"pk":null,"quiz":"asia","code":null,"archived":false,"percentageOfSessions":null}, {"name":"Воскресенское","state":"Lipetsk","territory":"","country":"Russia","latitude":53.5456082,"longitude":38.841524,"population":672,"stateCapital":false,"nationalCapital":false,"pk":null,"quiz":"asia","code":null,"archived":false,"percentageOfSessions":null}, {"name":"Воскресенское","state":"Lipetsk","territory":"","country":"Russia","latitude":53.5456082,"longitude":38.841524,"population":479,"stateCapital":false,"nationalCapital":false,"pk":null,"quiz":"asia","code":null,"archived":false,"percentageOfSessions":null}, {"name":"Воскресенское","state":"Lipetsk","territory":"","country":"Russia","latitude":53.323601,"longitude":39.9515,"population":348,"stateCapital":false,"nationalCapital":false,"pk":null,"quiz":"asia","code":null,"archived":false,"percentageOfSessions":null}, {"name":"Восток","state":"Lipetsk","territory":"","country":"Russia","latitude":53.4064864,"longitude":39.1467665,"population":5,"stateCapital":false,"nationalCapital":false,"pk":null,"quiz":"asia","code":null,"archived":false,"percentageOfSessions":null}, {"name":"Востряковка","state":"Lipetsk","territory":"","country":"Russia","latitude":52.1718208,"longitude":40.206578,"population":32,"stateCapital":false,"nationalCapital":false,"pk":null,"quiz":"asia","code":null,"archived":false,"percentageOfSessions":null}, {"name":"Вторые Тербуны","state":"Lipetsk","territory":"","country":"Russia","latitude":52.115601,"longitude":38.494701,"population":1377,"stateCapital":false,"nationalCapital":false,"pk":null,"quiz":"asia","code":null,"archived":false,"percentageOfSessions":null}, {"name":"Выглядовка","state":"Lipetsk","territory":"","country":"Russia","latitude":52.7830226,"longitude":38.7428835,"population":20,"stateCapital":false,"nationalCapital":false,"pk":null,"quiz":"asia","code":null,"archived":false,"percentageOfSessions":null}, {"name":"Выглядовка","state":"Lipetsk","territory":"","country":"Russia","latitude":53.3527,"longitude":39.8922,"population":4,"stateCapital":false,"nationalCapital":false,"pk":null,"quiz":"asia","code":null,"archived":false,"percentageOfSessions":null}, {"name":"Выголка","state":"Lipetsk","territory":"","country":"Russia","latitude":52.494713,"longitude":38.205727,"population":22,"stateCapital":false,"nationalCapital":false,"pk":null,"quiz":"asia","code":null,"archived":false,"percentageOfSessions":null}, {"name":"Выползово","state":"Lipetsk","territory":"","country":"Russia","latitude":53.0225521,"longitude":38.6276627,"population":19,"stateCapital":false,"nationalCapital":false,"pk":null,"quiz":"asia","code":null,"archived":false,"percentageOfSessions":null}, {"name":"Выселки","state":"Lipetsk","territory":"","country":"Russia","latitude":53.5093828,"longitude":39.8779425,"population":34,"stateCapital":false,"nationalCapital":false,"pk":null,"quiz":"asia","code":null,"archived":false,"percentageOfSessions":null}, {"name":"Высокополье","state":"Lipetsk","territory":"","country":"Russia","latitude":52.3107364,"longitude":39.8745583,"population":104,"stateCapital":false,"nationalCapital":false,"pk":null,"quiz":"asia","code":null,"archived":false,"percentageOfSessions":null}, {"name":"Вышнее Большое","state":"Lipetsk","territory":"","country":"Russia","latitude":51.975819,"longitude":37.864861,"population":713,"stateCapital":false,"nationalCapital":false,"pk":null,"quiz":"asia","code":null,"archived":false,"percentageOfSessions":null}, {"name":"Вязова Вершина","state":"Lipetsk","territory":"","country":"Russia","latitude":53.004173,"longitude":39.316208,"population":0,"stateCapital":false,"nationalCapital":false,"pk":null,"quiz":"asia","code":null,"archived":false,"percentageOfSessions":null}, {"name":"Вязовёнка","state":"Lipetsk","territory":"","country":"Russia","latitude":53.421627,"longitude":38.761345,"population":0,"stateCapital":false,"nationalCapital":false,"pk":null,"quiz":"asia","code":null,"archived":false,"percentageOfSessions":null}, {"name":"Вязово","state":"Lipetsk","territory":"","country":"Russia","latitude":53.023472,"longitude":39.307869,"population":256,"stateCapital":false,"nationalCapital":false,"pk":null,"quiz":"asia","code":null,"archived":false,"percentageOfSessions":null}, {"name":"Вязовое","state":"Lipetsk","territory":"","country":"Russia","latitude":52.3741393,"longitude":38.1699431,"population":321,"stateCapital":false,"nationalCapital":false,"pk":null,"quiz":"asia","code":null,"archived":false,"percentageOfSessions":null}, {"name":"Вязьма","state":"Lipetsk","territory":"","country":"Russia","latitude":52.847652,"longitude":37.959949,"population":8,"stateCapital":false,"nationalCapital":false,"pk":null,"quiz":"asia","code":null,"archived":false,"percentageOfSessions":null}, {"name":"Гагарино","state":"Lipetsk","territory":"","country":"Russia","latitude":53.3769698,"longitude":39.3599336,"population":23,"stateCapital":false,"nationalCapital":false,"pk":null,"quiz":"asia","code":null,"archived":false,"percentageOfSessions":null}, {"name":"Гагарино","state":"Lipetsk","territory":"","country":"Russia","latitude":52.747482,"longitude":38.951794,"population":48,"stateCapital":false,"nationalCapital":false,"pk":null,"quiz":"asia","code":null,"archived":false,"percentageOfSessions":null}, {"name":"Гагарино","state":"Lipetsk","territory":"","country":"Russia","latitude":53.3443557,"longitude":39.6974937,"population":718,"stateCapital":false,"nationalCapital":false,"pk":null,"quiz":"asia","code":null,"archived":false,"percentageOfSessions":null}, {"name":"Гагино","state":"Lipetsk","territory":"","country":"Russia","latitude":53.3411658,"longitude":39.6355883,"population":131,"stateCapital":false,"nationalCapital":false,"pk":null,"quiz":"asia","code":null,"archived":false,"percentageOfSessions":null}, {"name":"Газопровод","state":"Lipetsk","territory":"","country":"Russia","latitude":52.601736,"longitude":38.4410992,"population":1460,"stateCapital":false,"nationalCapital":false,"pk":null,"quiz":"asia","code":null,"archived":false,"percentageOfSessions":null}, {"name":"Галинка","state":"Lipetsk","territory":"","country":"Russia","latitude":52.5157619,"longitude":38.1430221,"population":66,"stateCapital":false,"nationalCapital":false,"pk":null,"quiz":"asia","code":null,"archived":false,"percentageOfSessions":null}, {"name":"Галичья Гора","state":"Lipetsk","territory":"","country":"Russia","latitude":52.600773,"longitude":38.899521,"population":105,"stateCapital":false,"nationalCapital":false,"pk":null,"quiz":"asia","code":null,"archived":false,"percentageOfSessions":null}, {"name":"Галкинский","state":"Lipetsk","territory":"","country":"Russia","latitude":53.1966539,"longitude":39.763554,"population":0,"stateCapital":false,"nationalCapital":false,"pk":null,"quiz":"asia","code":null,"archived":false,"percentageOfSessions":null}, {"name":"Гаршино","state":"Lipetsk","territory":"","country":"Russia","latitude":52.2899502,"longitude":40.0409616,"population":10,"stateCapital":false,"nationalCapital":false,"pk":null,"quiz":"asia","code":null,"archived":false,"percentageOfSessions":null}, {"name":"Гатище","state":"Lipetsk","territory":"","country":"Russia","latitude":52.211845,"longitude":37.950542,"population":481,"stateCapital":false,"nationalCapital":false,"pk":null,"quiz":"asia","code":null,"archived":false,"percentageOfSessions":null}, {"name":"Георгиевка","state":"Lipetsk","territory":"","country":"Russia","latitude":51.980793,"longitude":40.3157395,"population":256,"stateCapital":false,"nationalCapital":false,"pk":null,"quiz":"asia","code":null,"archived":false,"percentageOfSessions":null}, {"name":"Георгиевка","state":"Lipetsk","territory":"","country":"Russia","latitude":51.980793,"longitude":40.3157395,"population":186,"stateCapital":false,"nationalCapital":false,"pk":null,"quiz":"asia","code":null,"archived":false,"percentageOfSessions":null}, {"name":"Георгиевское","state":"Lipetsk","territory":"","country":"Russia","latitude":52.9091,"longitude":38.3373,"population":67,"stateCapital":false,"nationalCapital":false,"pk":null,"quiz":"asia","code":null,"archived":false,"percentageOfSessions":null}, {"name":"Глебовка","state":"Lipetsk","territory":"","country":"Russia","latitude":52.8569,"longitude":38.3828,"population":13,"stateCapital":false,"nationalCapital":false,"pk":null,"quiz":"asia","code":null,"archived":false,"percentageOfSessions":null}, {"name":"Глумово","state":"Lipetsk","territory":"","country":"Russia","latitude":53.0376697,"longitude":38.0184179,"population":35,"stateCapital":false,"nationalCapital":false,"pk":null,"quiz":"asia","code":null,"archived":false,"percentageOfSessions":null}, {"name":"Глушица","state":"Lipetsk","territory":"","country":"Russia","latitude":52.492699,"longitude":38.292919,"population":2,"stateCapital":false,"nationalCapital":false,"pk":null,"quiz":"asia","code":null,"archived":false,"percentageOfSessions":null}, {"name":"Гниловоды","state":"Lipetsk","territory":"","country":"Russia","latitude":52.52726,"longitude":37.872807,"population":133,"stateCapital":false,"nationalCapital":false,"pk":null,"quiz":"asia","code":null,"archived":false,"percentageOfSessions":null}, {"name":"Гнилуша","state":"Lipetsk","territory":"","country":"Russia","latitude":52.320091,"longitude":39.097622,"population":1423,"stateCapital":false,"nationalCapital":false,"pk":null,"quiz":"asia","code":null,"archived":false,"percentageOfSessions":null}, {"name":"Голиково","state":"Lipetsk","territory":"","country":"Russia","latitude":52.693996,"longitude":38.836998,"population":506,"stateCapital":false,"nationalCapital":false,"pk":null,"quiz":"asia","code":null,"archived":false,"percentageOfSessions":null}, {"name":"Головинщино","state":"Lipetsk","territory":"","country":"Russia","latitude":53.323414,"longitude":38.831348,"population":4,"stateCapital":false,"nationalCapital":false,"pk":null,"quiz":"asia","code":null,"archived":false,"percentageOfSessions":null}, {"name":"Головинщино","state":"Lipetsk","territory":"","country":"Russia","latitude":53.193203,"longitude":39.645649,"population":498,"stateCapital":false,"nationalCapital":false,"pk":null,"quiz":"asia","code":null,"archived":false,"percentageOfSessions":null}, {"name":"Головщино","state":"Lipetsk","territory":"","country":"Russia","latitude":52.620117,"longitude":39.88998,"population":341,"stateCapital":false,"nationalCapital":false,"pk":null,"quiz":"asia","code":null,"archived":false,"percentageOfSessions":null}, {"name":"Гололобово","state":"Lipetsk","territory":"","country":"Russia","latitude":52.994447,"longitude":38.7448201,"population":21,"stateCapital":false,"nationalCapital":false,"pk":null,"quiz":"asia","code":null,"archived":false,"percentageOfSessions":null}, {"name":"Голубевка","state":"Lipetsk","territory":"","country":"Russia","latitude":52.536091,"longitude":38.597931,"population":4,"stateCapital":false,"nationalCapital":false,"pk":null,"quiz":"asia","code":null,"archived":false,"percentageOfSessions":null}, {"name":"Гора","state":"Lipetsk","territory":"","country":"Russia","latitude":53.0432161,"longitude":38.0889684,"population":8,"stateCapital":false,"nationalCapital":false,"pk":null,"quiz":"asia","code":null,"archived":false,"percentageOfSessions":null}, {"name":"Горденин","state":"Lipetsk","territory":"","country":"Russia","latitude":52.2919981,"longitude":39.3488252,"population":0,"stateCapital":false,"nationalCapital":false,"pk":null,"quiz":"asia","code":null,"archived":false,"percentageOfSessions":null}, {"name":"Горицы","state":"Lipetsk","territory":"","country":"Russia","latitude":52.772499,"longitude":39.8125,"population":295,"stateCapital":false,"nationalCapital":false,"pk":null,"quiz":"asia","code":null,"archived":false,"percentageOfSessions":null}, {"name":"Горлово","state":"Lipetsk","territory":"","country":"Russia","latitude":53.5736,"longitude":39.7445,"population":13,"stateCapital":false,"nationalCapital":false,"pk":null,"quiz":"asia","code":null,"archived":false,"percentageOfSessions":null}, {"name":"Городки","state":"Lipetsk","territory":"","country":"Russia","latitude":53.264473,"longitude":38.957809,"population":131,"stateCapital":false,"nationalCapital":false,"pk":null,"quiz":"asia","code":null,"archived":false,"percentageOfSessions":null}, {"name":"Городок","state":"Lipetsk","territory":"","country":"Russia","latitude":53.5294707,"longitude":39.6299171,"population":0,"stateCapital":false,"nationalCapital":false,"pk":null,"quiz":"asia","code":null,"archived":false,"percentageOfSessions":null}, {"name":"Горюшки","state":"Lipetsk","territory":"","country":"Russia","latitude":53.4142,"longitude":39.8937,"population":0,"stateCapital":false,"nationalCapital":false,"pk":null,"quiz":"asia","code":null,"archived":false,"percentageOfSessions":null}, {"name":"Грачевка","state":"Lipetsk","territory":"","country":"Russia","latitude":52.091385,"longitude":40.001755,"population":910,"stateCapital":false,"nationalCapital":false,"pk":null,"quiz":"asia","code":null,"archived":false,"percentageOfSessions":null}, {"name":"Грачёвка","state":"Lipetsk","territory":"","country":"Russia","latitude":51.9534666,"longitude":38.1904507,"population":22,"stateCapital":false,"nationalCapital":false,"pk":null,"quiz":"asia","code":null,"archived":false,"percentageOfSessions":null}, {"name":"Греково","state":"Lipetsk","territory":"","country":"Russia","latitude":53.3170826,"longitude":38.5920736,"population":8,"stateCapital":false,"nationalCapital":false,"pk":null,"quiz":"asia","code":null,"archived":false,"percentageOfSessions":null}, {"name":"Грибоедово","state":"Lipetsk","territory":"","country":"Russia","latitude":52.38015,"longitude":38.401524,"population":34,"stateCapital":false,"nationalCapital":false,"pk":null,"quiz":"asia","code":null,"archived":false,"percentageOfSessions":null}, {"name":"Григоровка","state":"Lipetsk","territory":"","country":"Russia","latitude":52.8262,"longitude":38.3665,"population":19,"stateCapital":false,"nationalCapital":false,"pk":null,"quiz":"asia","code":null,"archived":false,"percentageOfSessions":null}, {"name":"Гриневка","state":"Lipetsk","territory":"","country":"Russia","latitude":52.2969944,"longitude":38.4947361,"population":44,"stateCapital":false,"nationalCapital":false,"pk":null,"quiz":"asia","code":null,"archived":false,"percentageOfSessions":null}, {"name":"Грунин Воргол","state":"Lipetsk","territory":"","country":"Russia","latitude":52.8565067,"longitude":38.2606734,"population":496,"stateCapital":false,"nationalCapital":false,"pk":null,"quiz":"asia","code":null,"archived":false,"percentageOfSessions":null}, {"name":"Грунин-Воргол","state":"Lipetsk","territory":"","country":"Russia","latitude":52.8874687,"longitude":38.3325134,"population":39,"stateCapital":false,"nationalCapital":false,"pk":null,"quiz":"asia","code":null,"archived":false,"percentageOfSessions":null}, {"name":"Грызлово","state":"Lipetsk","territory":"","country":"Russia","latitude":52.440075,"longitude":38.197395,"population":357,"stateCapital":false,"nationalCapital":false,"pk":null,"quiz":"asia","code":null,"archived":false,"percentageOfSessions":null}, {"name":"Грязи","state":"Lipetsk","territory":"","country":"Russia","latitude":52.49612,"longitude":39.955162,"population":46807,"stateCapital":false,"nationalCapital":false,"pk":null,"quiz":"asia","code":null,"archived":false,"percentageOfSessions":null}, {"name":"Грязновка","state":"Lipetsk","territory":"","country":"Russia","latitude":52.808098,"longitude":39.244068,"population":264,"stateCapital":false,"nationalCapital":false,"pk":null,"quiz":"asia","code":null,"archived":false,"percentageOfSessions":null}, {"name":"Грязновка","state":"Lipetsk","territory":"","country":"Russia","latitude":53.161769,"longitude":39.481554,"population":3,"stateCapital":false,"nationalCapital":false,"pk":null,"quiz":"asia","code":null,"archived":false,"percentageOfSessions":null}, {"name":"Грязновка","state":"Lipetsk","territory":"","country":"Russia","latitude":52.2561429,"longitude":38.0825072,"population":177,"stateCapital":false,"nationalCapital":false,"pk":null,"quiz":"asia","code":null,"archived":false,"percentageOfSessions":null}, {"name":"Грязное","state":"Lipetsk","territory":"","country":"Russia","latitude":52.364059,"longitude":39.390846,"population":513,"stateCapital":false,"nationalCapital":false,"pk":null,"quiz":"asia","code":null,"archived":false,"percentageOfSessions":null}, {"name":"Губино","state":"Lipetsk","territory":"","country":"Russia","latitude":53.015568,"longitude":38.99789,"population":297,"stateCapital":false,"nationalCapital":false,"pk":null,"quiz":"asia","code":null,"archived":false,"percentageOfSessions":null}, {"name":"Гугуевка","state":"Lipetsk","territory":"","country":"Russia","latitude":53.4275171,"longitude":38.9831248,"population":106,"stateCapital":false,"nationalCapital":false,"pk":null,"quiz":"asia","code":null,"archived":false,"percentageOfSessions":null}, {"name":"Гудаловка","state":"Lipetsk","territory":"","country":"Russia","latitude":52.651985,"longitude":39.81852,"population":761,"stateCapital":false,"nationalCapital":false,"pk":null,"quiz":"asia","code":null,"archived":false,"percentageOfSessions":null}, {"name":"Гудаловка","state":"Lipetsk","territory":"","country":"Russia","latitude":52.4879875,"longitude":38.5855504,"population":0,"stateCapital":false,"nationalCapital":false,"pk":null,"quiz":"asia","code":null,"archived":false,"percentageOfSessions":null}, {"name":"Гудаловка","state":"Lipetsk","territory":"","country":"Russia","latitude":52.8351221,"longitude":38.6262181,"population":240,"stateCapital":false,"nationalCapital":false,"pk":null,"quiz":"asia","code":null,"archived":false,"percentageOfSessions":null}, {"name":"Гудбок","state":"Lipetsk","territory":"","country":"Russia","latitude":52.997185,"longitude":39.688305,"population":33,"stateCapital":false,"nationalCapital":false,"pk":null,"quiz":"asia","code":null,"archived":false,"percentageOfSessions":null}, {"name":"Гудино","state":"Lipetsk","territory":"","country":"Russia","latitude":53.2276331,"longitude":38.7212917,"population":11,"stateCapital":false,"nationalCapital":false,"pk":null,"quiz":"asia","code":null,"archived":false,"percentageOfSessions":null}, {"name":"Гудовка","state":"Lipetsk","territory":"","country":"Russia","latitude":52.241501,"longitude":38.936001,"population":4,"stateCapital":false,"nationalCapital":false,"pk":null,"quiz":"asia","code":null,"archived":false,"percentageOfSessions":null}, {"name":"Гудовка","state":"Lipetsk","territory":"","country":"Russia","latitude":52.381882,"longitude":39.331787,"population":108,"stateCapital":false,"nationalCapital":false,"pk":null,"quiz":"asia","code":null,"archived":false,"percentageOfSessions":null}, {"name":"Гудовка","state":"Lipetsk","territory":"","country":"Russia","latitude":52.164425,"longitude":39.059978,"population":387,"stateCapital":false,"nationalCapital":false,"pk":null,"quiz":"asia","code":null,"archived":false,"percentageOfSessions":null}, {"name":"Гудово","state":"Lipetsk","territory":"","country":"Russia","latitude":52.9853503,"longitude":39.805616,"population":430,"stateCapital":false,"nationalCapital":false,"pk":null,"quiz":"asia","code":null,"archived":false,"percentageOfSessions":null}, {"name":"Гусевка","state":"Lipetsk","territory":"","country":"Russia","latitude":53.291401,"longitude":38.635719,"population":44,"stateCapital":false,"nationalCapital":false,"pk":null,"quiz":"asia","code":null,"archived":false,"percentageOfSessions":null}, {"name":"Густый","state":"Lipetsk","territory":"","country":"Russia","latitude":52.986893,"longitude":39.68132,"population":25,"stateCapital":false,"nationalCapital":false,"pk":null,"quiz":"asia","code":null,"archived":false,"percentageOfSessions":null}, {"name":"Гущин Колодезь","state":"Lipetsk","territory":"","country":"Russia","latitude":52.28669,"longitude":38.221066,"population":34,"stateCapital":false,"nationalCapital":false,"pk":null,"quiz":"asia","code":null,"archived":false,"percentageOfSessions":null}, {"name":"Давыдовка","state":"Lipetsk","territory":"","country":"Russia","latitude":52.762966,"longitude":39.584473,"population":8,"stateCapital":false,"nationalCapital":false,"pk":null,"quiz":"asia","code":null,"archived":false,"percentageOfSessions":null}, {"name":"Давыдовка","state":"Lipetsk","territory":"","country":"Russia","latitude":52.2143906,"longitude":38.0812755,"population":33,"stateCapital":false,"nationalCapital":false,"pk":null,"quiz":"asia","code":null,"archived":false,"percentageOfSessions":null}, {"name":"Дальний","state":"Lipetsk","territory":"","country":"Russia","latitude":52.965469,"longitude":39.966644,"population":26,"stateCapital":false,"nationalCapital":false,"pk":null,"quiz":"asia","code":null,"archived":false,"percentageOfSessions":null}, {"name":"Даниловка","state":"Lipetsk","territory":"","country":"Russia","latitude":52.02124,"longitude":38.2648104,"population":32,"stateCapital":false,"nationalCapital":false,"pk":null,"quiz":"asia","code":null,"archived":false,"percentageOfSessions":null}, {"name":"Даниловские Выселки","state":"Lipetsk","territory":"","country":"Russia","latitude":52.0855256,"longitude":38.1884712,"population":0,"stateCapital":false,"nationalCapital":false,"pk":null,"quiz":"asia","code":null,"archived":false,"percentageOfSessions":null}, {"name":"Данков","state":"Lipetsk","territory":"","country":"Russia","latitude":53.2533095,"longitude":39.1591798,"population":21064,"stateCapital":false,"nationalCapital":false,"pk":null,"quiz":"asia","code":null,"archived":false,"percentageOfSessions":null}, {"name":"Данковка","state":"Lipetsk","territory":"","country":"Russia","latitude":51.9562617,"longitude":40.3072992,"population":0,"stateCapital":false,"nationalCapital":false,"pk":null,"quiz":"asia","code":null,"archived":false,"percentageOfSessions":null}, {"name":"Даньшино","state":"Lipetsk","territory":"","country":"Russia","latitude":52.310371,"longitude":39.040676,"population":87,"stateCapital":false,"nationalCapital":false,"pk":null,"quiz":"asia","code":null,"archived":false,"percentageOfSessions":null}, {"name":"Даньшино","state":"Lipetsk","territory":"","country":"Russia","latitude":52.306477,"longitude":39.041981,"population":85,"stateCapital":false,"nationalCapital":false,"pk":null,"quiz":"asia","code":null,"archived":false,"percentageOfSessions":null}, {"name":"Дареновка","state":"Lipetsk","territory":"","country":"Russia","latitude":52.784229,"longitude":39.532669,"population":4,"stateCapital":false,"nationalCapital":false,"pk":null,"quiz":"asia","code":null,"archived":false,"percentageOfSessions":null}, {"name":"Дачный","state":"Lipetsk","territory":"","country":"Russia","latitude":53.3688794,"longitude":40.0354446,"population":6,"stateCapital":false,"nationalCapital":false,"pk":null,"quiz":"asia","code":null,"archived":false,"percentageOfSessions":null}, {"name":"Дашино","state":"Lipetsk","territory":"","country":"Russia","latitude":53.5364243,"longitude":39.8244417,"population":10,"stateCapital":false,"nationalCapital":false,"pk":null,"quiz":"asia","code":null,"archived":false,"percentageOfSessions":null}, {"name":"Дворики","state":"Lipetsk","territory":"","country":"Russia","latitude":52.7722081,"longitude":38.6255208,"population":27,"stateCapital":false,"nationalCapital":false,"pk":null,"quiz":"asia","code":null,"archived":false,"percentageOfSessions":null}, {"name":"Двуречки","state":"Lipetsk","territory":"","country":"Russia","latitude":52.4480592,"longitude":39.654254,"population":1459,"stateCapital":false,"nationalCapital":false,"pk":null,"quiz":"asia","code":null,"archived":false,"percentageOfSessions":null}, {"name":"Дебри","state":"Lipetsk","territory":"","country":"Russia","latitude":52.354595,"longitude":40.04401,"population":25,"stateCapital":false,"nationalCapital":false,"pk":null,"quiz":"asia","code":null,"archived":false,"percentageOfSessions":null}, {"name":"Девица","state":"Lipetsk","territory":"","country":"Russia","latitude":52.00127,"longitude":39.793613,"population":1761,"stateCapital":false,"nationalCapital":false,"pk":null,"quiz":"asia","code":null,"archived":false,"percentageOfSessions":null}, {"name":"Дегтевая","state":"Lipetsk","territory":"","country":"Russia","latitude":52.8646156,"longitude":38.7018928,"population":350,"stateCapital":false,"nationalCapital":false,"pk":null,"quiz":"asia","code":null,"archived":false,"percentageOfSessions":null}, {"name":"Дегтевое","state":"Lipetsk","territory":"","country":"Russia","latitude":52.256775,"longitude":38.87719,"population":172,"stateCapital":false,"nationalCapital":false,"pk":null,"quiz":"asia","code":null,"archived":false,"percentageOfSessions":null}, {"name":"Делеховое","state":"Lipetsk","territory":"","country":"Russia","latitude":53.026012,"longitude":39.837154,"population":207,"stateCapital":false,"nationalCapital":false,"pk":null,"quiz":"asia","code":null,"archived":false,"percentageOfSessions":null}, {"name":"Демкино","state":"Lipetsk","territory":"","country":"Russia","latitude":53.0766368,"longitude":39.8975052,"population":440,"stateCapital":false,"nationalCapital":false,"pk":null,"quiz":"asia","code":null,"archived":false,"percentageOfSessions":null}, {"name":"Демкинские выселки","state":"Lipetsk","territory":"","country":"Russia","latitude":53.077726,"longitude":39.9395301,"population":1,"stateCapital":false,"nationalCapital":false,"pk":null,"quiz":"asia","code":null,"archived":false,"percentageOfSessions":null}, {"name":"Дёмкинский","state":"Lipetsk","territory":"","country":"Russia","latitude":53.154629,"longitude":39.535278,"population":1,"stateCapital":false,"nationalCapital":false,"pk":null,"quiz":"asia","code":null,"archived":false,"percentageOfSessions":null}, {"name":"Демшинка","state":"Lipetsk","territory":"","country":"Russia","latitude":52.314232,"longitude":40.035648,"population":5,"stateCapital":false,"nationalCapital":false,"pk":null,"quiz":"asia","code":null,"archived":false,"percentageOfSessions":null}, {"name":"Демшинка","state":"Lipetsk","territory":"","country":"Russia","latitude":52.120422,"longitude":40.320591,"population":405,"stateCapital":false,"nationalCapital":false,"pk":null,"quiz":"asia","code":null,"archived":false,"percentageOfSessions":null}, {"name":"Демшино","state":"Lipetsk","territory":"","country":"Russia","latitude":52.1159465,"longitude":39.5122763,"population":351,"stateCapital":false,"nationalCapital":false,"pk":null,"quiz":"asia","code":null,"archived":false,"percentageOfSessions":null}, {"name":"Денисовка","state":"Lipetsk","territory":"","country":"Russia","latitude":53.470001,"longitude":39.604401,"population":9,"stateCapital":false,"nationalCapital":false,"pk":null,"quiz":"asia","code":null,"archived":false,"percentageOfSessions":null},