{"cities":[{"name":"1 Каменецкая","state":"Tula","territory":"","country":"Russia","latitude":53.9919059,"longitude":38.2459961,"population":49,"stateCapital":false,"nationalCapital":false,"pk":null,"quiz":"asia","code":null,"archived":false,"percentageOfSessions":null}, {"name":"1 Россошинская","state":"Tula","territory":"","country":"Russia","latitude":53.9639944,"longitude":38.0581437,"population":67,"stateCapital":false,"nationalCapital":false,"pk":null,"quiz":"asia","code":null,"archived":false,"percentageOfSessions":null}, {"name":"10-й Октябрь","state":"Tula","territory":"","country":"Russia","latitude":53.9415745,"longitude":37.5398813,"population":404,"stateCapital":false,"nationalCapital":false,"pk":null,"quiz":"asia","code":null,"archived":false,"percentageOfSessions":null}, {"name":"1-2 Ивановка","state":"Tula","territory":"","country":"Russia","latitude":53.5770109,"longitude":38.8567425,"population":16,"stateCapital":false,"nationalCapital":false,"pk":null,"quiz":"asia","code":null,"archived":false,"percentageOfSessions":null}, {"name":"12-ый Октябрь","state":"Tula","territory":"","country":"Russia","latitude":53.1159757,"longitude":38.2612397,"population":13,"stateCapital":false,"nationalCapital":false,"pk":null,"quiz":"asia","code":null,"archived":false,"percentageOfSessions":null}, {"name":"2 БИС Каменецкая","state":"Tula","territory":"","country":"Russia","latitude":54.000819,"longitude":38.2224229,"population":29,"stateCapital":false,"nationalCapital":false,"pk":null,"quiz":"asia","code":null,"archived":false,"percentageOfSessions":null}, {"name":"2 Каменецкая","state":"Tula","territory":"","country":"Russia","latitude":53.9871424,"longitude":38.2197103,"population":24,"stateCapital":false,"nationalCapital":false,"pk":null,"quiz":"asia","code":null,"archived":false,"percentageOfSessions":null}, {"name":"2 Россошинская","state":"Tula","territory":"","country":"Russia","latitude":53.9612676,"longitude":38.0380968,"population":40,"stateCapital":false,"nationalCapital":false,"pk":null,"quiz":"asia","code":null,"archived":false,"percentageOfSessions":null}, {"name":"3 Каменецкая","state":"Tula","territory":"","country":"Russia","latitude":53.9664791,"longitude":38.2520365,"population":0,"stateCapital":false,"nationalCapital":false,"pk":null,"quiz":"asia","code":null,"archived":false,"percentageOfSessions":null}, {"name":"43 Каменецкая","state":"Tula","territory":"","country":"Russia","latitude":53.9576896,"longitude":38.2346343,"population":0,"stateCapital":false,"nationalCapital":false,"pk":null,"quiz":"asia","code":null,"archived":false,"percentageOfSessions":null}, {"name":"44 Каменецкая","state":"Tula","territory":"","country":"Russia","latitude":53.9434142,"longitude":38.2261156,"population":0,"stateCapital":false,"nationalCapital":false,"pk":null,"quiz":"asia","code":null,"archived":false,"percentageOfSessions":null}, {"name":"8 Марта","state":"Tula","territory":"","country":"Russia","latitude":53.6078261,"longitude":36.7175483,"population":0,"stateCapital":false,"nationalCapital":false,"pk":null,"quiz":"asia","code":null,"archived":false,"percentageOfSessions":null}, {"name":"8 Марта","state":"Tula","territory":"","country":"Russia","latitude":53.9590718,"longitude":38.1963487,"population":131,"stateCapital":false,"nationalCapital":false,"pk":null,"quiz":"asia","code":null,"archived":false,"percentageOfSessions":null}, {"name":"Абинь","state":"Tula","territory":"","country":"Russia","latitude":53.6981581,"longitude":36.295562,"population":16,"stateCapital":false,"nationalCapital":false,"pk":null,"quiz":"asia","code":null,"archived":false,"percentageOfSessions":null}, {"name":"Абрютино","state":"Tula","territory":"","country":"Russia","latitude":54.54776,"longitude":37.205009,"population":30,"stateCapital":false,"nationalCapital":false,"pk":null,"quiz":"asia","code":null,"archived":false,"percentageOfSessions":null}, {"name":"Авангард","state":"Tula","territory":"","country":"Russia","latitude":54.4715142,"longitude":37.1142434,"population":814,"stateCapital":false,"nationalCapital":false,"pk":null,"quiz":"asia","code":null,"archived":false,"percentageOfSessions":null}, {"name":"Авангард","state":"Tula","territory":"","country":"Russia","latitude":53.2155739,"longitude":37.5847099,"population":0,"stateCapital":false,"nationalCapital":false,"pk":null,"quiz":"asia","code":null,"archived":false,"percentageOfSessions":null}, {"name":"Аварийный","state":"Tula","territory":"","country":"Russia","latitude":54.1744301,"longitude":36.5242195,"population":68,"stateCapital":false,"nationalCapital":false,"pk":null,"quiz":"asia","code":null,"archived":false,"percentageOfSessions":null}, {"name":"Агеево","state":"Tula","territory":"","country":"Russia","latitude":54.1594074,"longitude":36.4739169,"population":541,"stateCapital":false,"nationalCapital":false,"pk":null,"quiz":"asia","code":null,"archived":false,"percentageOfSessions":null}, {"name":"Агничное","state":"Tula","territory":"","country":"Russia","latitude":53.4810252,"longitude":37.0155581,"population":0,"stateCapital":false,"nationalCapital":false,"pk":null,"quiz":"asia","code":null,"archived":false,"percentageOfSessions":null}, {"name":"Адашево","state":"Tula","territory":"","country":"Russia","latitude":54.4371288,"longitude":38.0453842,"population":2,"stateCapital":false,"nationalCapital":false,"pk":null,"quiz":"asia","code":null,"archived":false,"percentageOfSessions":null}, {"name":"Аджамки","state":"Tula","territory":"","country":"Russia","latitude":53.9304746,"longitude":38.5702776,"population":5,"stateCapital":false,"nationalCapital":false,"pk":null,"quiz":"asia","code":null,"archived":false,"percentageOfSessions":null}, {"name":"Ажовка","state":"Tula","territory":"","country":"Russia","latitude":54.5857735,"longitude":38.3881707,"population":17,"stateCapital":false,"nationalCapital":false,"pk":null,"quiz":"asia","code":null,"archived":false,"percentageOfSessions":null}, {"name":"Азаровка","state":"Tula","territory":"","country":"Russia","latitude":54.2260771,"longitude":36.8867639,"population":11,"stateCapital":false,"nationalCapital":false,"pk":null,"quiz":"asia","code":null,"archived":false,"percentageOfSessions":null}, {"name":"Азаровка","state":"Tula","territory":"","country":"Russia","latitude":54.7784129,"longitude":37.4925402,"population":17,"stateCapital":false,"nationalCapital":false,"pk":null,"quiz":"asia","code":null,"archived":false,"percentageOfSessions":null}, {"name":"Айдарово","state":"Tula","territory":"","country":"Russia","latitude":54.595886,"longitude":37.154438,"population":31,"stateCapital":false,"nationalCapital":false,"pk":null,"quiz":"asia","code":null,"archived":false,"percentageOfSessions":null}, {"name":"Акимовка","state":"Tula","territory":"","country":"Russia","latitude":54.7137528,"longitude":37.995747,"population":0,"stateCapital":false,"nationalCapital":false,"pk":null,"quiz":"asia","code":null,"archived":false,"percentageOfSessions":null}, {"name":"Акинтьево 1","state":"Tula","territory":"","country":"Russia","latitude":53.4613384,"longitude":37.1548105,"population":0,"stateCapital":false,"nationalCapital":false,"pk":null,"quiz":"asia","code":null,"archived":false,"percentageOfSessions":null}, {"name":"Акинтьево 2","state":"Tula","territory":"","country":"Russia","latitude":53.4584508,"longitude":37.164482,"population":0,"stateCapital":false,"nationalCapital":false,"pk":null,"quiz":"asia","code":null,"archived":false,"percentageOfSessions":null}, {"name":"Аксаково","state":"Tula","territory":"","country":"Russia","latitude":53.515588,"longitude":37.7266645,"population":12,"stateCapital":false,"nationalCapital":false,"pk":null,"quiz":"asia","code":null,"archived":false,"percentageOfSessions":null}, {"name":"Аксиньино","state":"Tula","territory":"","country":"Russia","latitude":54.5036,"longitude":38.3491,"population":199,"stateCapital":false,"nationalCapital":false,"pk":null,"quiz":"asia","code":null,"archived":false,"percentageOfSessions":null}, {"name":"Акулинино","state":"Tula","territory":"","country":"Russia","latitude":54.1549533,"longitude":37.8492138,"population":27,"stateCapital":false,"nationalCapital":false,"pk":null,"quiz":"asia","code":null,"archived":false,"percentageOfSessions":null}, {"name":"Акуловка","state":"Tula","territory":"","country":"Russia","latitude":54.7906512,"longitude":37.7897518,"population":0,"stateCapital":false,"nationalCapital":false,"pk":null,"quiz":"asia","code":null,"archived":false,"percentageOfSessions":null}, {"name":"Акулово","state":"Tula","territory":"","country":"Russia","latitude":53.7503857,"longitude":37.1859097,"population":4,"stateCapital":false,"nationalCapital":false,"pk":null,"quiz":"asia","code":null,"archived":false,"percentageOfSessions":null}, {"name":"Акуловские Выселки","state":"Tula","territory":"","country":"Russia","latitude":53.7267214,"longitude":37.1278488,"population":9,"stateCapital":false,"nationalCapital":false,"pk":null,"quiz":"asia","code":null,"archived":false,"percentageOfSessions":null}, {"name":"Акульшино","state":"Tula","territory":"","country":"Russia","latitude":54.2013094,"longitude":38.2571866,"population":15,"stateCapital":false,"nationalCapital":false,"pk":null,"quiz":"asia","code":null,"archived":false,"percentageOfSessions":null}, {"name":"Акульшино","state":"Tula","territory":"","country":"Russia","latitude":54.3010657,"longitude":37.5031235,"population":8,"stateCapital":false,"nationalCapital":false,"pk":null,"quiz":"asia","code":null,"archived":false,"percentageOfSessions":null}, {"name":"Александринский","state":"Tula","territory":"","country":"Russia","latitude":53.849682,"longitude":38.0736305,"population":349,"stateCapital":false,"nationalCapital":false,"pk":null,"quiz":"asia","code":null,"archived":false,"percentageOfSessions":null}, {"name":"Александрия","state":"Tula","territory":"","country":"Russia","latitude":54.031948,"longitude":36.1534524,"population":21,"stateCapital":false,"nationalCapital":false,"pk":null,"quiz":"asia","code":null,"archived":false,"percentageOfSessions":null}, {"name":"Александровка","state":"Tula","territory":"","country":"Russia","latitude":54.0884479,"longitude":38.5750156,"population":0,"stateCapital":false,"nationalCapital":false,"pk":null,"quiz":"asia","code":null,"archived":false,"percentageOfSessions":null}, {"name":"Александровка","state":"Tula","territory":"","country":"Russia","latitude":54.4557226,"longitude":37.4410204,"population":327,"stateCapital":false,"nationalCapital":false,"pk":null,"quiz":"asia","code":null,"archived":false,"percentageOfSessions":null}, {"name":"Александровка","state":"Tula","territory":"","country":"Russia","latitude":53.759837,"longitude":36.1593991,"population":11,"stateCapital":false,"nationalCapital":false,"pk":null,"quiz":"asia","code":null,"archived":false,"percentageOfSessions":null}, {"name":"Александровка","state":"Tula","territory":"","country":"Russia","latitude":53.4861002,"longitude":38.1088871,"population":49,"stateCapital":false,"nationalCapital":false,"pk":null,"quiz":"asia","code":null,"archived":false,"percentageOfSessions":null}, {"name":"Александровка","state":"Tula","territory":"","country":"Russia","latitude":53.3161467,"longitude":38.2364344,"population":2,"stateCapital":false,"nationalCapital":false,"pk":null,"quiz":"asia","code":null,"archived":false,"percentageOfSessions":null}, {"name":"Александровка","state":"Tula","territory":"","country":"Russia","latitude":54.6767973,"longitude":37.4481115,"population":413,"stateCapital":false,"nationalCapital":false,"pk":null,"quiz":"asia","code":null,"archived":false,"percentageOfSessions":null}, {"name":"Александровка","state":"Tula","territory":"","country":"Russia","latitude":53.7951445,"longitude":38.762713,"population":10,"stateCapital":false,"nationalCapital":false,"pk":null,"quiz":"asia","code":null,"archived":false,"percentageOfSessions":null}, {"name":"Александровка","state":"Tula","territory":"","country":"Russia","latitude":53.7951445,"longitude":38.762713,"population":77,"stateCapital":false,"nationalCapital":false,"pk":null,"quiz":"asia","code":null,"archived":false,"percentageOfSessions":null}, {"name":"Александровка","state":"Tula","territory":"","country":"Russia","latitude":54.0425628,"longitude":38.0105623,"population":86,"stateCapital":false,"nationalCapital":false,"pk":null,"quiz":"asia","code":null,"archived":false,"percentageOfSessions":null}, {"name":"Александровка","state":"Tula","territory":"","country":"Russia","latitude":53.4022685,"longitude":38.382012,"population":14,"stateCapital":false,"nationalCapital":false,"pk":null,"quiz":"asia","code":null,"archived":false,"percentageOfSessions":null}, {"name":"Александровка","state":"Tula","territory":"","country":"Russia","latitude":53.9117735,"longitude":36.5987194,"population":18,"stateCapital":false,"nationalCapital":false,"pk":null,"quiz":"asia","code":null,"archived":false,"percentageOfSessions":null}, {"name":"Александровка","state":"Tula","territory":"","country":"Russia","latitude":53.7672446,"longitude":37.2599172,"population":55,"stateCapital":false,"nationalCapital":false,"pk":null,"quiz":"asia","code":null,"archived":false,"percentageOfSessions":null}, {"name":"Александровка","state":"Tula","territory":"","country":"Russia","latitude":53.7672446,"longitude":37.2599172,"population":56,"stateCapital":false,"nationalCapital":false,"pk":null,"quiz":"asia","code":null,"archived":false,"percentageOfSessions":null}, {"name":"Александровка","state":"Tula","territory":"","country":"Russia","latitude":54.0424322,"longitude":36.2238979,"population":0,"stateCapital":false,"nationalCapital":false,"pk":null,"quiz":"asia","code":null,"archived":false,"percentageOfSessions":null}, {"name":"Александровка","state":"Tula","territory":"","country":"Russia","latitude":53.6053461,"longitude":37.7485976,"population":16,"stateCapital":false,"nationalCapital":false,"pk":null,"quiz":"asia","code":null,"archived":false,"percentageOfSessions":null}, {"name":"Александровка","state":"Tula","territory":"","country":"Russia","latitude":53.3428895,"longitude":36.7827754,"population":13,"stateCapital":false,"nationalCapital":false,"pk":null,"quiz":"asia","code":null,"archived":false,"percentageOfSessions":null}, {"name":"Алексеевка","state":"Tula","territory":"","country":"Russia","latitude":53.8693513,"longitude":36.2840989,"population":0,"stateCapital":false,"nationalCapital":false,"pk":null,"quiz":"asia","code":null,"archived":false,"percentageOfSessions":null}, {"name":"Алексеевка","state":"Tula","territory":"","country":"Russia","latitude":53.7017363,"longitude":38.30232,"population":0,"stateCapital":false,"nationalCapital":false,"pk":null,"quiz":"asia","code":null,"archived":false,"percentageOfSessions":null}, {"name":"Алексеевка","state":"Tula","territory":"","country":"Russia","latitude":53.5919445,"longitude":38.0960479,"population":28,"stateCapital":false,"nationalCapital":false,"pk":null,"quiz":"asia","code":null,"archived":false,"percentageOfSessions":null}, {"name":"Алексеевка","state":"Tula","territory":"","country":"Russia","latitude":53.1246441,"longitude":38.5737204,"population":26,"stateCapital":false,"nationalCapital":false,"pk":null,"quiz":"asia","code":null,"archived":false,"percentageOfSessions":null}, {"name":"Алексеевка","state":"Tula","territory":"","country":"Russia","latitude":53.0852737,"longitude":37.842116,"population":0,"stateCapital":false,"nationalCapital":false,"pk":null,"quiz":"asia","code":null,"archived":false,"percentageOfSessions":null}, {"name":"Алексеевка","state":"Tula","territory":"","country":"Russia","latitude":53.9976508,"longitude":38.523281,"population":10,"stateCapital":false,"nationalCapital":false,"pk":null,"quiz":"asia","code":null,"archived":false,"percentageOfSessions":null}, {"name":"Алексеевка","state":"Tula","territory":"","country":"Russia","latitude":53.9976508,"longitude":38.523281,"population":133,"stateCapital":false,"nationalCapital":false,"pk":null,"quiz":"asia","code":null,"archived":false,"percentageOfSessions":null}, {"name":"Алексеевка","state":"Tula","territory":"","country":"Russia","latitude":53.4327289,"longitude":38.5522792,"population":29,"stateCapital":false,"nationalCapital":false,"pk":null,"quiz":"asia","code":null,"archived":false,"percentageOfSessions":null}, {"name":"Алексеевка","state":"Tula","territory":"","country":"Russia","latitude":53.4327289,"longitude":38.5522792,"population":6,"stateCapital":false,"nationalCapital":false,"pk":null,"quiz":"asia","code":null,"archived":false,"percentageOfSessions":null}, {"name":"Алексеевка","state":"Tula","territory":"","country":"Russia","latitude":54.2363518,"longitude":37.4312106,"population":74,"stateCapital":false,"nationalCapital":false,"pk":null,"quiz":"asia","code":null,"archived":false,"percentageOfSessions":null}, {"name":"Алексеевка","state":"Tula","territory":"","country":"Russia","latitude":53.789375,"longitude":37.807865,"population":87,"stateCapital":false,"nationalCapital":false,"pk":null,"quiz":"asia","code":null,"archived":false,"percentageOfSessions":null}, {"name":"Алексеевка","state":"Tula","territory":"","country":"Russia","latitude":53.789375,"longitude":37.807865,"population":17,"stateCapital":false,"nationalCapital":false,"pk":null,"quiz":"asia","code":null,"archived":false,"percentageOfSessions":null}, {"name":"Алексеевский","state":"Tula","territory":"","country":"Russia","latitude":53.5875273,"longitude":38.0669172,"population":0,"stateCapital":false,"nationalCapital":false,"pk":null,"quiz":"asia","code":null,"archived":false,"percentageOfSessions":null}, {"name":"Алексеевское 1-е","state":"Tula","territory":"","country":"Russia","latitude":53.413805,"longitude":37.6647425,"population":16,"stateCapital":false,"nationalCapital":false,"pk":null,"quiz":"asia","code":null,"archived":false,"percentageOfSessions":null}, {"name":"Алексеевское 2-е","state":"Tula","territory":"","country":"Russia","latitude":53.4102642,"longitude":37.6682598,"population":3,"stateCapital":false,"nationalCapital":false,"pk":null,"quiz":"asia","code":null,"archived":false,"percentageOfSessions":null}, {"name":"Алексеевское 3-е","state":"Tula","territory":"","country":"Russia","latitude":53.408936,"longitude":37.6510111,"population":0,"stateCapital":false,"nationalCapital":false,"pk":null,"quiz":"asia","code":null,"archived":false,"percentageOfSessions":null}, {"name":"Алексин","state":"Tula","territory":"","country":"Russia","latitude":54.5028103,"longitude":37.0667213,"population":61732,"stateCapital":false,"nationalCapital":false,"pk":null,"quiz":"asia","code":null,"archived":false,"percentageOfSessions":null}, {"name":"Алексинцево","state":"Tula","territory":"","country":"Russia","latitude":54.1633413,"longitude":38.1109395,"population":14,"stateCapital":false,"nationalCapital":false,"pk":null,"quiz":"asia","code":null,"archived":false,"percentageOfSessions":null}, {"name":"Алесово","state":"Tula","territory":"","country":"Russia","latitude":54.5901937,"longitude":38.2042892,"population":18,"stateCapital":false,"nationalCapital":false,"pk":null,"quiz":"asia","code":null,"archived":false,"percentageOfSessions":null}, {"name":"Алехино","state":"Tula","territory":"","country":"Russia","latitude":53.8603941,"longitude":36.9067537,"population":24,"stateCapital":false,"nationalCapital":false,"pk":null,"quiz":"asia","code":null,"archived":false,"percentageOfSessions":null}, {"name":"Алешино","state":"Tula","territory":"","country":"Russia","latitude":53.8426212,"longitude":38.5524144,"population":48,"stateCapital":false,"nationalCapital":false,"pk":null,"quiz":"asia","code":null,"archived":false,"percentageOfSessions":null}, {"name":"Алешково","state":"Tula","territory":"","country":"Russia","latitude":54.6526081,"longitude":37.306523,"population":13,"stateCapital":false,"nationalCapital":false,"pk":null,"quiz":"asia","code":null,"archived":false,"percentageOfSessions":null}, {"name":"Алешня","state":"Tula","territory":"","country":"Russia","latitude":53.9832548,"longitude":37.7102889,"population":11,"stateCapital":false,"nationalCapital":false,"pk":null,"quiz":"asia","code":null,"archived":false,"percentageOfSessions":null}, {"name":"Алешня","state":"Tula","territory":"","country":"Russia","latitude":54.2466291,"longitude":37.2599644,"population":1194,"stateCapital":false,"nationalCapital":false,"pk":null,"quiz":"asia","code":null,"archived":false,"percentageOfSessions":null}, {"name":"Алимкина","state":"Tula","territory":"","country":"Russia","latitude":53.9385853,"longitude":37.1343484,"population":434,"stateCapital":false,"nationalCapital":false,"pk":null,"quiz":"asia","code":null,"archived":false,"percentageOfSessions":null}, {"name":"Алмазово","state":"Tula","territory":"","country":"Russia","latitude":54.1382299,"longitude":38.4057916,"population":18,"stateCapital":false,"nationalCapital":false,"pk":null,"quiz":"asia","code":null,"archived":false,"percentageOfSessions":null}, {"name":"Алтабаево","state":"Tula","territory":"","country":"Russia","latitude":53.8296599,"longitude":38.5254578,"population":32,"stateCapital":false,"nationalCapital":false,"pk":null,"quiz":"asia","code":null,"archived":false,"percentageOfSessions":null}, {"name":"Алтухово","state":"Tula","territory":"","country":"Russia","latitude":53.5496415,"longitude":36.1637655,"population":1,"stateCapital":false,"nationalCapital":false,"pk":null,"quiz":"asia","code":null,"archived":false,"percentageOfSessions":null}, {"name":"Алтуховский","state":"Tula","territory":"","country":"Russia","latitude":53.5532725,"longitude":36.1699828,"population":0,"stateCapital":false,"nationalCapital":false,"pk":null,"quiz":"asia","code":null,"archived":false,"percentageOfSessions":null}, {"name":"Алферово","state":"Tula","territory":"","country":"Russia","latitude":53.9500025,"longitude":36.0797693,"population":14,"stateCapital":false,"nationalCapital":false,"pk":null,"quiz":"asia","code":null,"archived":false,"percentageOfSessions":null}, {"name":"Алферьево","state":"Tula","territory":"","country":"Russia","latitude":54.3666202,"longitude":37.8464541,"population":5,"stateCapital":false,"nationalCapital":false,"pk":null,"quiz":"asia","code":null,"archived":false,"percentageOfSessions":null}, {"name":"Амутна Дрель","state":"Tula","territory":"","country":"Russia","latitude":53.8146165,"longitude":36.5695761,"population":2,"stateCapital":false,"nationalCapital":false,"pk":null,"quiz":"asia","code":null,"archived":false,"percentageOfSessions":null}, {"name":"Ананское","state":"Tula","territory":"","country":"Russia","latitude":54.4796549,"longitude":38.1425247,"population":0,"stateCapital":false,"nationalCapital":false,"pk":null,"quiz":"asia","code":null,"archived":false,"percentageOfSessions":null}, {"name":"Ананское","state":"Tula","territory":"","country":"Russia","latitude":54.4796549,"longitude":38.1425247,"population":1,"stateCapital":false,"nationalCapital":false,"pk":null,"quiz":"asia","code":null,"archived":false,"percentageOfSessions":null}, {"name":"Анастасово","state":"Tula","territory":"","country":"Russia","latitude":53.949291,"longitude":36.719254,"population":37,"stateCapital":false,"nationalCapital":false,"pk":null,"quiz":"asia","code":null,"archived":false,"percentageOfSessions":null}, {"name":"Андреевка","state":"Tula","territory":"","country":"Russia","latitude":54.5585307,"longitude":36.9926125,"population":6,"stateCapital":false,"nationalCapital":false,"pk":null,"quiz":"asia","code":null,"archived":false,"percentageOfSessions":null}, {"name":"Андреевка","state":"Tula","territory":"","country":"Russia","latitude":54.4145239,"longitude":38.1390936,"population":2,"stateCapital":false,"nationalCapital":false,"pk":null,"quiz":"asia","code":null,"archived":false,"percentageOfSessions":null}, {"name":"Андреевка","state":"Tula","territory":"","country":"Russia","latitude":54.2778036,"longitude":37.0202592,"population":7,"stateCapital":false,"nationalCapital":false,"pk":null,"quiz":"asia","code":null,"archived":false,"percentageOfSessions":null}, {"name":"Андреевка","state":"Tula","territory":"","country":"Russia","latitude":53.2812715,"longitude":38.0881614,"population":66,"stateCapital":false,"nationalCapital":false,"pk":null,"quiz":"asia","code":null,"archived":false,"percentageOfSessions":null}, {"name":"Андреевка","state":"Tula","territory":"","country":"Russia","latitude":54.0211703,"longitude":38.7128139,"population":29,"stateCapital":false,"nationalCapital":false,"pk":null,"quiz":"asia","code":null,"archived":false,"percentageOfSessions":null}, {"name":"Андреевка","state":"Tula","territory":"","country":"Russia","latitude":53.4925469,"longitude":38.6989078,"population":221,"stateCapital":false,"nationalCapital":false,"pk":null,"quiz":"asia","code":null,"archived":false,"percentageOfSessions":null}, {"name":"Андреевка","state":"Tula","territory":"","country":"Russia","latitude":54.1336994,"longitude":36.566419,"population":42,"stateCapital":false,"nationalCapital":false,"pk":null,"quiz":"asia","code":null,"archived":false,"percentageOfSessions":null}, {"name":"Андреевка","state":"Tula","territory":"","country":"Russia","latitude":53.5827358,"longitude":37.6383704,"population":107,"stateCapital":false,"nationalCapital":false,"pk":null,"quiz":"asia","code":null,"archived":false,"percentageOfSessions":null}, {"name":"Андрейчищево","state":"Tula","territory":"","country":"Russia","latitude":53.899473,"longitude":36.9701704,"population":21,"stateCapital":false,"nationalCapital":false,"pk":null,"quiz":"asia","code":null,"archived":false,"percentageOfSessions":null}, {"name":"Андроново","state":"Tula","territory":"","country":"Russia","latitude":54.1716481,"longitude":36.2772953,"population":3,"stateCapital":false,"nationalCapital":false,"pk":null,"quiz":"asia","code":null,"archived":false,"percentageOfSessions":null}, {"name":"Андрюшково","state":"Tula","territory":"","country":"Russia","latitude":54.5395219,"longitude":37.6499963,"population":2,"stateCapital":false,"nationalCapital":false,"pk":null,"quiz":"asia","code":null,"archived":false,"percentageOfSessions":null}, {"name":"Аненково","state":"Tula","territory":"","country":"Russia","latitude":53.7487605,"longitude":36.6028485,"population":0,"stateCapital":false,"nationalCapital":false,"pk":null,"quiz":"asia","code":null,"archived":false,"percentageOfSessions":null}, {"name":"Аниковка","state":"Tula","territory":"","country":"Russia","latitude":54.0231387,"longitude":36.5743011,"population":18,"stateCapital":false,"nationalCapital":false,"pk":null,"quiz":"asia","code":null,"archived":false,"percentageOfSessions":null}, {"name":"Анишино","state":"Tula","territory":"","country":"Russia","latitude":54.317799,"longitude":37.9553935,"population":522,"stateCapital":false,"nationalCapital":false,"pk":null,"quiz":"asia","code":null,"archived":false,"percentageOfSessions":null}, {"name":"Анненка","state":"Tula","territory":"","country":"Russia","latitude":53.0406026,"longitude":38.3350767,"population":12,"stateCapital":false,"nationalCapital":false,"pk":null,"quiz":"asia","code":null,"archived":false,"percentageOfSessions":null}, {"name":"Анненки","state":"Tula","territory":"","country":"Russia","latitude":54.0162911,"longitude":37.786624,"population":6,"stateCapital":false,"nationalCapital":false,"pk":null,"quiz":"asia","code":null,"archived":false,"percentageOfSessions":null}, {"name":"Анненково","state":"Tula","territory":"","country":"Russia","latitude":53.4280892,"longitude":37.5280389,"population":2,"stateCapital":false,"nationalCapital":false,"pk":null,"quiz":"asia","code":null,"archived":false,"percentageOfSessions":null}, {"name":"Аннино","state":"Tula","territory":"","country":"Russia","latitude":54.113597,"longitude":36.0787475,"population":0,"stateCapital":false,"nationalCapital":false,"pk":null,"quiz":"asia","code":null,"archived":false,"percentageOfSessions":null}, {"name":"Анновка","state":"Tula","territory":"","country":"Russia","latitude":53.6770358,"longitude":37.7158284,"population":0,"stateCapital":false,"nationalCapital":false,"pk":null,"quiz":"asia","code":null,"archived":false,"percentageOfSessions":null}, {"name":"Анохино","state":"Tula","territory":"","country":"Russia","latitude":53.7143058,"longitude":38.4060515,"population":20,"stateCapital":false,"nationalCapital":false,"pk":null,"quiz":"asia","code":null,"archived":false,"percentageOfSessions":null}, {"name":"Антоновка","state":"Tula","territory":"","country":"Russia","latitude":54.6792706,"longitude":37.2385763,"population":22,"stateCapital":false,"nationalCapital":false,"pk":null,"quiz":"asia","code":null,"archived":false,"percentageOfSessions":null}, {"name":"Апарки","state":"Tula","territory":"","country":"Russia","latitude":54.0296997,"longitude":38.7118254,"population":212,"stateCapital":false,"nationalCapital":false,"pk":null,"quiz":"asia","code":null,"archived":false,"percentageOfSessions":null}, {"name":"Апарки","state":"Tula","territory":"","country":"Russia","latitude":54.0296997,"longitude":38.7118254,"population":16,"stateCapital":false,"nationalCapital":false,"pk":null,"quiz":"asia","code":null,"archived":false,"percentageOfSessions":null}, {"name":"Апухтино","state":"Tula","territory":"","country":"Russia","latitude":53.9796973,"longitude":36.7009536,"population":524,"stateCapital":false,"nationalCapital":false,"pk":null,"quiz":"asia","code":null,"archived":false,"percentageOfSessions":null}, {"name":"Араны","state":"Tula","territory":"","country":"Russia","latitude":53.5855313,"longitude":36.4741707,"population":129,"stateCapital":false,"nationalCapital":false,"pk":null,"quiz":"asia","code":null,"archived":false,"percentageOfSessions":null}, {"name":"Аргуново","state":"Tula","territory":"","country":"Russia","latitude":54.240932,"longitude":36.7042191,"population":4,"stateCapital":false,"nationalCapital":false,"pk":null,"quiz":"asia","code":null,"archived":false,"percentageOfSessions":null}, {"name":"Аргуново","state":"Tula","territory":"","country":"Russia","latitude":54.7816627,"longitude":37.8427023,"population":0,"stateCapital":false,"nationalCapital":false,"pk":null,"quiz":"asia","code":null,"archived":false,"percentageOfSessions":null}, {"name":"Арсеньево","state":"Tula","territory":"","country":"Russia","latitude":54.1491998,"longitude":38.0725739,"population":35,"stateCapital":false,"nationalCapital":false,"pk":null,"quiz":"asia","code":null,"archived":false,"percentageOfSessions":null}, {"name":"Арсеньево","state":"Tula","territory":"","country":"Russia","latitude":53.6961475,"longitude":37.0347404,"population":7,"stateCapital":false,"nationalCapital":false,"pk":null,"quiz":"asia","code":null,"archived":false,"percentageOfSessions":null}, {"name":"Арсеньево","state":"Tula","territory":"","country":"Russia","latitude":53.5060561,"longitude":37.7294969,"population":10,"stateCapital":false,"nationalCapital":false,"pk":null,"quiz":"asia","code":null,"archived":false,"percentageOfSessions":null}, {"name":"Арсеньево","state":"Tula","territory":"","country":"Russia","latitude":53.883314,"longitude":38.3599741,"population":8,"stateCapital":false,"nationalCapital":false,"pk":null,"quiz":"asia","code":null,"archived":false,"percentageOfSessions":null}, {"name":"Арсеньево","state":"Tula","territory":"","country":"Russia","latitude":54.0369533,"longitude":37.0592553,"population":4,"stateCapital":false,"nationalCapital":false,"pk":null,"quiz":"asia","code":null,"archived":false,"percentageOfSessions":null}, {"name":"Арсеньево","state":"Tula","territory":"","country":"Russia","latitude":53.7357884,"longitude":36.6620997,"population":4803,"stateCapital":false,"nationalCapital":false,"pk":null,"quiz":"asia","code":null,"archived":false,"percentageOfSessions":null}, {"name":"Артемовка","state":"Tula","territory":"","country":"Russia","latitude":53.5484832,"longitude":36.1856841,"population":1,"stateCapital":false,"nationalCapital":false,"pk":null,"quiz":"asia","code":null,"archived":false,"percentageOfSessions":null}, {"name":"Артемовка","state":"Tula","territory":"","country":"Russia","latitude":54.3017537,"longitude":38.412211,"population":5,"stateCapital":false,"nationalCapital":false,"pk":null,"quiz":"asia","code":null,"archived":false,"percentageOfSessions":null}, {"name":"Архангельское","state":"Tula","territory":"","country":"Russia","latitude":53.2586327,"longitude":37.6959452,"population":2391,"stateCapital":false,"nationalCapital":false,"pk":null,"quiz":"asia","code":null,"archived":false,"percentageOfSessions":null}, {"name":"Архангельское","state":"Tula","territory":"","country":"Russia","latitude":54.2928401,"longitude":37.6615793,"population":929,"stateCapital":false,"nationalCapital":false,"pk":null,"quiz":"asia","code":null,"archived":false,"percentageOfSessions":null}, {"name":"Архангельское","state":"Tula","territory":"","country":"Russia","latitude":53.328495,"longitude":37.113823,"population":669,"stateCapital":false,"nationalCapital":false,"pk":null,"quiz":"asia","code":null,"archived":false,"percentageOfSessions":null}, {"name":"Архангельское","state":"Tula","territory":"","country":"Russia","latitude":53.8557967,"longitude":37.0831312,"population":42,"stateCapital":false,"nationalCapital":false,"pk":null,"quiz":"asia","code":null,"archived":false,"percentageOfSessions":null}, {"name":"Архангельское","state":"Tula","territory":"","country":"Russia","latitude":54.4592,"longitude":37.6198,"population":565,"stateCapital":false,"nationalCapital":false,"pk":null,"quiz":"asia","code":null,"archived":false,"percentageOfSessions":null}, {"name":"Архаровка","state":"Tula","territory":"","country":"Russia","latitude":53.2681389,"longitude":37.5162331,"population":0,"stateCapital":false,"nationalCapital":false,"pk":null,"quiz":"asia","code":null,"archived":false,"percentageOfSessions":null}, {"name":"Астапово","state":"Tula","territory":"","country":"Russia","latitude":53.7518903,"longitude":36.680864,"population":293,"stateCapital":false,"nationalCapital":false,"pk":null,"quiz":"asia","code":null,"archived":false,"percentageOfSessions":null}, {"name":"Астафьево","state":"Tula","territory":"","country":"Russia","latitude":53.7503934,"longitude":36.3155322,"population":203,"stateCapital":false,"nationalCapital":false,"pk":null,"quiz":"asia","code":null,"archived":false,"percentageOfSessions":null}, {"name":"Астафьево","state":"Tula","territory":"","country":"Russia","latitude":54.1019345,"longitude":37.2615339,"population":10,"stateCapital":false,"nationalCapital":false,"pk":null,"quiz":"asia","code":null,"archived":false,"percentageOfSessions":null}, {"name":"Афанасьево","state":"Tula","territory":"","country":"Russia","latitude":54.3356158,"longitude":37.0106229,"population":29,"stateCapital":false,"nationalCapital":false,"pk":null,"quiz":"asia","code":null,"archived":false,"percentageOfSessions":null}, {"name":"Афанасьево","state":"Tula","territory":"","country":"Russia","latitude":54.5682113,"longitude":38.1378034,"population":8,"stateCapital":false,"nationalCapital":false,"pk":null,"quiz":"asia","code":null,"archived":false,"percentageOfSessions":null}, {"name":"Ачкасово","state":"Tula","territory":"","country":"Russia","latitude":53.4647008,"longitude":37.0543527,"population":0,"stateCapital":false,"nationalCapital":false,"pk":null,"quiz":"asia","code":null,"archived":false,"percentageOfSessions":null}, {"name":"Бабанино","state":"Tula","territory":"","country":"Russia","latitude":53.6426286,"longitude":38.4238093,"population":8,"stateCapital":false,"nationalCapital":false,"pk":null,"quiz":"asia","code":null,"archived":false,"percentageOfSessions":null}, {"name":"Бабанино","state":"Tula","territory":"","country":"Russia","latitude":54.3304545,"longitude":37.7942473,"population":0,"stateCapital":false,"nationalCapital":false,"pk":null,"quiz":"asia","code":null,"archived":false,"percentageOfSessions":null}, {"name":"Бабинка","state":"Tula","territory":"","country":"Russia","latitude":53.8789468,"longitude":38.337876,"population":6,"stateCapital":false,"nationalCapital":false,"pk":null,"quiz":"asia","code":null,"archived":false,"percentageOfSessions":null}, {"name":"Бабошино","state":"Tula","territory":"","country":"Russia","latitude":54.215795,"longitude":37.130442,"population":318,"stateCapital":false,"nationalCapital":false,"pk":null,"quiz":"asia","code":null,"archived":false,"percentageOfSessions":null}, {"name":"Бабошинские Выселки","state":"Tula","territory":"","country":"Russia","latitude":54.2031421,"longitude":37.1229105,"population":4,"stateCapital":false,"nationalCapital":false,"pk":null,"quiz":"asia","code":null,"archived":false,"percentageOfSessions":null}, {"name":"Бабурино","state":"Tula","territory":"","country":"Russia","latitude":53.5877669,"longitude":37.4094343,"population":16,"stateCapital":false,"nationalCapital":false,"pk":null,"quiz":"asia","code":null,"archived":false,"percentageOfSessions":null}, {"name":"База Отдыха Металлург","state":"Tula","territory":"","country":"Russia","latitude":54.6924778,"longitude":37.2580099,"population":56,"stateCapital":false,"nationalCapital":false,"pk":null,"quiz":"asia","code":null,"archived":false,"percentageOfSessions":null}, {"name":"Баздрево","state":"Tula","territory":"","country":"Russia","latitude":54.0895395,"longitude":37.204796,"population":9,"stateCapital":false,"nationalCapital":false,"pk":null,"quiz":"asia","code":null,"archived":false,"percentageOfSessions":null}, {"name":"Байденка","state":"Tula","territory":"","country":"Russia","latitude":53.4110411,"longitude":36.917088,"population":0,"stateCapital":false,"nationalCapital":false,"pk":null,"quiz":"asia","code":null,"archived":false,"percentageOfSessions":null}, {"name":"Байдики","state":"Tula","territory":"","country":"Russia","latitude":54.6961087,"longitude":37.7167511,"population":0,"stateCapital":false,"nationalCapital":false,"pk":null,"quiz":"asia","code":null,"archived":false,"percentageOfSessions":null}, {"name":"Байдино","state":"Tula","territory":"","country":"Russia","latitude":53.64707,"longitude":36.5893024,"population":1,"stateCapital":false,"nationalCapital":false,"pk":null,"quiz":"asia","code":null,"archived":false,"percentageOfSessions":null}, {"name":"Байдино","state":"Tula","territory":"","country":"Russia","latitude":54.6107362,"longitude":37.9966942,"population":12,"stateCapital":false,"nationalCapital":false,"pk":null,"quiz":"asia","code":null,"archived":false,"percentageOfSessions":null}, {"name":"Бакино","state":"Tula","territory":"","country":"Russia","latitude":53.7185136,"longitude":36.0946985,"population":9,"stateCapital":false,"nationalCapital":false,"pk":null,"quiz":"asia","code":null,"archived":false,"percentageOfSessions":null}, {"name":"Балабаевка","state":"Tula","territory":"","country":"Russia","latitude":54.1628117,"longitude":37.7682556,"population":59,"stateCapital":false,"nationalCapital":false,"pk":null,"quiz":"asia","code":null,"archived":false,"percentageOfSessions":null}, {"name":"Балакирево","state":"Tula","territory":"","country":"Russia","latitude":54.1391231,"longitude":37.3100371,"population":17,"stateCapital":false,"nationalCapital":false,"pk":null,"quiz":"asia","code":null,"archived":false,"percentageOfSessions":null}, {"name":"Балахна","state":"Tula","territory":"","country":"Russia","latitude":53.7869732,"longitude":38.2431235,"population":37,"stateCapital":false,"nationalCapital":false,"pk":null,"quiz":"asia","code":null,"archived":false,"percentageOfSessions":null}, {"name":"Балево","state":"Tula","territory":"","country":"Russia","latitude":54.113357,"longitude":36.4297411,"population":177,"stateCapital":false,"nationalCapital":false,"pk":null,"quiz":"asia","code":null,"archived":false,"percentageOfSessions":null}, {"name":"Балево","state":"Tula","territory":"","country":"Russia","latitude":54.113357,"longitude":36.4297411,"population":12,"stateCapital":false,"nationalCapital":false,"pk":null,"quiz":"asia","code":null,"archived":false,"percentageOfSessions":null}, {"name":"Балобаново","state":"Tula","territory":"","country":"Russia","latitude":53.7835377,"longitude":36.9279646,"population":0,"stateCapital":false,"nationalCapital":false,"pk":null,"quiz":"asia","code":null,"archived":false,"percentageOfSessions":null}, {"name":"Бандиково","state":"Tula","territory":"","country":"Russia","latitude":53.5061353,"longitude":36.4908901,"population":7,"stateCapital":false,"nationalCapital":false,"pk":null,"quiz":"asia","code":null,"archived":false,"percentageOfSessions":null}, {"name":"Банное","state":"Tula","territory":"","country":"Russia","latitude":53.1148996,"longitude":38.2985149,"population":11,"stateCapital":false,"nationalCapital":false,"pk":null,"quiz":"asia","code":null,"archived":false,"percentageOfSessions":null}, {"name":"Барановка","state":"Tula","territory":"","country":"Russia","latitude":53.3290676,"longitude":37.8271583,"population":10,"stateCapital":false,"nationalCapital":false,"pk":null,"quiz":"asia","code":null,"archived":false,"percentageOfSessions":null}, {"name":"Барановка","state":"Tula","territory":"","country":"Russia","latitude":53.3290676,"longitude":37.8271583,"population":1,"stateCapital":false,"nationalCapital":false,"pk":null,"quiz":"asia","code":null,"archived":false,"percentageOfSessions":null}, {"name":"Барановка","state":"Tula","territory":"","country":"Russia","latitude":53.8170423,"longitude":38.7161936,"population":123,"stateCapital":false,"nationalCapital":false,"pk":null,"quiz":"asia","code":null,"archived":false,"percentageOfSessions":null}, {"name":"Барановка","state":"Tula","territory":"","country":"Russia","latitude":53.3608097,"longitude":38.6639786,"population":0,"stateCapital":false,"nationalCapital":false,"pk":null,"quiz":"asia","code":null,"archived":false,"percentageOfSessions":null}, {"name":"Бараново","state":"Tula","territory":"","country":"Russia","latitude":54.3848546,"longitude":37.6858484,"population":43,"stateCapital":false,"nationalCapital":false,"pk":null,"quiz":"asia","code":null,"archived":false,"percentageOfSessions":null}, {"name":"Барановские Выселки","state":"Tula","territory":"","country":"Russia","latitude":53.7989746,"longitude":38.7288589,"population":2,"stateCapital":false,"nationalCapital":false,"pk":null,"quiz":"asia","code":null,"archived":false,"percentageOfSessions":null}, {"name":"Баранцево","state":"Tula","territory":"","country":"Russia","latitude":54.569876,"longitude":37.617591,"population":5,"stateCapital":false,"nationalCapital":false,"pk":null,"quiz":"asia","code":null,"archived":false,"percentageOfSessions":null}, {"name":"Барково","state":"Tula","territory":"","country":"Russia","latitude":53.3512141,"longitude":37.6277446,"population":2,"stateCapital":false,"nationalCapital":false,"pk":null,"quiz":"asia","code":null,"archived":false,"percentageOfSessions":null}, {"name":"Барма","state":"Tula","territory":"","country":"Russia","latitude":53.9490072,"longitude":38.6827731,"population":4,"stateCapital":false,"nationalCapital":false,"pk":null,"quiz":"asia","code":null,"archived":false,"percentageOfSessions":null}, {"name":"Барсуки","state":"Tula","territory":"","country":"Russia","latitude":54.549407,"longitude":38.2844921,"population":40,"stateCapital":false,"nationalCapital":false,"pk":null,"quiz":"asia","code":null,"archived":false,"percentageOfSessions":null}, {"name":"Барсуки","state":"Tula","territory":"","country":"Russia","latitude":54.2438937,"longitude":37.5028643,"population":3269,"stateCapital":false,"nationalCapital":false,"pk":null,"quiz":"asia","code":null,"archived":false,"percentageOfSessions":null}, {"name":"Барсуки","state":"Tula","territory":"","country":"Russia","latitude":54.2438937,"longitude":37.5028643,"population":1108,"stateCapital":false,"nationalCapital":false,"pk":null,"quiz":"asia","code":null,"archived":false,"percentageOfSessions":null}, {"name":"Барсуки","state":"Tula","territory":"","country":"Russia","latitude":54.4575552,"longitude":37.6922289,"population":33,"stateCapital":false,"nationalCapital":false,"pk":null,"quiz":"asia","code":null,"archived":false,"percentageOfSessions":null}, {"name":"Барыбинка","state":"Tula","territory":"","country":"Russia","latitude":54.27679,"longitude":37.7687838,"population":27,"stateCapital":false,"nationalCapital":false,"pk":null,"quiz":"asia","code":null,"archived":false,"percentageOfSessions":null}, {"name":"Барыбино","state":"Tula","territory":"","country":"Russia","latitude":54.3494822,"longitude":37.7006726,"population":15,"stateCapital":false,"nationalCapital":false,"pk":null,"quiz":"asia","code":null,"archived":false,"percentageOfSessions":null}, {"name":"Барыковка","state":"Tula","territory":"","country":"Russia","latitude":53.6888518,"longitude":38.4084121,"population":50,"stateCapital":false,"nationalCapital":false,"pk":null,"quiz":"asia","code":null,"archived":false,"percentageOfSessions":null}, {"name":"Барыково","state":"Tula","territory":"","country":"Russia","latitude":54.095746,"longitude":37.7022416,"population":27,"stateCapital":false,"nationalCapital":false,"pk":null,"quiz":"asia","code":null,"archived":false,"percentageOfSessions":null}, {"name":"Барыково","state":"Tula","territory":"","country":"Russia","latitude":54.095746,"longitude":37.7022416,"population":122,"stateCapital":false,"nationalCapital":false,"pk":null,"quiz":"asia","code":null,"archived":false,"percentageOfSessions":null}, {"name":"Баскаково","state":"Tula","territory":"","country":"Russia","latitude":53.4705271,"longitude":37.9222614,"population":351,"stateCapital":false,"nationalCapital":false,"pk":null,"quiz":"asia","code":null,"archived":false,"percentageOfSessions":null}, {"name":"Баташовка","state":"Tula","territory":"","country":"Russia","latitude":53.3209171,"longitude":37.9290591,"population":16,"stateCapital":false,"nationalCapital":false,"pk":null,"quiz":"asia","code":null,"archived":false,"percentageOfSessions":null}, {"name":"Батищево","state":"Tula","territory":"","country":"Russia","latitude":54.2002157,"longitude":37.2838152,"population":3,"stateCapital":false,"nationalCapital":false,"pk":null,"quiz":"asia","code":null,"archived":false,"percentageOfSessions":null}, {"name":"Батурский","state":"Tula","territory":"","country":"Russia","latitude":53.552244,"longitude":36.3594407,"population":1,"stateCapital":false,"nationalCapital":false,"pk":null,"quiz":"asia","code":null,"archived":false,"percentageOfSessions":null}, {"name":"Батьково","state":"Tula","territory":"","country":"Russia","latitude":54.2047991,"longitude":36.9258865,"population":5,"stateCapital":false,"nationalCapital":false,"pk":null,"quiz":"asia","code":null,"archived":false,"percentageOfSessions":null}, {"name":"Батьково","state":"Tula","territory":"","country":"Russia","latitude":54.0358135,"longitude":36.5546894,"population":16,"stateCapital":false,"nationalCapital":false,"pk":null,"quiz":"asia","code":null,"archived":false,"percentageOfSessions":null}, {"name":"Бахметьево","state":"Tula","territory":"","country":"Russia","latitude":53.6690883,"longitude":38.4189658,"population":418,"stateCapital":false,"nationalCapital":false,"pk":null,"quiz":"asia","code":null,"archived":false,"percentageOfSessions":null}, {"name":"Бахметьево","state":"Tula","territory":"","country":"Russia","latitude":54.0487327,"longitude":37.8100054,"population":26,"stateCapital":false,"nationalCapital":false,"pk":null,"quiz":"asia","code":null,"archived":false,"percentageOfSessions":null}, {"name":"Бахтинка","state":"Tula","territory":"","country":"Russia","latitude":53.1622655,"longitude":37.6503468,"population":9,"stateCapital":false,"nationalCapital":false,"pk":null,"quiz":"asia","code":null,"archived":false,"percentageOfSessions":null}, {"name":"Бахтино-Фомино","state":"Tula","territory":"","country":"Russia","latitude":53.79708,"longitude":38.5335206,"population":13,"stateCapital":false,"nationalCapital":false,"pk":null,"quiz":"asia","code":null,"archived":false,"percentageOfSessions":null}, {"name":"Башево","state":"Tula","territory":"","country":"Russia","latitude":53.8859435,"longitude":37.069012,"population":12,"stateCapital":false,"nationalCapital":false,"pk":null,"quiz":"asia","code":null,"archived":false,"percentageOfSessions":null}, {"name":"Башино","state":"Tula","territory":"","country":"Russia","latitude":54.7075655,"longitude":37.9278572,"population":31,"stateCapital":false,"nationalCapital":false,"pk":null,"quiz":"asia","code":null,"archived":false,"percentageOfSessions":null}, {"name":"Башкино","state":"Tula","territory":"","country":"Russia","latitude":53.6021098,"longitude":36.059904,"population":22,"stateCapital":false,"nationalCapital":false,"pk":null,"quiz":"asia","code":null,"archived":false,"percentageOfSessions":null}, {"name":"Бегино","state":"Tula","territory":"","country":"Russia","latitude":53.8252028,"longitude":37.0448026,"population":35,"stateCapital":false,"nationalCapital":false,"pk":null,"quiz":"asia","code":null,"archived":false,"percentageOfSessions":null}, {"name":"Бегичево","state":"Tula","territory":"","country":"Russia","latitude":53.786238,"longitude":38.2915534,"population":56,"stateCapital":false,"nationalCapital":false,"pk":null,"quiz":"asia","code":null,"archived":false,"percentageOfSessions":null}, {"name":"Бегичево","state":"Tula","territory":"","country":"Russia","latitude":53.7414236,"longitude":38.6038589,"population":5,"stateCapital":false,"nationalCapital":false,"pk":null,"quiz":"asia","code":null,"archived":false,"percentageOfSessions":null}, {"name":"Бегичево","state":"Tula","territory":"","country":"Russia","latitude":53.838776,"longitude":37.6141076,"population":4,"stateCapital":false,"nationalCapital":false,"pk":null,"quiz":"asia","code":null,"archived":false,"percentageOfSessions":null}, {"name":"Бегичево","state":"Tula","territory":"","country":"Russia","latitude":53.838776,"longitude":37.6141076,"population":45,"stateCapital":false,"nationalCapital":false,"pk":null,"quiz":"asia","code":null,"archived":false,"percentageOfSessions":null}, {"name":"Бегичевские Выселки","state":"Tula","territory":"","country":"Russia","latitude":53.8169,"longitude":38.2992,"population":3,"stateCapital":false,"nationalCapital":false,"pk":null,"quiz":"asia","code":null,"archived":false,"percentageOfSessions":null}, {"name":"Бегичевский","state":"Tula","territory":"","country":"Russia","latitude":53.79681,"longitude":38.256512,"population":2278,"stateCapital":false,"nationalCapital":false,"pk":null,"quiz":"asia","code":null,"archived":false,"percentageOfSessions":null}, {"name":"Бежин Луг","state":"Tula","territory":"","country":"Russia","latitude":53.4645113,"longitude":36.6976803,"population":22,"stateCapital":false,"nationalCapital":false,"pk":null,"quiz":"asia","code":null,"archived":false,"percentageOfSessions":null}, {"name":"Бежка","state":"Tula","territory":"","country":"Russia","latitude":54.192684,"longitude":37.734032,"population":79,"stateCapital":false,"nationalCapital":false,"pk":null,"quiz":"asia","code":null,"archived":false,"percentageOfSessions":null}, {"name":"Безлепкино","state":"Tula","territory":"","country":"Russia","latitude":53.9260632,"longitude":36.759181,"population":6,"stateCapital":false,"nationalCapital":false,"pk":null,"quiz":"asia","code":null,"archived":false,"percentageOfSessions":null}, {"name":"Безово","state":"Tula","territory":"","country":"Russia","latitude":54.0662767,"longitude":36.4520467,"population":43,"stateCapital":false,"nationalCapital":false,"pk":null,"quiz":"asia","code":null,"archived":false,"percentageOfSessions":null}, {"name":"Белгородский","state":"Tula","territory":"","country":"Russia","latitude":54.3750277,"longitude":38.5167643,"population":7,"stateCapital":false,"nationalCapital":false,"pk":null,"quiz":"asia","code":null,"archived":false,"percentageOfSessions":null}, {"name":"Белев","state":"Tula","territory":"","country":"Russia","latitude":53.811798,"longitude":36.137001,"population":13918,"stateCapital":false,"nationalCapital":false,"pk":null,"quiz":"asia","code":null,"archived":false,"percentageOfSessions":null}, {"name":"Белевка","state":"Tula","territory":"","country":"Russia","latitude":53.2440058,"longitude":37.9533863,"population":12,"stateCapital":false,"nationalCapital":false,"pk":null,"quiz":"asia","code":null,"archived":false,"percentageOfSessions":null}, {"name":"Белевское Лесничество","state":"Tula","territory":"","country":"Russia","latitude":53.7972475,"longitude":36.291357,"population":3,"stateCapital":false,"nationalCapital":false,"pk":null,"quiz":"asia","code":null,"archived":false,"percentageOfSessions":null}, {"name":"Беликово","state":"Tula","territory":"","country":"Russia","latitude":54.1318159,"longitude":37.3948495,"population":31,"stateCapital":false,"nationalCapital":false,"pk":null,"quiz":"asia","code":null,"archived":false,"percentageOfSessions":null}, {"name":"Белино","state":"Tula","territory":"","country":"Russia","latitude":53.5347769,"longitude":36.7566397,"population":49,"stateCapital":false,"nationalCapital":false,"pk":null,"quiz":"asia","code":null,"archived":false,"percentageOfSessions":null}, {"name":"Белкино","state":"Tula","territory":"","country":"Russia","latitude":54.6975099,"longitude":37.7506757,"population":0,"stateCapital":false,"nationalCapital":false,"pk":null,"quiz":"asia","code":null,"archived":false,"percentageOfSessions":null}, {"name":"Беловы Дворы","state":"Tula","territory":"","country":"Russia","latitude":53.9657717,"longitude":37.4962746,"population":6,"stateCapital":false,"nationalCapital":false,"pk":null,"quiz":"asia","code":null,"archived":false,"percentageOfSessions":null}, {"name":"Белоглинка","state":"Tula","territory":"","country":"Russia","latitude":53.4834533,"longitude":38.1953639,"population":6,"stateCapital":false,"nationalCapital":false,"pk":null,"quiz":"asia","code":null,"archived":false,"percentageOfSessions":null}, {"name":"Белогузово","state":"Tula","territory":"","country":"Russia","latitude":53.88792,"longitude":37.5822145,"population":7,"stateCapital":false,"nationalCapital":false,"pk":null,"quiz":"asia","code":null,"archived":false,"percentageOfSessions":null}, {"name":"Белое","state":"Tula","territory":"","country":"Russia","latitude":54.0508057,"longitude":36.3531373,"population":5,"stateCapital":false,"nationalCapital":false,"pk":null,"quiz":"asia","code":null,"archived":false,"percentageOfSessions":null}, {"name":"Белое Поле","state":"Tula","territory":"","country":"Russia","latitude":54.3526115,"longitude":37.5762357,"population":3,"stateCapital":false,"nationalCapital":false,"pk":null,"quiz":"asia","code":null,"archived":false,"percentageOfSessions":null}, {"name":"Белоколодезь","state":"Tula","territory":"","country":"Russia","latitude":54.1294117,"longitude":38.364387,"population":11,"stateCapital":false,"nationalCapital":false,"pk":null,"quiz":"asia","code":null,"archived":false,"percentageOfSessions":null}, {"name":"Белолипки","state":"Tula","territory":"","country":"Russia","latitude":54.4329446,"longitude":37.1460693,"population":8,"stateCapital":false,"nationalCapital":false,"pk":null,"quiz":"asia","code":null,"archived":false,"percentageOfSessions":null}, {"name":"Белолипки","state":"Tula","territory":"","country":"Russia","latitude":54.1817663,"longitude":37.9463849,"population":4,"stateCapital":false,"nationalCapital":false,"pk":null,"quiz":"asia","code":null,"archived":false,"percentageOfSessions":null}, {"name":"Беломестное","state":"Tula","territory":"","country":"Russia","latitude":54.1747915,"longitude":38.6618924,"population":27,"stateCapital":false,"nationalCapital":false,"pk":null,"quiz":"asia","code":null,"archived":false,"percentageOfSessions":null}, {"name":"Беломутово","state":"Tula","territory":"","country":"Russia","latitude":54.1648265,"longitude":37.2806649,"population":35,"stateCapital":false,"nationalCapital":false,"pk":null,"quiz":"asia","code":null,"archived":false,"percentageOfSessions":null}, {"name":"Белоозеро","state":"Tula","territory":"","country":"Russia","latitude":53.9122464,"longitude":38.5323973,"population":71,"stateCapital":false,"nationalCapital":false,"pk":null,"quiz":"asia","code":null,"archived":false,"percentageOfSessions":null}, {"name":"Белоусовка","state":"Tula","territory":"","country":"Russia","latitude":53.545203,"longitude":38.0614491,"population":17,"stateCapital":false,"nationalCapital":false,"pk":null,"quiz":"asia","code":null,"archived":false,"percentageOfSessions":null}, {"name":"Белугино","state":"Tula","territory":"","country":"Russia","latitude":54.789215,"longitude":37.9111808,"population":42,"stateCapital":false,"nationalCapital":false,"pk":null,"quiz":"asia","code":null,"archived":false,"percentageOfSessions":null}, {"name":"Белый Колодезь","state":"Tula","territory":"","country":"Russia","latitude":53.6882336,"longitude":36.9104827,"population":401,"stateCapital":false,"nationalCapital":false,"pk":null,"quiz":"asia","code":null,"archived":false,"percentageOfSessions":null}, {"name":"Белый Колодезь","state":"Tula","territory":"","country":"Russia","latitude":53.4922509,"longitude":38.2191721,"population":94,"stateCapital":false,"nationalCapital":false,"pk":null,"quiz":"asia","code":null,"archived":false,"percentageOfSessions":null}, {"name":"Белый Лес","state":"Tula","territory":"","country":"Russia","latitude":53.9460429,"longitude":38.2589441,"population":5,"stateCapital":false,"nationalCapital":false,"pk":null,"quiz":"asia","code":null,"archived":false,"percentageOfSessions":null}, {"name":"Бельково","state":"Tula","territory":"","country":"Russia","latitude":54.1720646,"longitude":38.009787,"population":14,"stateCapital":false,"nationalCapital":false,"pk":null,"quiz":"asia","code":null,"archived":false,"percentageOfSessions":null}, {"name":"Бельковский","state":"Tula","territory":"","country":"Russia","latitude":54.1750539,"longitude":38.0898455,"population":421,"stateCapital":false,"nationalCapital":false,"pk":null,"quiz":"asia","code":null,"archived":false,"percentageOfSessions":null}, {"name":"Бельцы","state":"Tula","territory":"","country":"Russia","latitude":54.3559728,"longitude":38.4272844,"population":4,"stateCapital":false,"nationalCapital":false,"pk":null,"quiz":"asia","code":null,"archived":false,"percentageOfSessions":null}, {"name":"Беляево","state":"Tula","territory":"","country":"Russia","latitude":53.6454704,"longitude":36.2581603,"population":241,"stateCapital":false,"nationalCapital":false,"pk":null,"quiz":"asia","code":null,"archived":false,"percentageOfSessions":null}, {"name":"Беляево","state":"Tula","territory":"","country":"Russia","latitude":54.2785752,"longitude":36.6919903,"population":4,"stateCapital":false,"nationalCapital":false,"pk":null,"quiz":"asia","code":null,"archived":false,"percentageOfSessions":null}, {"name":"Береговая","state":"Tula","territory":"","country":"Russia","latitude":53.8596606,"longitude":36.182422,"population":74,"stateCapital":false,"nationalCapital":false,"pk":null,"quiz":"asia","code":null,"archived":false,"percentageOfSessions":null}, {"name":"Береговские Выселки","state":"Tula","territory":"","country":"Russia","latitude":53.15839,"longitude":37.9320359,"population":10,"stateCapital":false,"nationalCapital":false,"pk":null,"quiz":"asia","code":null,"archived":false,"percentageOfSessions":null}, {"name":"Березняк","state":"Tula","territory":"","country":"Russia","latitude":53.4531322,"longitude":38.6025348,"population":0,"stateCapital":false,"nationalCapital":false,"pk":null,"quiz":"asia","code":null,"archived":false,"percentageOfSessions":null}, {"name":"Березовка","state":"Tula","territory":"","country":"Russia","latitude":54.1064722,"longitude":38.6021131,"population":61,"stateCapital":false,"nationalCapital":false,"pk":null,"quiz":"asia","code":null,"archived":false,"percentageOfSessions":null}, {"name":"Березовка","state":"Tula","territory":"","country":"Russia","latitude":54.3832302,"longitude":37.201547,"population":2,"stateCapital":false,"nationalCapital":false,"pk":null,"quiz":"asia","code":null,"archived":false,"percentageOfSessions":null}, {"name":"Березовка","state":"Tula","territory":"","country":"Russia","latitude":53.82535,"longitude":38.0536866,"population":31,"stateCapital":false,"nationalCapital":false,"pk":null,"quiz":"asia","code":null,"archived":false,"percentageOfSessions":null}, {"name":"Березовка","state":"Tula","territory":"","country":"Russia","latitude":53.82535,"longitude":38.0536866,"population":54,"stateCapital":false,"nationalCapital":false,"pk":null,"quiz":"asia","code":null,"archived":false,"percentageOfSessions":null}, {"name":"Березовка","state":"Tula","territory":"","country":"Russia","latitude":54.5219142,"longitude":37.3649477,"population":9,"stateCapital":false,"nationalCapital":false,"pk":null,"quiz":"asia","code":null,"archived":false,"percentageOfSessions":null}, {"name":"Березовка","state":"Tula","territory":"","country":"Russia","latitude":53.3581987,"longitude":37.6919106,"population":7,"stateCapital":false,"nationalCapital":false,"pk":null,"quiz":"asia","code":null,"archived":false,"percentageOfSessions":null}, {"name":"Березовка","state":"Tula","territory":"","country":"Russia","latitude":53.8699403,"longitude":38.7604387,"population":27,"stateCapital":false,"nationalCapital":false,"pk":null,"quiz":"asia","code":null,"archived":false,"percentageOfSessions":null}, {"name":"Березовка","state":"Tula","territory":"","country":"Russia","latitude":54.0857198,"longitude":38.0646717,"population":7,"stateCapital":false,"nationalCapital":false,"pk":null,"quiz":"asia","code":null,"archived":false,"percentageOfSessions":null}, {"name":"Березовка","state":"Tula","territory":"","country":"Russia","latitude":54.0710645,"longitude":37.7416123,"population":3,"stateCapital":false,"nationalCapital":false,"pk":null,"quiz":"asia","code":null,"archived":false,"percentageOfSessions":null}, {"name":"Березовка","state":"Tula","territory":"","country":"Russia","latitude":53.5356019,"longitude":37.7310419,"population":8,"stateCapital":false,"nationalCapital":false,"pk":null,"quiz":"asia","code":null,"archived":false,"percentageOfSessions":null}, {"name":"Березово","state":"Tula","territory":"","country":"Russia","latitude":53.8586329,"longitude":36.0215534,"population":238,"stateCapital":false,"nationalCapital":false,"pk":null,"quiz":"asia","code":null,"archived":false,"percentageOfSessions":null}, {"name":"Березово","state":"Tula","territory":"","country":"Russia","latitude":54.317369,"longitude":38.3152067,"population":67,"stateCapital":false,"nationalCapital":false,"pk":null,"quiz":"asia","code":null,"archived":false,"percentageOfSessions":null}, {"name":"Березово","state":"Tula","territory":"","country":"Russia","latitude":54.211849,"longitude":36.997078,"population":29,"stateCapital":false,"nationalCapital":false,"pk":null,"quiz":"asia","code":null,"archived":false,"percentageOfSessions":null}, {"name":"Березово","state":"Tula","territory":"","country":"Russia","latitude":53.8363952,"longitude":36.9411153,"population":162,"stateCapital":false,"nationalCapital":false,"pk":null,"quiz":"asia","code":null,"archived":false,"percentageOfSessions":null}, {"name":"Березово","state":"Tula","territory":"","country":"Russia","latitude":54.0468412,"longitude":36.4070323,"population":281,"stateCapital":false,"nationalCapital":false,"pk":null,"quiz":"asia","code":null,"archived":false,"percentageOfSessions":null}, {"name":"Березовский","state":"Tula","territory":"","country":"Russia","latitude":53.9412692,"longitude":37.7292079,"population":358,"stateCapital":false,"nationalCapital":false,"pk":null,"quiz":"asia","code":null,"archived":false,"percentageOfSessions":null}, {"name":"Берники","state":"Tula","territory":"","country":"Russia","latitude":54.2949773,"longitude":37.1289562,"population":8,"stateCapital":false,"nationalCapital":false,"pk":null,"quiz":"asia","code":null,"archived":false,"percentageOfSessions":null}, {"name":"Берники","state":"Tula","territory":"","country":"Russia","latitude":54.2959703,"longitude":37.2665346,"population":30,"stateCapital":false,"nationalCapital":false,"pk":null,"quiz":"asia","code":null,"archived":false,"percentageOfSessions":null}, {"name":"Берники","state":"Tula","territory":"","country":"Russia","latitude":54.2959703,"longitude":37.2665346,"population":108,"stateCapital":false,"nationalCapital":false,"pk":null,"quiz":"asia","code":null,"archived":false,"percentageOfSessions":null}, {"name":"Берники","state":"Tula","territory":"","country":"Russia","latitude":54.2959703,"longitude":37.2665346,"population":25,"stateCapital":false,"nationalCapital":false,"pk":null,"quiz":"asia","code":null,"archived":false,"percentageOfSessions":null}, {"name":"Беседино","state":"Tula","territory":"","country":"Russia","latitude":53.8563061,"longitude":36.1546453,"population":16,"stateCapital":false,"nationalCapital":false,"pk":null,"quiz":"asia","code":null,"archived":false,"percentageOfSessions":null}, {"name":"Бестужево","state":"Tula","territory":"","country":"Russia","latitude":53.7887568,"longitude":38.3661888,"population":13,"stateCapital":false,"nationalCapital":false,"pk":null,"quiz":"asia","code":null,"archived":false,"percentageOfSessions":null}, {"name":"Бестужевский","state":"Tula","territory":"","country":"Russia","latitude":53.7924011,"longitude":38.3678421,"population":217,"stateCapital":false,"nationalCapital":false,"pk":null,"quiz":"asia","code":null,"archived":false,"percentageOfSessions":null}, {"name":"Бехово","state":"Tula","territory":"","country":"Russia","latitude":54.7585948,"longitude":37.2541258,"population":58,"stateCapital":false,"nationalCapital":false,"pk":null,"quiz":"asia","code":null,"archived":false,"percentageOfSessions":null}, {"name":"Бибиково","state":"Tula","territory":"","country":"Russia","latitude":53.9564226,"longitude":38.151143,"population":128,"stateCapital":false,"nationalCapital":false,"pk":null,"quiz":"asia","code":null,"archived":false,"percentageOfSessions":null}, {"name":"Бирево","state":"Tula","territory":"","country":"Russia","latitude":54.4889329,"longitude":37.5606353,"population":0,"stateCapital":false,"nationalCapital":false,"pk":null,"quiz":"asia","code":null,"archived":false,"percentageOfSessions":null}, {"name":"Бирюковка","state":"Tula","territory":"","country":"Russia","latitude":53.8015704,"longitude":38.4421612,"population":5,"stateCapital":false,"nationalCapital":false,"pk":null,"quiz":"asia","code":null,"archived":false,"percentageOfSessions":null}, {"name":"Бирюлевка","state":"Tula","territory":"","country":"Russia","latitude":53.3903926,"longitude":37.7566623,"population":7,"stateCapital":false,"nationalCapital":false,"pk":null,"quiz":"asia","code":null,"archived":false,"percentageOfSessions":null}, {"name":"Битюг","state":"Tula","territory":"","country":"Russia","latitude":53.3794392,"longitude":37.9740138,"population":0,"stateCapital":false,"nationalCapital":false,"pk":null,"quiz":"asia","code":null,"archived":false,"percentageOfSessions":null}, {"name":"Благовещенский","state":"Tula","territory":"","country":"Russia","latitude":54.0259477,"longitude":38.7665868,"population":13,"stateCapital":false,"nationalCapital":false,"pk":null,"quiz":"asia","code":null,"archived":false,"percentageOfSessions":null}, {"name":"Благодать","state":"Tula","territory":"","country":"Russia","latitude":53.1643928,"longitude":38.2697477,"population":32,"stateCapital":false,"nationalCapital":false,"pk":null,"quiz":"asia","code":null,"archived":false,"percentageOfSessions":null}, {"name":"Ближнерусаново","state":"Tula","territory":"","country":"Russia","latitude":53.9664649,"longitude":36.299531,"population":5,"stateCapital":false,"nationalCapital":false,"pk":null,"quiz":"asia","code":null,"archived":false,"percentageOfSessions":null}, {"name":"Близневка","state":"Tula","territory":"","country":"Russia","latitude":53.5133555,"longitude":38.4453256,"population":5,"stateCapital":false,"nationalCapital":false,"pk":null,"quiz":"asia","code":null,"archived":false,"percentageOfSessions":null}, {"name":"Бобрики","state":"Tula","territory":"","country":"Russia","latitude":53.6667828,"longitude":36.1754023,"population":502,"stateCapital":false,"nationalCapital":false,"pk":null,"quiz":"asia","code":null,"archived":false,"percentageOfSessions":null}, {"name":"Бобровка","state":"Tula","territory":"","country":"Russia","latitude":54.298841,"longitude":38.1061211,"population":17,"stateCapital":false,"nationalCapital":false,"pk":null,"quiz":"asia","code":null,"archived":false,"percentageOfSessions":null}, {"name":"Бобровка","state":"Tula","territory":"","country":"Russia","latitude":54.1435061,"longitude":36.3692397,"population":4,"stateCapital":false,"nationalCapital":false,"pk":null,"quiz":"asia","code":null,"archived":false,"percentageOfSessions":null}, {"name":"Боброво","state":"Tula","territory":"","country":"Russia","latitude":53.7015511,"longitude":36.650606,"population":268,"stateCapital":false,"nationalCapital":false,"pk":null,"quiz":"asia","code":null,"archived":false,"percentageOfSessions":null}, {"name":"Бобровские Выселки","state":"Tula","territory":"","country":"Russia","latitude":54.4445286,"longitude":37.6034483,"population":1,"stateCapital":false,"nationalCapital":false,"pk":null,"quiz":"asia","code":null,"archived":false,"percentageOfSessions":null}, {"name":"Богатый","state":"Tula","territory":"","country":"Russia","latitude":53.499594,"longitude":36.8868604,"population":34,"stateCapital":false,"nationalCapital":false,"pk":null,"quiz":"asia","code":null,"archived":false,"percentageOfSessions":null}, {"name":"Богатьково","state":"Tula","territory":"","country":"Russia","latitude":54.4103133,"longitude":37.0769099,"population":0,"stateCapital":false,"nationalCapital":false,"pk":null,"quiz":"asia","code":null,"archived":false,"percentageOfSessions":null}, {"name":"Богачевка","state":"Tula","territory":"","country":"Russia","latitude":53.5289911,"longitude":36.6488359,"population":2,"stateCapital":false,"nationalCapital":false,"pk":null,"quiz":"asia","code":null,"archived":false,"percentageOfSessions":null}, {"name":"Богдановка","state":"Tula","territory":"","country":"Russia","latitude":54.1143828,"longitude":38.2879598,"population":279,"stateCapital":false,"nationalCapital":false,"pk":null,"quiz":"asia","code":null,"archived":false,"percentageOfSessions":null}, {"name":"Богдановка","state":"Tula","territory":"","country":"Russia","latitude":53.6317777,"longitude":38.5235808,"population":60,"stateCapital":false,"nationalCapital":false,"pk":null,"quiz":"asia","code":null,"archived":false,"percentageOfSessions":null}, {"name":"Богдановка","state":"Tula","territory":"","country":"Russia","latitude":53.7686998,"longitude":38.6000394,"population":0,"stateCapital":false,"nationalCapital":false,"pk":null,"quiz":"asia","code":null,"archived":false,"percentageOfSessions":null}, {"name":"Богдановка","state":"Tula","territory":"","country":"Russia","latitude":54.0845139,"longitude":37.9186776,"population":2,"stateCapital":false,"nationalCapital":false,"pk":null,"quiz":"asia","code":null,"archived":false,"percentageOfSessions":null}, {"name":"Богданово","state":"Tula","territory":"","country":"Russia","latitude":53.566055,"longitude":36.5384684,"population":0,"stateCapital":false,"nationalCapital":false,"pk":null,"quiz":"asia","code":null,"archived":false,"percentageOfSessions":null}, {"name":"Богданово","state":"Tula","territory":"","country":"Russia","latitude":53.8312796,"longitude":36.4340716,"population":191,"stateCapital":false,"nationalCapital":false,"pk":null,"quiz":"asia","code":null,"archived":false,"percentageOfSessions":null}, {"name":"Богданово","state":"Tula","territory":"","country":"Russia","latitude":54.2264084,"longitude":36.6575867,"population":143,"stateCapital":false,"nationalCapital":false,"pk":null,"quiz":"asia","code":null,"archived":false,"percentageOfSessions":null}, {"name":"Богово","state":"Tula","territory":"","country":"Russia","latitude":53.124638,"longitude":38.10487,"population":151,"stateCapital":false,"nationalCapital":false,"pk":null,"quiz":"asia","code":null,"archived":false,"percentageOfSessions":null}, {"name":"Боголюбовка","state":"Tula","territory":"","country":"Russia","latitude":53.4107891,"longitude":38.7531086,"population":0,"stateCapital":false,"nationalCapital":false,"pk":null,"quiz":"asia","code":null,"archived":false,"percentageOfSessions":null}, {"name":"Богородицк","state":"Tula","territory":"","country":"Russia","latitude":53.773571,"longitude":38.126965,"population":31897,"stateCapital":false,"nationalCapital":false,"pk":null,"quiz":"asia","code":null,"archived":false,"percentageOfSessions":null}, {"name":"Богородицкие Дворики","state":"Tula","territory":"","country":"Russia","latitude":53.7830826,"longitude":37.354331,"population":3,"stateCapital":false,"nationalCapital":false,"pk":null,"quiz":"asia","code":null,"archived":false,"percentageOfSessions":null}, {"name":"Богородицкое","state":"Tula","territory":"","country":"Russia","latitude":54.2451209,"longitude":38.1611367,"population":5,"stateCapital":false,"nationalCapital":false,"pk":null,"quiz":"asia","code":null,"archived":false,"percentageOfSessions":null}, {"name":"Богородицкое","state":"Tula","territory":"","country":"Russia","latitude":54.0196109,"longitude":36.981885,"population":0,"stateCapital":false,"nationalCapital":false,"pk":null,"quiz":"asia","code":null,"archived":false,"percentageOfSessions":null}, {"name":"Богородицкое","state":"Tula","territory":"","country":"Russia","latitude":53.5256047,"longitude":37.0532217,"population":6,"stateCapital":false,"nationalCapital":false,"pk":null,"quiz":"asia","code":null,"archived":false,"percentageOfSessions":null}, {"name":"Богородское","state":"Tula","territory":"","country":"Russia","latitude":54.494599,"longitude":37.4712491,"population":3,"stateCapital":false,"nationalCapital":false,"pk":null,"quiz":"asia","code":null,"archived":false,"percentageOfSessions":null}, {"name":"Богородское","state":"Tula","territory":"","country":"Russia","latitude":53.3237483,"longitude":36.9134057,"population":7,"stateCapital":false,"nationalCapital":false,"pk":null,"quiz":"asia","code":null,"archived":false,"percentageOfSessions":null}, {"name":"Богословка","state":"Tula","territory":"","country":"Russia","latitude":53.261481,"longitude":37.7801322,"population":32,"stateCapital":false,"nationalCapital":false,"pk":null,"quiz":"asia","code":null,"archived":false,"percentageOfSessions":null}, {"name":"Богослово","state":"Tula","territory":"","country":"Russia","latitude":53.3562617,"longitude":36.7085951,"population":3,"stateCapital":false,"nationalCapital":false,"pk":null,"quiz":"asia","code":null,"archived":false,"percentageOfSessions":null}, {"name":"Богословское","state":"Tula","territory":"","country":"Russia","latitude":54.768433,"longitude":37.9959461,"population":732,"stateCapital":false,"nationalCapital":false,"pk":null,"quiz":"asia","code":null,"archived":false,"percentageOfSessions":null}, {"name":"Богоявленка","state":"Tula","territory":"","country":"Russia","latitude":54.3266812,"longitude":38.0023698,"population":78,"stateCapital":false,"nationalCapital":false,"pk":null,"quiz":"asia","code":null,"archived":false,"percentageOfSessions":null}, {"name":"Богоявленка","state":"Tula","territory":"","country":"Russia","latitude":53.5471245,"longitude":38.373501,"population":0,"stateCapital":false,"nationalCapital":false,"pk":null,"quiz":"asia","code":null,"archived":false,"percentageOfSessions":null}, {"name":"Богучарово","state":"Tula","territory":"","country":"Russia","latitude":54.4194386,"longitude":37.1367855,"population":29,"stateCapital":false,"nationalCapital":false,"pk":null,"quiz":"asia","code":null,"archived":false,"percentageOfSessions":null}, {"name":"Богучарово","state":"Tula","territory":"","country":"Russia","latitude":53.9215557,"longitude":37.8271533,"population":27,"stateCapital":false,"nationalCapital":false,"pk":null,"quiz":"asia","code":null,"archived":false,"percentageOfSessions":null}, {"name":"Богучаровский","state":"Tula","territory":"","country":"Russia","latitude":53.9340178,"longitude":37.8331276,"population":7,"stateCapital":false,"nationalCapital":false,"pk":null,"quiz":"asia","code":null,"archived":false,"percentageOfSessions":null}, {"name":"Божениново","state":"Tula","territory":"","country":"Russia","latitude":54.512371,"longitude":37.209026,"population":16,"stateCapital":false,"nationalCapital":false,"pk":null,"quiz":"asia","code":null,"archived":false,"percentageOfSessions":null}, {"name":"Бойтово","state":"Tula","territory":"","country":"Russia","latitude":54.1224952,"longitude":36.1831843,"population":6,"stateCapital":false,"nationalCapital":false,"pk":null,"quiz":"asia","code":null,"archived":false,"percentageOfSessions":null}, {"name":"Болдово","state":"Tula","territory":"","country":"Russia","latitude":54.5143482,"longitude":37.4183683,"population":43,"stateCapital":false,"nationalCapital":false,"pk":null,"quiz":"asia","code":null,"archived":false,"percentageOfSessions":null}, {"name":"Болото","state":"Tula","territory":"","country":"Russia","latitude":54.446449,"longitude":37.092949,"population":7,"stateCapital":false,"nationalCapital":false,"pk":null,"quiz":"asia","code":null,"archived":false,"percentageOfSessions":null}, {"name":"Болото","state":"Tula","territory":"","country":"Russia","latitude":53.8077109,"longitude":36.3256541,"population":405,"stateCapital":false,"nationalCapital":false,"pk":null,"quiz":"asia","code":null,"archived":false,"percentageOfSessions":null}, {"name":"Болото","state":"Tula","territory":"","country":"Russia","latitude":54.1613737,"longitude":36.3242117,"population":119,"stateCapital":false,"nationalCapital":false,"pk":null,"quiz":"asia","code":null,"archived":false,"percentageOfSessions":null}, {"name":"Болотовка","state":"Tula","territory":"","country":"Russia","latitude":53.0990169,"longitude":38.2275939,"population":0,"stateCapital":false,"nationalCapital":false,"pk":null,"quiz":"asia","code":null,"archived":false,"percentageOfSessions":null}, {"name":"Болотовка","state":"Tula","territory":"","country":"Russia","latitude":53.8171286,"longitude":38.1573624,"population":51,"stateCapital":false,"nationalCapital":false,"pk":null,"quiz":"asia","code":null,"archived":false,"percentageOfSessions":null}, {"name":"Болотово","state":"Tula","territory":"","country":"Russia","latitude":54.6741079,"longitude":37.5234288,"population":32,"stateCapital":false,"nationalCapital":false,"pk":null,"quiz":"asia","code":null,"archived":false,"percentageOfSessions":null}, {"name":"Болотово","state":"Tula","territory":"","country":"Russia","latitude":54.0043327,"longitude":37.1158384,"population":6,"stateCapital":false,"nationalCapital":false,"pk":null,"quiz":"asia","code":null,"archived":false,"percentageOfSessions":null}, {"name":"Болотское","state":"Tula","territory":"","country":"Russia","latitude":53.967927,"longitude":36.6295812,"population":18,"stateCapital":false,"nationalCapital":false,"pk":null,"quiz":"asia","code":null,"archived":false,"percentageOfSessions":null}, {"name":"Болохово","state":"Tula","territory":"","country":"Russia","latitude":54.085094,"longitude":37.829109,"population":9622,"stateCapital":false,"nationalCapital":false,"pk":null,"quiz":"asia","code":null,"archived":false,"percentageOfSessions":null}, {"name":"Болоховский","state":"Tula","territory":"","country":"Russia","latitude":54.1063966,"longitude":37.9740331,"population":281,"stateCapital":false,"nationalCapital":false,"pk":null,"quiz":"asia","code":null,"archived":false,"percentageOfSessions":null}, {"name":"Болоховское","state":"Tula","territory":"","country":"Russia","latitude":53.2473834,"longitude":37.9589686,"population":51,"stateCapital":false,"nationalCapital":false,"pk":null,"quiz":"asia","code":null,"archived":false,"percentageOfSessions":null}, {"name":"Болтенки","state":"Tula","territory":"","country":"Russia","latitude":53.8669114,"longitude":36.1689443,"population":21,"stateCapital":false,"nationalCapital":false,"pk":null,"quiz":"asia","code":null,"archived":false,"percentageOfSessions":null}, {"name":"Большая Алешня","state":"Tula","territory":"","country":"Russia","latitude":54.1464379,"longitude":36.3994431,"population":17,"stateCapital":false,"nationalCapital":false,"pk":null,"quiz":"asia","code":null,"archived":false,"percentageOfSessions":null}, {"name":"Большая Браженка","state":"Tula","territory":"","country":"Russia","latitude":53.9637367,"longitude":37.3159681,"population":17,"stateCapital":false,"nationalCapital":false,"pk":null,"quiz":"asia","code":null,"archived":false,"percentageOfSessions":null}, {"name":"Большая Дубровка","state":"Tula","territory":"","country":"Russia","latitude":53.0777448,"longitude":38.5689722,"population":11,"stateCapital":false,"nationalCapital":false,"pk":null,"quiz":"asia","code":null,"archived":false,"percentageOfSessions":null}, {"name":"Большая Еловая","state":"Tula","territory":"","country":"Russia","latitude":54.133778,"longitude":37.677818,"population":200,"stateCapital":false,"nationalCapital":false,"pk":null,"quiz":"asia","code":null,"archived":false,"percentageOfSessions":null}, {"name":"Большая Звойка","state":"Tula","territory":"","country":"Russia","latitude":54.423322,"longitude":38.2711139,"population":8,"stateCapital":false,"nationalCapital":false,"pk":null,"quiz":"asia","code":null,"archived":false,"percentageOfSessions":null}, {"name":"Большая Кожуховка","state":"Tula","territory":"","country":"Russia","latitude":54.0194371,"longitude":37.6582857,"population":25,"stateCapital":false,"nationalCapital":false,"pk":null,"quiz":"asia","code":null,"archived":false,"percentageOfSessions":null}, {"name":"Большая Корчажка","state":"Tula","territory":"","country":"Russia","latitude":53.1721286,"longitude":37.9287602,"population":79,"stateCapital":false,"nationalCapital":false,"pk":null,"quiz":"asia","code":null,"archived":false,"percentageOfSessions":null}, {"name":"Большая Красавка","state":"Tula","territory":"","country":"Russia","latitude":53.6443071,"longitude":37.4868536,"population":8,"stateCapital":false,"nationalCapital":false,"pk":null,"quiz":"asia","code":null,"archived":false,"percentageOfSessions":null}, {"name":"Большая Мостовая","state":"Tula","territory":"","country":"Russia","latitude":53.9592245,"longitude":37.5630133,"population":114,"stateCapital":false,"nationalCapital":false,"pk":null,"quiz":"asia","code":null,"archived":false,"percentageOfSessions":null}, {"name":"Большая Полунинка","state":"Tula","territory":"","country":"Russia","latitude":53.8907234,"longitude":38.1811724,"population":34,"stateCapital":false,"nationalCapital":false,"pk":null,"quiz":"asia","code":null,"archived":false,"percentageOfSessions":null}, {"name":"Большая Рассошка","state":"Tula","territory":"","country":"Russia","latitude":53.9848247,"longitude":38.0376462,"population":69,"stateCapital":false,"nationalCapital":false,"pk":null,"quiz":"asia","code":null,"archived":false,"percentageOfSessions":null}, {"name":"Большая Ретеша","state":"Tula","territory":"","country":"Russia","latitude":54.6364741,"longitude":38.4190483,"population":12,"stateCapital":false,"nationalCapital":false,"pk":null,"quiz":"asia","code":null,"archived":false,"percentageOfSessions":null}, {"name":"Большая Рябая","state":"Tula","territory":"","country":"Russia","latitude":53.4156862,"longitude":36.6620929,"population":7,"stateCapital":false,"nationalCapital":false,"pk":null,"quiz":"asia","code":null,"archived":false,"percentageOfSessions":null}, {"name":"Большая Сальница","state":"Tula","territory":"","country":"Russia","latitude":53.4601081,"longitude":36.5318008,"population":4,"stateCapital":false,"nationalCapital":false,"pk":null,"quiz":"asia","code":null,"archived":false,"percentageOfSessions":null}, {"name":"Большая Связьма","state":"Tula","territory":"","country":"Russia","latitude":54.2108646,"longitude":38.1651597,"population":1,"stateCapital":false,"nationalCapital":false,"pk":null,"quiz":"asia","code":null,"archived":false,"percentageOfSessions":null}, {"name":"Большая Стрекаловка","state":"Tula","territory":"","country":"Russia","latitude":54.0720198,"longitude":37.6466931,"population":12,"stateCapital":false,"nationalCapital":false,"pk":null,"quiz":"asia","code":null,"archived":false,"percentageOfSessions":null}, {"name":"Большая Сухотинка","state":"Tula","territory":"","country":"Russia","latitude":53.1347337,"longitude":38.5603891,"population":30,"stateCapital":false,"nationalCapital":false,"pk":null,"quiz":"asia","code":null,"archived":false,"percentageOfSessions":null}, {"name":"Большая Тросна","state":"Tula","territory":"","country":"Russia","latitude":54.0100204,"longitude":37.4790491,"population":590,"stateCapital":false,"nationalCapital":false,"pk":null,"quiz":"asia","code":null,"archived":false,"percentageOfSessions":null}, {"name":"Большая Уваровка","state":"Tula","territory":"","country":"Russia","latitude":54.5337357,"longitude":38.1906795,"population":10,"stateCapital":false,"nationalCapital":false,"pk":null,"quiz":"asia","code":null,"archived":false,"percentageOfSessions":null}, {"name":"Большая Хатунка","state":"Tula","territory":"","country":"Russia","latitude":54.0150961,"longitude":37.3336718,"population":14,"stateCapital":false,"nationalCapital":false,"pk":null,"quiz":"asia","code":null,"archived":false,"percentageOfSessions":null}, {"name":"Большая Шишовка","state":"Tula","territory":"","country":"Russia","latitude":53.5587964,"longitude":38.1360447,"population":2,"stateCapital":false,"nationalCapital":false,"pk":null,"quiz":"asia","code":null,"archived":false,"percentageOfSessions":null}, {"name":"Большие Байдики","state":"Tula","territory":"","country":"Russia","latitude":54.3263921,"longitude":37.6526208,"population":93,"stateCapital":false,"nationalCapital":false,"pk":null,"quiz":"asia","code":null,"archived":false,"percentageOfSessions":null}, {"name":"Большие Борзенки","state":"Tula","territory":"","country":"Russia","latitude":53.4026626,"longitude":36.5900405,"population":0,"stateCapital":false,"nationalCapital":false,"pk":null,"quiz":"asia","code":null,"archived":false,"percentageOfSessions":null}, {"name":"Большие Голубочки","state":"Tula","territory":"","country":"Russia","latitude":53.5271811,"longitude":36.3510615,"population":299,"stateCapital":false,"nationalCapital":false,"pk":null,"quiz":"asia","code":null,"archived":false,"percentageOfSessions":null}, {"name":"Большие Заломы","state":"Tula","territory":"","country":"Russia","latitude":54.377254,"longitude":38.3261727,"population":167,"stateCapital":false,"nationalCapital":false,"pk":null,"quiz":"asia","code":null,"archived":false,"percentageOfSessions":null}, {"name":"Большие Калмыки","state":"Tula","territory":"","country":"Russia","latitude":54.048462,"longitude":37.824753,"population":458,"stateCapital":false,"nationalCapital":false,"pk":null,"quiz":"asia","code":null,"archived":false,"percentageOfSessions":null}, {"name":"Большие Кузьменки","state":"Tula","territory":"","country":"Russia","latitude":54.0997494,"longitude":37.2951395,"population":0,"stateCapital":false,"nationalCapital":false,"pk":null,"quiz":"asia","code":null,"archived":false,"percentageOfSessions":null}, {"name":"Большие Медведки","state":"Tula","territory":"","country":"Russia","latitude":53.2406507,"longitude":37.971997,"population":443,"stateCapital":false,"nationalCapital":false,"pk":null,"quiz":"asia","code":null,"archived":false,"percentageOfSessions":null}, {"name":"Большие Озерки","state":"Tula","territory":"","country":"Russia","latitude":53.5534098,"longitude":37.1784926,"population":303,"stateCapital":false,"nationalCapital":false,"pk":null,"quiz":"asia","code":null,"archived":false,"percentageOfSessions":null}, {"name":"Большие Озерки","state":"Tula","territory":"","country":"Russia","latitude":53.990893,"longitude":37.532773,"population":320,"stateCapital":false,"nationalCapital":false,"pk":null,"quiz":"asia","code":null,"archived":false,"percentageOfSessions":null}, {"name":"Большие Плоты","state":"Tula","territory":"","country":"Russia","latitude":53.3027095,"longitude":38.1871261,"population":564,"stateCapital":false,"nationalCapital":false,"pk":null,"quiz":"asia","code":null,"archived":false,"percentageOfSessions":null}, {"name":"Большие Пруды","state":"Tula","territory":"","country":"Russia","latitude":54.4243688,"longitude":37.3498901,"population":8,"stateCapital":false,"nationalCapital":false,"pk":null,"quiz":"asia","code":null,"archived":false,"percentageOfSessions":null}, {"name":"Большие Стрельцы","state":"Tula","territory":"","country":"Russia","latitude":54.0570849,"longitude":38.6753926,"population":11,"stateCapital":false,"nationalCapital":false,"pk":null,"quiz":"asia","code":null,"archived":false,"percentageOfSessions":null}, {"name":"Большие Тетерки","state":"Tula","territory":"","country":"Russia","latitude":54.1533459,"longitude":38.2823156,"population":2,"stateCapital":false,"nationalCapital":false,"pk":null,"quiz":"asia","code":null,"archived":false,"percentageOfSessions":null}, {"name":"Большое Алитово","state":"Tula","territory":"","country":"Russia","latitude":54.4868182,"longitude":38.1778981,"population":14,"stateCapital":false,"nationalCapital":false,"pk":null,"quiz":"asia","code":null,"archived":false,"percentageOfSessions":null}, {"name":"Большое Бизюкино","state":"Tula","territory":"","country":"Russia","latitude":54.388729,"longitude":37.254032,"population":15,"stateCapital":false,"nationalCapital":false,"pk":null,"quiz":"asia","code":null,"archived":false,"percentageOfSessions":null}, {"name":"Большое Варково","state":"Tula","territory":"","country":"Russia","latitude":53.1402339,"longitude":38.5116271,"population":57,"stateCapital":false,"nationalCapital":false,"pk":null,"quiz":"asia","code":null,"archived":false,"percentageOfSessions":null}, {"name":"Большое Журино","state":"Tula","territory":"","country":"Russia","latitude":53.6316203,"longitude":36.6505513,"population":7,"stateCapital":false,"nationalCapital":false,"pk":null,"quiz":"asia","code":null,"archived":false,"percentageOfSessions":null}, {"name":"Большое Захарово","state":"Tula","territory":"","country":"Russia","latitude":53.6838504,"longitude":36.6079053,"population":19,"stateCapital":false,"nationalCapital":false,"pk":null,"quiz":"asia","code":null,"archived":false,"percentageOfSessions":null}, {"name":"Большое Зуево","state":"Tula","territory":"","country":"Russia","latitude":54.0488948,"longitude":37.7599976,"population":8,"stateCapital":false,"nationalCapital":false,"pk":null,"quiz":"asia","code":null,"archived":false,"percentageOfSessions":null}, {"name":"Большое Касимово","state":"Tula","territory":"","country":"Russia","latitude":53.8239321,"longitude":36.5565711,"population":0,"stateCapital":false,"nationalCapital":false,"pk":null,"quiz":"asia","code":null,"archived":false,"percentageOfSessions":null}, {"name":"Большое Колодезное","state":"Tula","territory":"","country":"Russia","latitude":54.0477369,"longitude":38.3206134,"population":84,"stateCapital":false,"nationalCapital":false,"pk":null,"quiz":"asia","code":null,"archived":false,"percentageOfSessions":null}, {"name":"Большое Кондаурово","state":"Tula","territory":"","country":"Russia","latitude":53.5140187,"longitude":36.645509,"population":48,"stateCapital":false,"nationalCapital":false,"pk":null,"quiz":"asia","code":null,"archived":false,"percentageOfSessions":null}, {"name":"Большое Минино","state":"Tula","territory":"","country":"Russia","latitude":53.3987944,"longitude":37.491213,"population":310,"stateCapital":false,"nationalCapital":false,"pk":null,"quiz":"asia","code":null,"archived":false,"percentageOfSessions":null}, {"name":"Большое Огарево","state":"Tula","territory":"","country":"Russia","latitude":53.5498448,"longitude":37.7237624,"population":244,"stateCapital":false,"nationalCapital":false,"pk":null,"quiz":"asia","code":null,"archived":false,"percentageOfSessions":null}, {"name":"Большое Панское","state":"Tula","territory":"","country":"Russia","latitude":54.3596885,"longitude":37.0778607,"population":33,"stateCapital":false,"nationalCapital":false,"pk":null,"quiz":"asia","code":null,"archived":false,"percentageOfSessions":null}, {"name":"Большое Савватеево","state":"Tula","territory":"","country":"Russia","latitude":54.5808625,"longitude":36.981168,"population":4,"stateCapital":false,"nationalCapital":false,"pk":null,"quiz":"asia","code":null,"archived":false,"percentageOfSessions":null}, {"name":"Большое Самолково","state":"Tula","territory":"","country":"Russia","latitude":53.6894725,"longitude":36.2363915,"population":11,"stateCapital":false,"nationalCapital":false,"pk":null,"quiz":"asia","code":null,"archived":false,"percentageOfSessions":null}, {"name":"Большое Скуратово","state":"Tula","territory":"","country":"Russia","latitude":53.436581,"longitude":36.829861,"population":346,"stateCapital":false,"nationalCapital":false,"pk":null,"quiz":"asia","code":null,"archived":false,"percentageOfSessions":null}, {"name":"Большое Сонино","state":"Tula","territory":"","country":"Russia","latitude":53.8468795,"longitude":36.5448124,"population":2,"stateCapital":false,"nationalCapital":false,"pk":null,"quiz":"asia","code":null,"archived":false,"percentageOfSessions":null}, {"name":"Большое Тризново","state":"Tula","territory":"","country":"Russia","latitude":53.9537348,"longitude":37.0971513,"population":6,"stateCapital":false,"nationalCapital":false,"pk":null,"quiz":"asia","code":null,"archived":false,"percentageOfSessions":null}, {"name":"Большое Хлыново","state":"Tula","territory":"","country":"Russia","latitude":54.1692961,"longitude":37.3412804,"population":2,"stateCapital":false,"nationalCapital":false,"pk":null,"quiz":"asia","code":null,"archived":false,"percentageOfSessions":null}, {"name":"Большое Хорошово","state":"Tula","territory":"","country":"Russia","latitude":54.8338825,"longitude":37.9469219,"population":6,"stateCapital":false,"nationalCapital":false,"pk":null,"quiz":"asia","code":null,"archived":false,"percentageOfSessions":null}, {"name":"Большое Чернево","state":"Tula","territory":"","country":"Russia","latitude":54.5814612,"longitude":38.1788764,"population":9,"stateCapital":false,"nationalCapital":false,"pk":null,"quiz":"asia","code":null,"archived":false,"percentageOfSessions":null}, {"name":"Большое Шелепино","state":"Tula","territory":"","country":"Russia","latitude":54.481663,"longitude":37.159149,"population":723,"stateCapital":false,"nationalCapital":false,"pk":null,"quiz":"asia","code":null,"archived":false,"percentageOfSessions":null}, {"name":"Большой Конь","state":"Tula","territory":"","country":"Russia","latitude":53.4394323,"longitude":37.0190953,"population":0,"stateCapital":false,"nationalCapital":false,"pk":null,"quiz":"asia","code":null,"archived":false,"percentageOfSessions":null}, {"name":"Большой Суходол","state":"Tula","territory":"","country":"Russia","latitude":53.7205949,"longitude":38.2714476,"population":131,"stateCapital":false,"nationalCapital":false,"pk":null,"quiz":"asia","code":null,"archived":false,"percentageOfSessions":null}, {"name":"Боняково","state":"Tula","territory":"","country":"Russia","latitude":53.6462151,"longitude":37.4113655,"population":10,"stateCapital":false,"nationalCapital":false,"pk":null,"quiz":"asia","code":null,"archived":false,"percentageOfSessions":null}, {"name":"Борзовка","state":"Tula","territory":"","country":"Russia","latitude":54.2865585,"longitude":38.2163293,"population":1,"stateCapital":false,"nationalCapital":false,"pk":null,"quiz":"asia","code":null,"archived":false,"percentageOfSessions":null}, {"name":"Борзовка","state":"Tula","territory":"","country":"Russia","latitude":54.2865585,"longitude":38.2163293,"population":4,"stateCapital":false,"nationalCapital":false,"pk":null,"quiz":"asia","code":null,"archived":false,"percentageOfSessions":null}, {"name":"Борзуново","state":"Tula","territory":"","country":"Russia","latitude":54.0716476,"longitude":37.3002816,"population":2,"stateCapital":false,"nationalCapital":false,"pk":null,"quiz":"asia","code":null,"archived":false,"percentageOfSessions":null}, {"name":"Борисовка","state":"Tula","territory":"","country":"Russia","latitude":53.5985037,"longitude":36.1032457,"population":4,"stateCapital":false,"nationalCapital":false,"pk":null,"quiz":"asia","code":null,"archived":false,"percentageOfSessions":null}, {"name":"Борисовка","state":"Tula","territory":"","country":"Russia","latitude":53.5256918,"longitude":37.7312779,"population":17,"stateCapital":false,"nationalCapital":false,"pk":null,"quiz":"asia","code":null,"archived":false,"percentageOfSessions":null}, {"name":"Борисовка","state":"Tula","territory":"","country":"Russia","latitude":53.8875809,"longitude":37.6390802,"population":2,"stateCapital":false,"nationalCapital":false,"pk":null,"quiz":"asia","code":null,"archived":false,"percentageOfSessions":null}, {"name":"Борисово","state":"Tula","territory":"","country":"Russia","latitude":54.3967997,"longitude":37.1223131,"population":513,"stateCapital":false,"nationalCapital":false,"pk":null,"quiz":"asia","code":null,"archived":false,"percentageOfSessions":null}, {"name":"Борисово","state":"Tula","territory":"","country":"Russia","latitude":54.1044254,"longitude":37.3623517,"population":0,"stateCapital":false,"nationalCapital":false,"pk":null,"quiz":"asia","code":null,"archived":false,"percentageOfSessions":null}, {"name":"Борисово","state":"Tula","territory":"","country":"Russia","latitude":54.1847412,"longitude":36.5153284,"population":31,"stateCapital":false,"nationalCapital":false,"pk":null,"quiz":"asia","code":null,"archived":false,"percentageOfSessions":null}, {"name":"Борисово","state":"Tula","territory":"","country":"Russia","latitude":54.7529483,"longitude":37.8132151,"population":5,"stateCapital":false,"nationalCapital":false,"pk":null,"quiz":"asia","code":null,"archived":false,"percentageOfSessions":null}, {"name":"Борисовские Выселки","state":"Tula","territory":"","country":"Russia","latitude":53.3700561,"longitude":38.6364387,"population":0,"stateCapital":false,"nationalCapital":false,"pk":null,"quiz":"asia","code":null,"archived":false,"percentageOfSessions":null}, {"name":"Борково","state":"Tula","territory":"","country":"Russia","latitude":53.5715917,"longitude":36.129875,"population":29,"stateCapital":false,"nationalCapital":false,"pk":null,"quiz":"asia","code":null,"archived":false,"percentageOfSessions":null}, {"name":"Боровковский","state":"Tula","territory":"","country":"Russia","latitude":54.4590593,"longitude":37.7271922,"population":329,"stateCapital":false,"nationalCapital":false,"pk":null,"quiz":"asia","code":null,"archived":false,"percentageOfSessions":null}, {"name":"Боровна","state":"Tula","territory":"","country":"Russia","latitude":53.8355614,"longitude":36.2177837,"population":13,"stateCapital":false,"nationalCapital":false,"pk":null,"quiz":"asia","code":null,"archived":false,"percentageOfSessions":null}, {"name":"Боровое","state":"Tula","territory":"","country":"Russia","latitude":53.5909633,"longitude":36.0423567,"population":10,"stateCapital":false,"nationalCapital":false,"pk":null,"quiz":"asia","code":null,"archived":false,"percentageOfSessions":null}, {"name":"Бородино","state":"Tula","territory":"","country":"Russia","latitude":53.9906218,"longitude":37.8261806,"population":40,"stateCapital":false,"nationalCapital":false,"pk":null,"quiz":"asia","code":null,"archived":false,"percentageOfSessions":null}, {"name":"Бородинский","state":"Tula","territory":"","country":"Russia","latitude":53.995277,"longitude":37.813419,"population":6126,"stateCapital":false,"nationalCapital":false,"pk":null,"quiz":"asia","code":null,"archived":false,"percentageOfSessions":null},