{"cities":[{"name":"11 Лет Чувашии","state":"Chuvashia","territory":"","country":"Russia","latitude":55.2287334,"longitude":46.7683431,"population":46,"stateCapital":false,"nationalCapital":false,"pk":null,"quiz":"asia","code":null,"archived":false,"percentageOfSessions":null}, {"name":"Абамза","state":"Chuvashia","territory":"","country":"Russia","latitude":54.9655009,"longitude":47.2427555,"population":503,"stateCapital":false,"nationalCapital":false,"pk":null,"quiz":"asia","code":null,"archived":false,"percentageOfSessions":null}, {"name":"Абашево","state":"Chuvashia","territory":"","country":"Russia","latitude":55.9862537,"longitude":47.3618674,"population":838,"stateCapital":false,"nationalCapital":false,"pk":null,"quiz":"asia","code":null,"archived":false,"percentageOfSessions":null}, {"name":"Аблязово","state":"Chuvashia","territory":"","country":"Russia","latitude":55.8347278,"longitude":47.8718711,"population":32,"stateCapital":false,"nationalCapital":false,"pk":null,"quiz":"asia","code":null,"archived":false,"percentageOfSessions":null}, {"name":"Абызово","state":"Chuvashia","territory":"","country":"Russia","latitude":55.533401,"longitude":46.9203,"population":538,"stateCapital":false,"nationalCapital":false,"pk":null,"quiz":"asia","code":null,"archived":false,"percentageOfSessions":null}, {"name":"Авданкасы","state":"Chuvashia","territory":"","country":"Russia","latitude":55.8781377,"longitude":46.9200882,"population":132,"stateCapital":false,"nationalCapital":false,"pk":null,"quiz":"asia","code":null,"archived":false,"percentageOfSessions":null}, {"name":"Авдан-Сирмы","state":"Chuvashia","territory":"","country":"Russia","latitude":56.0494455,"longitude":47.3859531,"population":22,"stateCapital":false,"nationalCapital":false,"pk":null,"quiz":"asia","code":null,"archived":false,"percentageOfSessions":null}, {"name":"Авруй","state":"Chuvashia","territory":"","country":"Russia","latitude":55.3877486,"longitude":46.9184832,"population":5,"stateCapital":false,"nationalCapital":false,"pk":null,"quiz":"asia","code":null,"archived":false,"percentageOfSessions":null}, {"name":"Автобус","state":"Chuvashia","territory":"","country":"Russia","latitude":55.620824,"longitude":46.3331005,"population":9,"stateCapital":false,"nationalCapital":false,"pk":null,"quiz":"asia","code":null,"archived":false,"percentageOfSessions":null}, {"name":"Авыр-Сирмы","state":"Chuvashia","territory":"","country":"Russia","latitude":55.6674837,"longitude":46.8186686,"population":107,"stateCapital":false,"nationalCapital":false,"pk":null,"quiz":"asia","code":null,"archived":false,"percentageOfSessions":null}, {"name":"Адабай","state":"Chuvashia","territory":"","country":"Russia","latitude":55.9865001,"longitude":46.8266159,"population":218,"stateCapital":false,"nationalCapital":false,"pk":null,"quiz":"asia","code":null,"archived":false,"percentageOfSessions":null}, {"name":"Адикасы","state":"Chuvashia","territory":"","country":"Russia","latitude":56.1248497,"longitude":46.6067476,"population":107,"stateCapital":false,"nationalCapital":false,"pk":null,"quiz":"asia","code":null,"archived":false,"percentageOfSessions":null}, {"name":"Адиково","state":"Chuvashia","territory":"","country":"Russia","latitude":54.9923587,"longitude":47.9976253,"population":17,"stateCapital":false,"nationalCapital":false,"pk":null,"quiz":"asia","code":null,"archived":false,"percentageOfSessions":null}, {"name":"Адылъял","state":"Chuvashia","territory":"","country":"Russia","latitude":56.0947877,"longitude":46.9497346,"population":226,"stateCapital":false,"nationalCapital":false,"pk":null,"quiz":"asia","code":null,"archived":false,"percentageOfSessions":null}, {"name":"Азамат","state":"Chuvashia","territory":"","country":"Russia","latitude":55.7348494,"longitude":46.7303577,"population":188,"stateCapital":false,"nationalCapital":false,"pk":null,"quiz":"asia","code":null,"archived":false,"percentageOfSessions":null}, {"name":"Азим-Сирма","state":"Chuvashia","territory":"","country":"Russia","latitude":55.6150255,"longitude":46.7457257,"population":428,"stateCapital":false,"nationalCapital":false,"pk":null,"quiz":"asia","code":null,"archived":false,"percentageOfSessions":null}, {"name":"Айбечи","state":"Chuvashia","territory":"","country":"Russia","latitude":55.3456899,"longitude":47.3434446,"population":890,"stateCapital":false,"nationalCapital":false,"pk":null,"quiz":"asia","code":null,"archived":false,"percentageOfSessions":null}, {"name":"Айгиши","state":"Chuvashia","territory":"","country":"Russia","latitude":55.5866149,"longitude":46.9602121,"population":231,"stateCapital":false,"nationalCapital":false,"pk":null,"quiz":"asia","code":null,"archived":false,"percentageOfSessions":null}, {"name":"Айдарово","state":"Chuvashia","territory":"","country":"Russia","latitude":55.8462778,"longitude":47.8054914,"population":18,"stateCapital":false,"nationalCapital":false,"pk":null,"quiz":"asia","code":null,"archived":false,"percentageOfSessions":null}, {"name":"Акнязево","state":"Chuvashia","territory":"","country":"Russia","latitude":55.9163784,"longitude":47.6083995,"population":114,"stateCapital":false,"nationalCapital":false,"pk":null,"quiz":"asia","code":null,"archived":false,"percentageOfSessions":null}, {"name":"Акрамово","state":"Chuvashia","territory":"","country":"Russia","latitude":55.9670579,"longitude":46.8759342,"population":286,"stateCapital":false,"nationalCapital":false,"pk":null,"quiz":"asia","code":null,"archived":false,"percentageOfSessions":null}, {"name":"Аксарино","state":"Chuvashia","territory":"","country":"Russia","latitude":55.4457669,"longitude":47.5505866,"population":443,"stateCapital":false,"nationalCapital":false,"pk":null,"quiz":"asia","code":null,"archived":false,"percentageOfSessions":null}, {"name":"Аксарино","state":"Chuvashia","territory":"","country":"Russia","latitude":55.9155322,"longitude":47.9044467,"population":577,"stateCapital":false,"nationalCapital":false,"pk":null,"quiz":"asia","code":null,"archived":false,"percentageOfSessions":null}, {"name":"Актай","state":"Chuvashia","territory":"","country":"Russia","latitude":55.8257791,"longitude":46.7803876,"population":160,"stateCapital":false,"nationalCapital":false,"pk":null,"quiz":"asia","code":null,"archived":false,"percentageOfSessions":null}, {"name":"Актай","state":"Chuvashia","territory":"","country":"Russia","latitude":55.8360181,"longitude":47.2981862,"population":63,"stateCapital":false,"nationalCapital":false,"pk":null,"quiz":"asia","code":null,"archived":false,"percentageOfSessions":null}, {"name":"Акташи","state":"Chuvashia","territory":"","country":"Russia","latitude":55.7508416,"longitude":46.427865,"population":49,"stateCapital":false,"nationalCapital":false,"pk":null,"quiz":"asia","code":null,"archived":false,"percentageOfSessions":null}, {"name":"Акташкасы","state":"Chuvashia","territory":"","country":"Russia","latitude":55.8998205,"longitude":47.5978868,"population":117,"stateCapital":false,"nationalCapital":false,"pk":null,"quiz":"asia","code":null,"archived":false,"percentageOfSessions":null}, {"name":"Акулево","state":"Chuvashia","territory":"","country":"Russia","latitude":55.9886714,"longitude":47.5223873,"population":180,"stateCapital":false,"nationalCapital":false,"pk":null,"quiz":"asia","code":null,"archived":false,"percentageOfSessions":null}, {"name":"Акчикасы","state":"Chuvashia","territory":"","country":"Russia","latitude":55.724181,"longitude":46.127712,"population":368,"stateCapital":false,"nationalCapital":false,"pk":null,"quiz":"asia","code":null,"archived":false,"percentageOfSessions":null}, {"name":"Акшики","state":"Chuvashia","territory":"","country":"Russia","latitude":55.921769,"longitude":47.8488064,"population":137,"stateCapital":false,"nationalCapital":false,"pk":null,"quiz":"asia","code":null,"archived":false,"percentageOfSessions":null}, {"name":"Алаксары","state":"Chuvashia","territory":"","country":"Russia","latitude":55.6841099,"longitude":47.364368,"population":145,"stateCapital":false,"nationalCapital":false,"pk":null,"quiz":"asia","code":null,"archived":false,"percentageOfSessions":null}, {"name":"Алатырь","state":"Chuvashia","territory":"","country":"Russia","latitude":54.8419041,"longitude":46.5878356,"population":38203,"stateCapital":false,"nationalCapital":false,"pk":null,"quiz":"asia","code":null,"archived":false,"percentageOfSessions":null}, {"name":"Алатырькасы","state":"Chuvashia","territory":"","country":"Russia","latitude":56.0390554,"longitude":47.5443548,"population":26,"stateCapital":false,"nationalCapital":false,"pk":null,"quiz":"asia","code":null,"archived":false,"percentageOfSessions":null}, {"name":"Албахтино","state":"Chuvashia","territory":"","country":"Russia","latitude":55.7280872,"longitude":47.2720743,"population":229,"stateCapital":false,"nationalCapital":false,"pk":null,"quiz":"asia","code":null,"archived":false,"percentageOfSessions":null}, {"name":"Алгазино","state":"Chuvashia","territory":"","country":"Russia","latitude":55.597261,"longitude":46.9438184,"population":423,"stateCapital":false,"nationalCapital":false,"pk":null,"quiz":"asia","code":null,"archived":false,"percentageOfSessions":null}, {"name":"Алгукасы","state":"Chuvashia","territory":"","country":"Russia","latitude":55.7898386,"longitude":46.7245304,"population":21,"stateCapital":false,"nationalCapital":false,"pk":null,"quiz":"asia","code":null,"archived":false,"percentageOfSessions":null}, {"name":"Алдиарово","state":"Chuvashia","territory":"","country":"Russia","latitude":55.5879695,"longitude":47.7593379,"population":400,"stateCapital":false,"nationalCapital":false,"pk":null,"quiz":"asia","code":null,"archived":false,"percentageOfSessions":null}, {"name":"Александровка","state":"Chuvashia","territory":"","country":"Russia","latitude":55.2684013,"longitude":47.6089436,"population":486,"stateCapital":false,"nationalCapital":false,"pk":null,"quiz":"asia","code":null,"archived":false,"percentageOfSessions":null}, {"name":"Александровское","state":"Chuvashia","territory":"","country":"Russia","latitude":55.8712281,"longitude":46.6426437,"population":119,"stateCapital":false,"nationalCapital":false,"pk":null,"quiz":"asia","code":null,"archived":false,"percentageOfSessions":null}, {"name":"Алексеевка","state":"Chuvashia","territory":"","country":"Russia","latitude":56.0150156,"longitude":46.3471666,"population":109,"stateCapital":false,"nationalCapital":false,"pk":null,"quiz":"asia","code":null,"archived":false,"percentageOfSessions":null}, {"name":"Алешево","state":"Chuvashia","territory":"","country":"Russia","latitude":55.5416771,"longitude":47.5711937,"population":136,"stateCapital":false,"nationalCapital":false,"pk":null,"quiz":"asia","code":null,"archived":false,"percentageOfSessions":null}, {"name":"Алешкино","state":"Chuvashia","territory":"","country":"Russia","latitude":55.8252421,"longitude":46.390716,"population":176,"stateCapital":false,"nationalCapital":false,"pk":null,"quiz":"asia","code":null,"archived":false,"percentageOfSessions":null}, {"name":"Аликово","state":"Chuvashia","territory":"","country":"Russia","latitude":55.7393757,"longitude":46.7465335,"population":2653,"stateCapital":false,"nationalCapital":false,"pk":null,"quiz":"asia","code":null,"archived":false,"percentageOfSessions":null}, {"name":"Аликово","state":"Chuvashia","territory":"","country":"Russia","latitude":55.7445957,"longitude":46.2204986,"population":271,"stateCapital":false,"nationalCapital":false,"pk":null,"quiz":"asia","code":null,"archived":false,"percentageOfSessions":null}, {"name":"Алмандаево","state":"Chuvashia","territory":"","country":"Russia","latitude":55.97237,"longitude":47.6191561,"population":59,"stateCapital":false,"nationalCapital":false,"pk":null,"quiz":"asia","code":null,"archived":false,"percentageOfSessions":null}, {"name":"Алманчиково","state":"Chuvashia","territory":"","country":"Russia","latitude":54.9826666,"longitude":47.7717456,"population":951,"stateCapital":false,"nationalCapital":false,"pk":null,"quiz":"asia","code":null,"archived":false,"percentageOfSessions":null}, {"name":"Алманчино","state":"Chuvashia","territory":"","country":"Russia","latitude":55.6976015,"longitude":47.2175434,"population":294,"stateCapital":false,"nationalCapital":false,"pk":null,"quiz":"asia","code":null,"archived":false,"percentageOfSessions":null}, {"name":"Алтышево","state":"Chuvashia","territory":"","country":"Russia","latitude":54.9114067,"longitude":46.6936969,"population":861,"stateCapital":false,"nationalCapital":false,"pk":null,"quiz":"asia","code":null,"archived":false,"percentageOfSessions":null}, {"name":"Алтышево","state":"Chuvashia","territory":"","country":"Russia","latitude":54.9114067,"longitude":46.6936969,"population":1100,"stateCapital":false,"nationalCapital":false,"pk":null,"quiz":"asia","code":null,"archived":false,"percentageOfSessions":null}, {"name":"Алтышево-Люльский","state":"Chuvashia","territory":"","country":"Russia","latitude":54.9477505,"longitude":46.6852351,"population":12,"stateCapital":false,"nationalCapital":false,"pk":null,"quiz":"asia","code":null,"archived":false,"percentageOfSessions":null}, {"name":"Алшихово","state":"Chuvashia","territory":"","country":"Russia","latitude":55.3939379,"longitude":47.2128178,"population":29,"stateCapital":false,"nationalCapital":false,"pk":null,"quiz":"asia","code":null,"archived":false,"percentageOfSessions":null}, {"name":"Алымкасы","state":"Chuvashia","territory":"","country":"Russia","latitude":56.057375,"longitude":47.4825443,"population":36,"stateCapital":false,"nationalCapital":false,"pk":null,"quiz":"asia","code":null,"archived":false,"percentageOfSessions":null}, {"name":"Альбусь-Сюрбеево","state":"Chuvashia","territory":"","country":"Russia","latitude":55.1916978,"longitude":47.4963241,"population":552,"stateCapital":false,"nationalCapital":false,"pk":null,"quiz":"asia","code":null,"archived":false,"percentageOfSessions":null}, {"name":"Альгешево","state":"Chuvashia","territory":"","country":"Russia","latitude":56.06266,"longitude":47.28782,"population":480,"stateCapital":false,"nationalCapital":false,"pk":null,"quiz":"asia","code":null,"archived":false,"percentageOfSessions":null}, {"name":"Альменево","state":"Chuvashia","territory":"","country":"Russia","latitude":55.6459123,"longitude":46.9299861,"population":194,"stateCapital":false,"nationalCapital":false,"pk":null,"quiz":"asia","code":null,"archived":false,"percentageOfSessions":null}, {"name":"Альменево","state":"Chuvashia","territory":"","country":"Russia","latitude":55.7237449,"longitude":48.2274501,"population":157,"stateCapital":false,"nationalCapital":false,"pk":null,"quiz":"asia","code":null,"archived":false,"percentageOfSessions":null}, {"name":"Альмень-Сунары","state":"Chuvashia","territory":"","country":"Russia","latitude":55.546474,"longitude":47.023407,"population":208,"stateCapital":false,"nationalCapital":false,"pk":null,"quiz":"asia","code":null,"archived":false,"percentageOfSessions":null}, {"name":"Амалыково","state":"Chuvashia","territory":"","country":"Russia","latitude":55.4218325,"longitude":47.8581328,"population":339,"stateCapital":false,"nationalCapital":false,"pk":null,"quiz":"asia","code":null,"archived":false,"percentageOfSessions":null}, {"name":"Амачкасы","state":"Chuvashia","territory":"","country":"Russia","latitude":55.7239123,"longitude":47.580011,"population":46,"stateCapital":false,"nationalCapital":false,"pk":null,"quiz":"asia","code":null,"archived":false,"percentageOfSessions":null}, {"name":"Амачкино","state":"Chuvashia","territory":"","country":"Russia","latitude":56.1029881,"longitude":47.7644835,"population":23,"stateCapital":false,"nationalCapital":false,"pk":null,"quiz":"asia","code":null,"archived":false,"percentageOfSessions":null}, {"name":"Анастасово","state":"Chuvashia","territory":"","country":"Russia","latitude":55.1846165,"longitude":46.2471515,"population":543,"stateCapital":false,"nationalCapital":false,"pk":null,"quiz":"asia","code":null,"archived":false,"percentageOfSessions":null}, {"name":"Анаткас-Абызово","state":"Chuvashia","territory":"","country":"Russia","latitude":55.54266,"longitude":46.914791,"population":263,"stateCapital":false,"nationalCapital":false,"pk":null,"quiz":"asia","code":null,"archived":false,"percentageOfSessions":null}, {"name":"Анаткас-Марги","state":"Chuvashia","territory":"","country":"Russia","latitude":55.920169,"longitude":47.1162095,"population":349,"stateCapital":false,"nationalCapital":false,"pk":null,"quiz":"asia","code":null,"archived":false,"percentageOfSessions":null}, {"name":"Анаткас-Туруново","state":"Chuvashia","territory":"","country":"Russia","latitude":55.884818,"longitude":47.1249486,"population":114,"stateCapital":false,"nationalCapital":false,"pk":null,"quiz":"asia","code":null,"archived":false,"percentageOfSessions":null}, {"name":"Анаткасы","state":"Chuvashia","territory":"","country":"Russia","latitude":55.742117,"longitude":46.9756927,"population":106,"stateCapital":false,"nationalCapital":false,"pk":null,"quiz":"asia","code":null,"archived":false,"percentageOfSessions":null}, {"name":"Анаткасы","state":"Chuvashia","territory":"","country":"Russia","latitude":55.742117,"longitude":46.9756927,"population":236,"stateCapital":false,"nationalCapital":false,"pk":null,"quiz":"asia","code":null,"archived":false,"percentageOfSessions":null}, {"name":"Анаткасы","state":"Chuvashia","territory":"","country":"Russia","latitude":55.6064247,"longitude":47.2732878,"population":227,"stateCapital":false,"nationalCapital":false,"pk":null,"quiz":"asia","code":null,"archived":false,"percentageOfSessions":null}, {"name":"Анаткасы","state":"Chuvashia","territory":"","country":"Russia","latitude":55.8201725,"longitude":46.9531365,"population":142,"stateCapital":false,"nationalCapital":false,"pk":null,"quiz":"asia","code":null,"archived":false,"percentageOfSessions":null}, {"name":"Анаткасы","state":"Chuvashia","territory":"","country":"Russia","latitude":56.0140952,"longitude":47.6091114,"population":84,"stateCapital":false,"nationalCapital":false,"pk":null,"quiz":"asia","code":null,"archived":false,"percentageOfSessions":null}, {"name":"Анаткасы","state":"Chuvashia","territory":"","country":"Russia","latitude":55.9354383,"longitude":46.5612114,"population":73,"stateCapital":false,"nationalCapital":false,"pk":null,"quiz":"asia","code":null,"archived":false,"percentageOfSessions":null}, {"name":"Анаткасы","state":"Chuvashia","territory":"","country":"Russia","latitude":55.9354383,"longitude":46.5612114,"population":364,"stateCapital":false,"nationalCapital":false,"pk":null,"quiz":"asia","code":null,"archived":false,"percentageOfSessions":null}, {"name":"Анаткасы","state":"Chuvashia","territory":"","country":"Russia","latitude":55.7207205,"longitude":47.9285433,"population":309,"stateCapital":false,"nationalCapital":false,"pk":null,"quiz":"asia","code":null,"archived":false,"percentageOfSessions":null}, {"name":"Анаткасы","state":"Chuvashia","territory":"","country":"Russia","latitude":55.7553919,"longitude":47.4705768,"population":68,"stateCapital":false,"nationalCapital":false,"pk":null,"quiz":"asia","code":null,"archived":false,"percentageOfSessions":null}, {"name":"Анат-Киняры","state":"Chuvashia","territory":"","country":"Russia","latitude":56.0413194,"longitude":46.9431715,"population":222,"stateCapital":false,"nationalCapital":false,"pk":null,"quiz":"asia","code":null,"archived":false,"percentageOfSessions":null}, {"name":"Аначкасы","state":"Chuvashia","territory":"","country":"Russia","latitude":55.9736626,"longitude":46.9447297,"population":53,"stateCapital":false,"nationalCapital":false,"pk":null,"quiz":"asia","code":null,"archived":false,"percentageOfSessions":null}, {"name":"Андреевка","state":"Chuvashia","territory":"","country":"Russia","latitude":55.3200485,"longitude":47.1299229,"population":388,"stateCapital":false,"nationalCapital":false,"pk":null,"quiz":"asia","code":null,"archived":false,"percentageOfSessions":null}, {"name":"Андреевка","state":"Chuvashia","territory":"","country":"Russia","latitude":54.8736821,"longitude":47.4828691,"population":407,"stateCapital":false,"nationalCapital":false,"pk":null,"quiz":"asia","code":null,"archived":false,"percentageOfSessions":null}, {"name":"Андреево-Базары","state":"Chuvashia","territory":"","country":"Russia","latitude":55.7912446,"longitude":47.8126741,"population":422,"stateCapital":false,"nationalCapital":false,"pk":null,"quiz":"asia","code":null,"archived":false,"percentageOfSessions":null}, {"name":"Андрюшево","state":"Chuvashia","territory":"","country":"Russia","latitude":55.3130756,"longitude":47.2338953,"population":442,"stateCapital":false,"nationalCapital":false,"pk":null,"quiz":"asia","code":null,"archived":false,"percentageOfSessions":null}, {"name":"Аниш-Ахпердино","state":"Chuvashia","territory":"","country":"Russia","latitude":55.4523045,"longitude":47.6599581,"population":414,"stateCapital":false,"nationalCapital":false,"pk":null,"quiz":"asia","code":null,"archived":false,"percentageOfSessions":null}, {"name":"Анишкасы","state":"Chuvashia","territory":"","country":"Russia","latitude":55.8372892,"longitude":47.5982228,"population":118,"stateCapital":false,"nationalCapital":false,"pk":null,"quiz":"asia","code":null,"archived":false,"percentageOfSessions":null}, {"name":"Анишхири","state":"Chuvashia","territory":"","country":"Russia","latitude":55.816822,"longitude":47.666805,"population":65,"stateCapital":false,"nationalCapital":false,"pk":null,"quiz":"asia","code":null,"archived":false,"percentageOfSessions":null}, {"name":"Антипинка","state":"Chuvashia","territory":"","country":"Russia","latitude":55.1309064,"longitude":46.2447471,"population":360,"stateCapital":false,"nationalCapital":false,"pk":null,"quiz":"asia","code":null,"archived":false,"percentageOfSessions":null}, {"name":"Антоновка","state":"Chuvashia","territory":"","country":"Russia","latitude":55.7966793,"longitude":46.8864413,"population":10,"stateCapital":false,"nationalCapital":false,"pk":null,"quiz":"asia","code":null,"archived":false,"percentageOfSessions":null}, {"name":"Антраки","state":"Chuvashia","territory":"","country":"Russia","latitude":55.8943327,"longitude":47.5596715,"population":26,"stateCapital":false,"nationalCapital":false,"pk":null,"quiz":"asia","code":null,"archived":false,"percentageOfSessions":null}, {"name":"Анчиккасы","state":"Chuvashia","territory":"","country":"Russia","latitude":55.7065628,"longitude":47.3385978,"population":59,"stateCapital":false,"nationalCapital":false,"pk":null,"quiz":"asia","code":null,"archived":false,"percentageOfSessions":null}, {"name":"Анютино","state":"Chuvashia","territory":"","country":"Russia","latitude":54.8289999,"longitude":46.7020562,"population":98,"stateCapital":false,"nationalCapital":false,"pk":null,"quiz":"asia","code":null,"archived":false,"percentageOfSessions":null}, {"name":"Апанасово-Темяши","state":"Chuvashia","territory":"","country":"Russia","latitude":55.1186568,"longitude":48.0475253,"population":356,"stateCapital":false,"nationalCapital":false,"pk":null,"quiz":"asia","code":null,"archived":false,"percentageOfSessions":null}, {"name":"Апанасово-Эщебенево","state":"Chuvashia","territory":"","country":"Russia","latitude":55.1586609,"longitude":47.8701186,"population":79,"stateCapital":false,"nationalCapital":false,"pk":null,"quiz":"asia","code":null,"archived":false,"percentageOfSessions":null}, {"name":"Апнерка","state":"Chuvashia","territory":"","country":"Russia","latitude":55.4710089,"longitude":47.0976592,"population":2,"stateCapital":false,"nationalCapital":false,"pk":null,"quiz":"asia","code":null,"archived":false,"percentageOfSessions":null}, {"name":"Апнеры","state":"Chuvashia","territory":"","country":"Russia","latitude":55.507786,"longitude":46.933949,"population":551,"stateCapital":false,"nationalCapital":false,"pk":null,"quiz":"asia","code":null,"archived":false,"percentageOfSessions":null}, {"name":"Аптышкасы","state":"Chuvashia","territory":"","country":"Russia","latitude":55.8737532,"longitude":46.3066236,"population":29,"stateCapital":false,"nationalCapital":false,"pk":null,"quiz":"asia","code":null,"archived":false,"percentageOfSessions":null}, {"name":"Аптякпось","state":"Chuvashia","territory":"","country":"Russia","latitude":56.005955,"longitude":46.514194,"population":115,"stateCapital":false,"nationalCapital":false,"pk":null,"quiz":"asia","code":null,"archived":false,"percentageOfSessions":null}, {"name":"Апчары","state":"Chuvashia","territory":"","country":"Russia","latitude":56.1349902,"longitude":46.771886,"population":183,"stateCapital":false,"nationalCapital":false,"pk":null,"quiz":"asia","code":null,"archived":false,"percentageOfSessions":null}, {"name":"Арабоси","state":"Chuvashia","territory":"","country":"Russia","latitude":55.6454926,"longitude":47.904857,"population":1502,"stateCapital":false,"nationalCapital":false,"pk":null,"quiz":"asia","code":null,"archived":false,"percentageOfSessions":null}, {"name":"Арайкасы","state":"Chuvashia","territory":"","country":"Russia","latitude":55.706844,"longitude":46.501991,"population":84,"stateCapital":false,"nationalCapital":false,"pk":null,"quiz":"asia","code":null,"archived":false,"percentageOfSessions":null}, {"name":"Аранчеево","state":"Chuvashia","territory":"","country":"Russia","latitude":55.310079,"longitude":47.903785,"population":307,"stateCapital":false,"nationalCapital":false,"pk":null,"quiz":"asia","code":null,"archived":false,"percentageOfSessions":null}, {"name":"Арзаматово","state":"Chuvashia","territory":"","country":"Russia","latitude":56.033684,"longitude":47.709162,"population":180,"stateCapital":false,"nationalCapital":false,"pk":null,"quiz":"asia","code":null,"archived":false,"percentageOfSessions":null}, {"name":"Арзюнакасы","state":"Chuvashia","territory":"","country":"Russia","latitude":55.8702351,"longitude":47.0989987,"population":68,"stateCapital":false,"nationalCapital":false,"pk":null,"quiz":"asia","code":null,"archived":false,"percentageOfSessions":null}, {"name":"Аркасы","state":"Chuvashia","territory":"","country":"Russia","latitude":56.1038009,"longitude":47.4328937,"population":125,"stateCapital":false,"nationalCapital":false,"pk":null,"quiz":"asia","code":null,"archived":false,"percentageOfSessions":null}, {"name":"Арманкасы","state":"Chuvashia","territory":"","country":"Russia","latitude":56.0722312,"longitude":47.3509737,"population":78,"stateCapital":false,"nationalCapital":false,"pk":null,"quiz":"asia","code":null,"archived":false,"percentageOfSessions":null}, {"name":"Артеменькино","state":"Chuvashia","territory":"","country":"Russia","latitude":55.5446745,"longitude":47.0043933,"population":50,"stateCapital":false,"nationalCapital":false,"pk":null,"quiz":"asia","code":null,"archived":false,"percentageOfSessions":null}, {"name":"Асакасы","state":"Chuvashia","territory":"","country":"Russia","latitude":55.7043399,"longitude":46.8888527,"population":112,"stateCapital":false,"nationalCapital":false,"pk":null,"quiz":"asia","code":null,"archived":false,"percentageOfSessions":null}, {"name":"Асакасы","state":"Chuvashia","territory":"","country":"Russia","latitude":56.0567196,"longitude":47.2155658,"population":181,"stateCapital":false,"nationalCapital":false,"pk":null,"quiz":"asia","code":null,"archived":false,"percentageOfSessions":null}, {"name":"Асаново","state":"Chuvashia","territory":"","country":"Russia","latitude":55.3141804,"longitude":47.3999071,"population":1065,"stateCapital":false,"nationalCapital":false,"pk":null,"quiz":"asia","code":null,"archived":false,"percentageOfSessions":null}, {"name":"Асаново","state":"Chuvashia","territory":"","country":"Russia","latitude":54.7632378,"longitude":47.3522946,"population":614,"stateCapital":false,"nationalCapital":false,"pk":null,"quiz":"asia","code":null,"archived":false,"percentageOfSessions":null}, {"name":"Аслыялы","state":"Chuvashia","territory":"","country":"Russia","latitude":55.6928428,"longitude":47.3514727,"population":83,"stateCapital":false,"nationalCapital":false,"pk":null,"quiz":"asia","code":null,"archived":false,"percentageOfSessions":null}, {"name":"Астакасы","state":"Chuvashia","territory":"","country":"Russia","latitude":56.043102,"longitude":47.8112177,"population":269,"stateCapital":false,"nationalCapital":false,"pk":null,"quiz":"asia","code":null,"archived":false,"percentageOfSessions":null}, {"name":"Асхва","state":"Chuvashia","territory":"","country":"Russia","latitude":55.5239696,"longitude":47.4404045,"population":1046,"stateCapital":false,"nationalCapital":false,"pk":null,"quiz":"asia","code":null,"archived":false,"percentageOfSessions":null}, {"name":"Атлашево","state":"Chuvashia","territory":"","country":"Russia","latitude":56.0077999,"longitude":47.55955,"population":410,"stateCapital":false,"nationalCapital":false,"pk":null,"quiz":"asia","code":null,"archived":false,"percentageOfSessions":null}, {"name":"Атликасы","state":"Chuvashia","territory":"","country":"Russia","latitude":55.8666377,"longitude":46.2913046,"population":239,"stateCapital":false,"nationalCapital":false,"pk":null,"quiz":"asia","code":null,"archived":false,"percentageOfSessions":null}, {"name":"Атмень","state":"Chuvashia","territory":"","country":"Russia","latitude":55.8044004,"longitude":46.5559322,"population":26,"stateCapital":false,"nationalCapital":false,"pk":null,"quiz":"asia","code":null,"archived":false,"percentageOfSessions":null}, {"name":"Атнары","state":"Chuvashia","territory":"","country":"Russia","latitude":55.6561,"longitude":46.2135,"population":675,"stateCapital":false,"nationalCapital":false,"pk":null,"quiz":"asia","code":null,"archived":false,"percentageOfSessions":null}, {"name":"Атнашево","state":"Chuvashia","territory":"","country":"Russia","latitude":55.582612,"longitude":47.4473525,"population":997,"stateCapital":false,"nationalCapital":false,"pk":null,"quiz":"asia","code":null,"archived":false,"percentageOfSessions":null}, {"name":"Атнаши","state":"Chuvashia","territory":"","country":"Russia","latitude":55.6687228,"longitude":47.7879879,"population":48,"stateCapital":false,"nationalCapital":false,"pk":null,"quiz":"asia","code":null,"archived":false,"percentageOfSessions":null}, {"name":"Атрать","state":"Chuvashia","territory":"","country":"Russia","latitude":55.0078,"longitude":46.6771,"population":561,"stateCapital":false,"nationalCapital":false,"pk":null,"quiz":"asia","code":null,"archived":false,"percentageOfSessions":null}, {"name":"Атрать","state":"Chuvashia","territory":"","country":"Russia","latitude":55.0078,"longitude":46.6771,"population":917,"stateCapital":false,"nationalCapital":false,"pk":null,"quiz":"asia","code":null,"archived":false,"percentageOfSessions":null}, {"name":"Аттиково","state":"Chuvashia","territory":"","country":"Russia","latitude":55.7754328,"longitude":48.1259982,"population":190,"stateCapital":false,"nationalCapital":false,"pk":null,"quiz":"asia","code":null,"archived":false,"percentageOfSessions":null}, {"name":"Атыково","state":"Chuvashia","territory":"","country":"Russia","latitude":55.6301378,"longitude":47.2875522,"population":188,"stateCapital":false,"nationalCapital":false,"pk":null,"quiz":"asia","code":null,"archived":false,"percentageOfSessions":null}, {"name":"Ахманеи","state":"Chuvashia","territory":"","country":"Russia","latitude":56.0517517,"longitude":46.7963901,"population":130,"stateCapital":false,"nationalCapital":false,"pk":null,"quiz":"asia","code":null,"archived":false,"percentageOfSessions":null}, {"name":"Ахмасиха","state":"Chuvashia","territory":"","country":"Russia","latitude":55.4183473,"longitude":46.5392972,"population":7,"stateCapital":false,"nationalCapital":false,"pk":null,"quiz":"asia","code":null,"archived":false,"percentageOfSessions":null}, {"name":"Ахматово","state":"Chuvashia","territory":"","country":"Russia","latitude":54.8518835,"longitude":46.4207768,"population":772,"stateCapital":false,"nationalCapital":false,"pk":null,"quiz":"asia","code":null,"archived":false,"percentageOfSessions":null}, {"name":"Ахметово","state":"Chuvashia","territory":"","country":"Russia","latitude":55.3049629,"longitude":47.6242502,"population":6,"stateCapital":false,"nationalCapital":false,"pk":null,"quiz":"asia","code":null,"archived":false,"percentageOfSessions":null}, {"name":"Ачакасы","state":"Chuvashia","territory":"","country":"Russia","latitude":55.496331,"longitude":47.1668376,"population":343,"stateCapital":false,"nationalCapital":false,"pk":null,"quiz":"asia","code":null,"archived":false,"percentageOfSessions":null}, {"name":"Ачакс","state":"Chuvashia","territory":"","country":"Russia","latitude":55.4987006,"longitude":47.2291959,"population":13,"stateCapital":false,"nationalCapital":false,"pk":null,"quiz":"asia","code":null,"archived":false,"percentageOfSessions":null}, {"name":"Багиши","state":"Chuvashia","territory":"","country":"Russia","latitude":55.8092959,"longitude":46.5123851,"population":57,"stateCapital":false,"nationalCapital":false,"pk":null,"quiz":"asia","code":null,"archived":false,"percentageOfSessions":null}, {"name":"Баевка","state":"Chuvashia","territory":"","country":"Russia","latitude":54.8275646,"longitude":46.7592518,"population":9,"stateCapital":false,"nationalCapital":false,"pk":null,"quiz":"asia","code":null,"archived":false,"percentageOfSessions":null}, {"name":"Байбахтино","state":"Chuvashia","territory":"","country":"Russia","latitude":55.2146338,"longitude":47.5402743,"population":127,"stateCapital":false,"nationalCapital":false,"pk":null,"quiz":"asia","code":null,"archived":false,"percentageOfSessions":null}, {"name":"Байгеево","state":"Chuvashia","territory":"","country":"Russia","latitude":55.9200069,"longitude":47.5351918,"population":238,"stateCapital":false,"nationalCapital":false,"pk":null,"quiz":"asia","code":null,"archived":false,"percentageOfSessions":null}, {"name":"Байгильдино","state":"Chuvashia","territory":"","country":"Russia","latitude":55.5300859,"longitude":47.3460723,"population":395,"stateCapital":false,"nationalCapital":false,"pk":null,"quiz":"asia","code":null,"archived":false,"percentageOfSessions":null}, {"name":"Байглычево","state":"Chuvashia","territory":"","country":"Russia","latitude":55.1005671,"longitude":47.9738136,"population":264,"stateCapital":false,"nationalCapital":false,"pk":null,"quiz":"asia","code":null,"archived":false,"percentageOfSessions":null}, {"name":"Байгулово","state":"Chuvashia","territory":"","country":"Russia","latitude":55.8380089,"longitude":47.9598298,"population":778,"stateCapital":false,"nationalCapital":false,"pk":null,"quiz":"asia","code":null,"archived":false,"percentageOfSessions":null}, {"name":"Байдеряково","state":"Chuvashia","territory":"","country":"Russia","latitude":54.9413008,"longitude":47.7202941,"population":511,"stateCapital":false,"nationalCapital":false,"pk":null,"quiz":"asia","code":null,"archived":false,"percentageOfSessions":null}, {"name":"Байдеряково","state":"Chuvashia","territory":"","country":"Russia","latitude":55.1453183,"longitude":48.0430912,"population":798,"stateCapital":false,"nationalCapital":false,"pk":null,"quiz":"asia","code":null,"archived":false,"percentageOfSessions":null}, {"name":"Байдуши","state":"Chuvashia","territory":"","country":"Russia","latitude":55.9210219,"longitude":47.3128182,"population":215,"stateCapital":false,"nationalCapital":false,"pk":null,"quiz":"asia","code":null,"archived":false,"percentageOfSessions":null}, {"name":"Баймашкино","state":"Chuvashia","territory":"","country":"Russia","latitude":55.721481,"longitude":46.161636,"population":383,"stateCapital":false,"nationalCapital":false,"pk":null,"quiz":"asia","code":null,"archived":false,"percentageOfSessions":null}, {"name":"Байметево","state":"Chuvashia","territory":"","country":"Russia","latitude":55.775819,"longitude":48.0956142,"population":31,"stateCapital":false,"nationalCapital":false,"pk":null,"quiz":"asia","code":null,"archived":false,"percentageOfSessions":null}, {"name":"Байсубаково","state":"Chuvashia","territory":"","country":"Russia","latitude":55.9635873,"longitude":47.3857934,"population":266,"stateCapital":false,"nationalCapital":false,"pk":null,"quiz":"asia","code":null,"archived":false,"percentageOfSessions":null}, {"name":"Байсубино","state":"Chuvashia","territory":"","country":"Russia","latitude":55.6801479,"longitude":47.1599185,"population":211,"stateCapital":false,"nationalCapital":false,"pk":null,"quiz":"asia","code":null,"archived":false,"percentageOfSessions":null}, {"name":"Бакашево","state":"Chuvashia","territory":"","country":"Russia","latitude":55.0292592,"longitude":47.2353788,"population":416,"stateCapital":false,"nationalCapital":false,"pk":null,"quiz":"asia","code":null,"archived":false,"percentageOfSessions":null}, {"name":"Балабаш-Баишево","state":"Chuvashia","territory":"","country":"Russia","latitude":55.069228,"longitude":47.2652472,"population":777,"stateCapital":false,"nationalCapital":false,"pk":null,"quiz":"asia","code":null,"archived":false,"percentageOfSessions":null}, {"name":"Балабаш-Нурусово","state":"Chuvashia","territory":"","country":"Russia","latitude":55.105528,"longitude":47.2373019,"population":277,"stateCapital":false,"nationalCapital":false,"pk":null,"quiz":"asia","code":null,"archived":false,"percentageOfSessions":null}, {"name":"Баланово","state":"Chuvashia","territory":"","country":"Russia","latitude":55.8245597,"longitude":48.0075077,"population":71,"stateCapital":false,"nationalCapital":false,"pk":null,"quiz":"asia","code":null,"archived":false,"percentageOfSessions":null}, {"name":"Балдаево","state":"Chuvashia","territory":"","country":"Russia","latitude":55.8804839,"longitude":46.2935496,"population":216,"stateCapital":false,"nationalCapital":false,"pk":null,"quiz":"asia","code":null,"archived":false,"percentageOfSessions":null}, {"name":"Бархаткино","state":"Chuvashia","territory":"","country":"Russia","latitude":55.7850302,"longitude":46.4164375,"population":179,"stateCapital":false,"nationalCapital":false,"pk":null,"quiz":"asia","code":null,"archived":false,"percentageOfSessions":null}, {"name":"Баскаки","state":"Chuvashia","territory":"","country":"Russia","latitude":54.852936,"longitude":47.284311,"population":39,"stateCapital":false,"nationalCapital":false,"pk":null,"quiz":"asia","code":null,"archived":false,"percentageOfSessions":null}, {"name":"Басурманы","state":"Chuvashia","territory":"","country":"Russia","latitude":56.0020989,"longitude":46.7857506,"population":96,"stateCapital":false,"nationalCapital":false,"pk":null,"quiz":"asia","code":null,"archived":false,"percentageOfSessions":null}, {"name":"Батеево","state":"Chuvashia","territory":"","country":"Russia","latitude":55.6708318,"longitude":47.8183025,"population":190,"stateCapital":false,"nationalCapital":false,"pk":null,"quiz":"asia","code":null,"archived":false,"percentageOfSessions":null}, {"name":"Батеево","state":"Chuvashia","territory":"","country":"Russia","latitude":55.6708318,"longitude":47.8183025,"population":2,"stateCapital":false,"nationalCapital":false,"pk":null,"quiz":"asia","code":null,"archived":false,"percentageOfSessions":null}, {"name":"Батырево","state":"Chuvashia","territory":"","country":"Russia","latitude":55.0681559,"longitude":47.6042007,"population":5431,"stateCapital":false,"nationalCapital":false,"pk":null,"quiz":"asia","code":null,"archived":false,"percentageOfSessions":null}, {"name":"Бахмутово","state":"Chuvashia","territory":"","country":"Russia","latitude":55.1972654,"longitude":46.2533764,"population":271,"stateCapital":false,"nationalCapital":false,"pk":null,"quiz":"asia","code":null,"archived":false,"percentageOfSessions":null}, {"name":"Бахтиарово","state":"Chuvashia","territory":"","country":"Russia","latitude":55.4573624,"longitude":47.7282525,"population":285,"stateCapital":false,"nationalCapital":false,"pk":null,"quiz":"asia","code":null,"archived":false,"percentageOfSessions":null}, {"name":"Бахтигильдино","state":"Chuvashia","territory":"","country":"Russia","latitude":55.0906345,"longitude":47.1891753,"population":482,"stateCapital":false,"nationalCapital":false,"pk":null,"quiz":"asia","code":null,"archived":false,"percentageOfSessions":null}, {"name":"Безбожник","state":"Chuvashia","territory":"","country":"Russia","latitude":54.74826,"longitude":46.731556,"population":0,"stateCapital":false,"nationalCapital":false,"pk":null,"quiz":"asia","code":null,"archived":false,"percentageOfSessions":null}, {"name":"Белая Воложка","state":"Chuvashia","territory":"","country":"Russia","latitude":55.2857675,"longitude":47.8900216,"population":217,"stateCapital":false,"nationalCapital":false,"pk":null,"quiz":"asia","code":null,"archived":false,"percentageOfSessions":null}, {"name":"Белое Озеро","state":"Chuvashia","territory":"","country":"Russia","latitude":55.1740341,"longitude":47.735416,"population":198,"stateCapital":false,"nationalCapital":false,"pk":null,"quiz":"asia","code":null,"archived":false,"percentageOfSessions":null}, {"name":"Беляево","state":"Chuvashia","territory":"","country":"Russia","latitude":55.5879182,"longitude":47.7266723,"population":399,"stateCapital":false,"nationalCapital":false,"pk":null,"quiz":"asia","code":null,"archived":false,"percentageOfSessions":null}, {"name":"Березовая Поляна","state":"Chuvashia","territory":"","country":"Russia","latitude":55.0688687,"longitude":46.4875513,"population":0,"stateCapital":false,"nationalCapital":false,"pk":null,"quiz":"asia","code":null,"archived":false,"percentageOfSessions":null}, {"name":"Березовка","state":"Chuvashia","territory":"","country":"Russia","latitude":55.2126359,"longitude":46.8076115,"population":201,"stateCapital":false,"nationalCapital":false,"pk":null,"quiz":"asia","code":null,"archived":false,"percentageOfSessions":null}, {"name":"Березовка","state":"Chuvashia","territory":"","country":"Russia","latitude":55.6157833,"longitude":47.6785601,"population":45,"stateCapital":false,"nationalCapital":false,"pk":null,"quiz":"asia","code":null,"archived":false,"percentageOfSessions":null}, {"name":"Березовка","state":"Chuvashia","territory":"","country":"Russia","latitude":55.597729,"longitude":46.199867,"population":132,"stateCapital":false,"nationalCapital":false,"pk":null,"quiz":"asia","code":null,"archived":false,"percentageOfSessions":null}, {"name":"Березовый Майдан","state":"Chuvashia","territory":"","country":"Russia","latitude":54.9631535,"longitude":46.3678251,"population":147,"stateCapital":false,"nationalCapital":false,"pk":null,"quiz":"asia","code":null,"archived":false,"percentageOfSessions":null}, {"name":"Бигильдино","state":"Chuvashia","territory":"","country":"Russia","latitude":55.8417055,"longitude":48.0875461,"population":46,"stateCapital":false,"nationalCapital":false,"pk":null,"quiz":"asia","code":null,"archived":false,"percentageOfSessions":null}, {"name":"Бичурга-Баишево","state":"Chuvashia","territory":"","country":"Russia","latitude":54.7619003,"longitude":47.3070718,"population":908,"stateCapital":false,"nationalCapital":false,"pk":null,"quiz":"asia","code":null,"archived":false,"percentageOfSessions":null}, {"name":"Бичурино","state":"Chuvashia","territory":"","country":"Russia","latitude":55.8672764,"longitude":47.7889743,"population":471,"stateCapital":false,"nationalCapital":false,"pk":null,"quiz":"asia","code":null,"archived":false,"percentageOfSessions":null}, {"name":"Бишево","state":"Chuvashia","territory":"","country":"Russia","latitude":55.7805072,"longitude":48.0173432,"population":139,"stateCapital":false,"nationalCapital":false,"pk":null,"quiz":"asia","code":null,"archived":false,"percentageOfSessions":null}, {"name":"Бишево","state":"Chuvashia","territory":"","country":"Russia","latitude":55.7675779,"longitude":47.7914835,"population":348,"stateCapital":false,"nationalCapital":false,"pk":null,"quiz":"asia","code":null,"archived":false,"percentageOfSessions":null}, {"name":"Ближние Сормы","state":"Chuvashia","territory":"","country":"Russia","latitude":55.638653,"longitude":47.3841811,"population":268,"stateCapital":false,"nationalCapital":false,"pk":null,"quiz":"asia","code":null,"archived":false,"percentageOfSessions":null}, {"name":"Бобылькасы","state":"Chuvashia","territory":"","country":"Russia","latitude":55.800098,"longitude":46.381073,"population":203,"stateCapital":false,"nationalCapital":false,"pk":null,"quiz":"asia","code":null,"archived":false,"percentageOfSessions":null}, {"name":"Богатырево","state":"Chuvashia","territory":"","country":"Russia","latitude":55.8504471,"longitude":47.2871982,"population":405,"stateCapital":false,"nationalCapital":false,"pk":null,"quiz":"asia","code":null,"archived":false,"percentageOfSessions":null}, {"name":"Богурданы","state":"Chuvashia","territory":"","country":"Russia","latitude":55.4390811,"longitude":47.2197828,"population":250,"stateCapital":false,"nationalCapital":false,"pk":null,"quiz":"asia","code":null,"archived":false,"percentageOfSessions":null}, {"name":"Большая Выла","state":"Chuvashia","territory":"","country":"Russia","latitude":55.7273647,"longitude":46.5472429,"population":511,"stateCapital":false,"nationalCapital":false,"pk":null,"quiz":"asia","code":null,"archived":false,"percentageOfSessions":null}, {"name":"Большая Ерыкла","state":"Chuvashia","territory":"","country":"Russia","latitude":55.2127509,"longitude":47.8122146,"population":61,"stateCapital":false,"nationalCapital":false,"pk":null,"quiz":"asia","code":null,"archived":false,"percentageOfSessions":null}, {"name":"Большая Таяба","state":"Chuvashia","territory":"","country":"Russia","latitude":55.2421862,"longitude":47.9261069,"population":686,"stateCapital":false,"nationalCapital":false,"pk":null,"quiz":"asia","code":null,"archived":false,"percentageOfSessions":null}, {"name":"Большая Шатьма","state":"Chuvashia","territory":"","country":"Russia","latitude":55.8196734,"longitude":47.0096797,"population":129,"stateCapital":false,"nationalCapital":false,"pk":null,"quiz":"asia","code":null,"archived":false,"percentageOfSessions":null}, {"name":"Большие Абакасы","state":"Chuvashia","territory":"","country":"Russia","latitude":55.3848294,"longitude":47.032543,"population":844,"stateCapital":false,"nationalCapital":false,"pk":null,"quiz":"asia","code":null,"archived":false,"percentageOfSessions":null}, {"name":"Большие Алгаши","state":"Chuvashia","territory":"","country":"Russia","latitude":55.3679598,"longitude":46.4490539,"population":458,"stateCapital":false,"nationalCapital":false,"pk":null,"quiz":"asia","code":null,"archived":false,"percentageOfSessions":null}, {"name":"Большие Атмени","state":"Chuvashia","territory":"","country":"Russia","latitude":55.7892256,"longitude":46.5177386,"population":126,"stateCapital":false,"nationalCapital":false,"pk":null,"quiz":"asia","code":null,"archived":false,"percentageOfSessions":null}, {"name":"Большие Атмени","state":"Chuvashia","territory":"","country":"Russia","latitude":55.7445452,"longitude":46.1744836,"population":242,"stateCapital":false,"nationalCapital":false,"pk":null,"quiz":"asia","code":null,"archived":false,"percentageOfSessions":null}, {"name":"Большие Багиши","state":"Chuvashia","territory":"","country":"Russia","latitude":55.8189072,"longitude":46.513097,"population":123,"stateCapital":false,"nationalCapital":false,"pk":null,"quiz":"asia","code":null,"archived":false,"percentageOfSessions":null}, {"name":"Большие Бикшихи","state":"Chuvashia","territory":"","country":"Russia","latitude":55.5329033,"longitude":47.4523306,"population":1164,"stateCapital":false,"nationalCapital":false,"pk":null,"quiz":"asia","code":null,"archived":false,"percentageOfSessions":null}, {"name":"Большие Карачуры","state":"Chuvashia","territory":"","country":"Russia","latitude":56.0761067,"longitude":47.1642376,"population":1120,"stateCapital":false,"nationalCapital":false,"pk":null,"quiz":"asia","code":null,"archived":false,"percentageOfSessions":null}, {"name":"Большие Катраси","state":"Chuvashia","territory":"","country":"Russia","latitude":56.0666103,"longitude":47.1228978,"population":1151,"stateCapital":false,"nationalCapital":false,"pk":null,"quiz":"asia","code":null,"archived":false,"percentageOfSessions":null}, {"name":"Большие Котяки","state":"Chuvashia","territory":"","country":"Russia","latitude":55.9724043,"longitude":47.0378272,"population":341,"stateCapital":false,"nationalCapital":false,"pk":null,"quiz":"asia","code":null,"archived":false,"percentageOfSessions":null}, {"name":"Большие Крышки","state":"Chuvashia","territory":"","country":"Russia","latitude":55.8427543,"longitude":47.789712,"population":10,"stateCapital":false,"nationalCapital":false,"pk":null,"quiz":"asia","code":null,"archived":false,"percentageOfSessions":null}, {"name":"Большие Мамыши","state":"Chuvashia","territory":"","country":"Russia","latitude":55.9622763,"longitude":46.9598268,"population":219,"stateCapital":false,"nationalCapital":false,"pk":null,"quiz":"asia","code":null,"archived":false,"percentageOfSessions":null}, {"name":"Большие Татаркасы","state":"Chuvashia","territory":"","country":"Russia","latitude":56.087334,"longitude":46.755302,"population":220,"stateCapital":false,"nationalCapital":false,"pk":null,"quiz":"asia","code":null,"archived":false,"percentageOfSessions":null}, {"name":"Большие Тиуши","state":"Chuvashia","territory":"","country":"Russia","latitude":55.8163696,"longitude":47.3148434,"population":100,"stateCapital":false,"nationalCapital":false,"pk":null,"quiz":"asia","code":null,"archived":false,"percentageOfSessions":null}, {"name":"Большие Токташи","state":"Chuvashia","territory":"","country":"Russia","latitude":55.670849,"longitude":46.615734,"population":176,"stateCapital":false,"nationalCapital":false,"pk":null,"quiz":"asia","code":null,"archived":false,"percentageOfSessions":null}, {"name":"Большие Токшики","state":"Chuvashia","territory":"","country":"Russia","latitude":55.9253042,"longitude":46.6509603,"population":337,"stateCapital":false,"nationalCapital":false,"pk":null,"quiz":"asia","code":null,"archived":false,"percentageOfSessions":null}, {"name":"Большие Торханы","state":"Chuvashia","territory":"","country":"Russia","latitude":55.557957,"longitude":46.993118,"population":200,"stateCapital":false,"nationalCapital":false,"pk":null,"quiz":"asia","code":null,"archived":false,"percentageOfSessions":null}, {"name":"Большие Хирлепы","state":"Chuvashia","territory":"","country":"Russia","latitude":55.6512581,"longitude":46.8138463,"population":185,"stateCapital":false,"nationalCapital":false,"pk":null,"quiz":"asia","code":null,"archived":false,"percentageOfSessions":null}, {"name":"Большие Чаки","state":"Chuvashia","territory":"","country":"Russia","latitude":55.6987644,"longitude":47.8135755,"population":351,"stateCapital":false,"nationalCapital":false,"pk":null,"quiz":"asia","code":null,"archived":false,"percentageOfSessions":null}, {"name":"Большие Шемердяны","state":"Chuvashia","territory":"","country":"Russia","latitude":55.8414115,"longitude":46.3357624,"population":334,"stateCapital":false,"nationalCapital":false,"pk":null,"quiz":"asia","code":null,"archived":false,"percentageOfSessions":null}, {"name":"Большие Шиуши","state":"Chuvashia","territory":"","country":"Russia","latitude":55.8394324,"longitude":46.8431249,"population":318,"stateCapital":false,"nationalCapital":false,"pk":null,"quiz":"asia","code":null,"archived":false,"percentageOfSessions":null}, {"name":"Большие Яльчики","state":"Chuvashia","territory":"","country":"Russia","latitude":55.1718702,"longitude":48.0557902,"population":1800,"stateCapital":false,"nationalCapital":false,"pk":null,"quiz":"asia","code":null,"archived":false,"percentageOfSessions":null}, {"name":"Большие Яуши","state":"Chuvashia","territory":"","country":"Russia","latitude":55.639453,"longitude":47.0649467,"population":557,"stateCapital":false,"nationalCapital":false,"pk":null,"quiz":"asia","code":null,"archived":false,"percentageOfSessions":null}, {"name":"Большое Аккозино","state":"Chuvashia","territory":"","country":"Russia","latitude":55.8979815,"longitude":47.8525704,"population":228,"stateCapital":false,"nationalCapital":false,"pk":null,"quiz":"asia","code":null,"archived":false,"percentageOfSessions":null}, {"name":"Большое Буяново","state":"Chuvashia","territory":"","country":"Russia","latitude":54.8969085,"longitude":47.6088749,"population":452,"stateCapital":false,"nationalCapital":false,"pk":null,"quiz":"asia","code":null,"archived":false,"percentageOfSessions":null}, {"name":"Большое Камаево","state":"Chuvashia","territory":"","country":"Russia","latitude":55.9879017,"longitude":47.6255569,"population":259,"stateCapital":false,"nationalCapital":false,"pk":null,"quiz":"asia","code":null,"archived":false,"percentageOfSessions":null}, {"name":"Большое Карачкино","state":"Chuvashia","territory":"","country":"Russia","latitude":56.118175,"longitude":46.6131535,"population":134,"stateCapital":false,"nationalCapital":false,"pk":null,"quiz":"asia","code":null,"archived":false,"percentageOfSessions":null}, {"name":"Большое Князь-Теняково","state":"Chuvashia","territory":"","country":"Russia","latitude":56.0560332,"longitude":47.4047354,"population":159,"stateCapital":false,"nationalCapital":false,"pk":null,"quiz":"asia","code":null,"archived":false,"percentageOfSessions":null}, {"name":"Большое Маклашкино","state":"Chuvashia","territory":"","country":"Russia","latitude":56.0887775,"longitude":47.667196,"population":175,"stateCapital":false,"nationalCapital":false,"pk":null,"quiz":"asia","code":null,"archived":false,"percentageOfSessions":null}, {"name":"Большое Тугаево","state":"Chuvashia","territory":"","country":"Russia","latitude":55.7653013,"longitude":47.5449997,"population":155,"stateCapital":false,"nationalCapital":false,"pk":null,"quiz":"asia","code":null,"archived":false,"percentageOfSessions":null}, {"name":"Большое Чеменево","state":"Chuvashia","territory":"","country":"Russia","latitude":55.025828,"longitude":47.2442871,"population":684,"stateCapital":false,"nationalCapital":false,"pk":null,"quiz":"asia","code":null,"archived":false,"percentageOfSessions":null}, {"name":"Большое Чурашево","state":"Chuvashia","territory":"","country":"Russia","latitude":55.9212022,"longitude":46.4808374,"population":426,"stateCapital":false,"nationalCapital":false,"pk":null,"quiz":"asia","code":null,"archived":false,"percentageOfSessions":null}, {"name":"Большое Шигаево","state":"Chuvashia","territory":"","country":"Russia","latitude":55.9966908,"longitude":47.7009113,"population":517,"stateCapital":false,"nationalCapital":false,"pk":null,"quiz":"asia","code":null,"archived":false,"percentageOfSessions":null}, {"name":"Большое Ямашево","state":"Chuvashia","territory":"","country":"Russia","latitude":55.7622543,"longitude":46.4575304,"population":258,"stateCapital":false,"nationalCapital":false,"pk":null,"quiz":"asia","code":null,"archived":false,"percentageOfSessions":null}, {"name":"Большое Янгильдино","state":"Chuvashia","territory":"","country":"Russia","latitude":55.993117,"longitude":47.2872376,"population":165,"stateCapital":false,"nationalCapital":false,"pk":null,"quiz":"asia","code":null,"archived":false,"percentageOfSessions":null}, {"name":"Большое Яндуганово","state":"Chuvashia","territory":"","country":"Russia","latitude":55.9990889,"longitude":47.7732215,"population":143,"stateCapital":false,"nationalCapital":false,"pk":null,"quiz":"asia","code":null,"archived":false,"percentageOfSessions":null}, {"name":"Большое Яниково","state":"Chuvashia","territory":"","country":"Russia","latitude":55.7326069,"longitude":47.7932009,"population":442,"stateCapital":false,"nationalCapital":false,"pk":null,"quiz":"asia","code":null,"archived":false,"percentageOfSessions":null}, {"name":"Большой Сундырь","state":"Chuvashia","territory":"","country":"Russia","latitude":56.1091376,"longitude":46.7482909,"population":1488,"stateCapital":false,"nationalCapital":false,"pk":null,"quiz":"asia","code":null,"archived":false,"percentageOfSessions":null}, {"name":"Большой Сундырь","state":"Chuvashia","territory":"","country":"Russia","latitude":55.8322561,"longitude":46.2548531,"population":319,"stateCapital":false,"nationalCapital":false,"pk":null,"quiz":"asia","code":null,"archived":false,"percentageOfSessions":null}, {"name":"Большой Чигирь","state":"Chuvashia","territory":"","country":"Russia","latitude":56.039172,"longitude":47.4480259,"population":204,"stateCapital":false,"nationalCapital":false,"pk":null,"quiz":"asia","code":null,"archived":false,"percentageOfSessions":null}, {"name":"Большой Югуть","state":"Chuvashia","territory":"","country":"Russia","latitude":55.8831799,"longitude":46.2504626,"population":179,"stateCapital":false,"nationalCapital":false,"pk":null,"quiz":"asia","code":null,"archived":false,"percentageOfSessions":null}, {"name":"Борзайкасы","state":"Chuvashia","territory":"","country":"Russia","latitude":55.7024222,"longitude":47.3944333,"population":47,"stateCapital":false,"nationalCapital":false,"pk":null,"quiz":"asia","code":null,"archived":false,"percentageOfSessions":null}, {"name":"Борки","state":"Chuvashia","territory":"","country":"Russia","latitude":54.8358799,"longitude":46.6557316,"population":87,"stateCapital":false,"nationalCapital":false,"pk":null,"quiz":"asia","code":null,"archived":false,"percentageOfSessions":null}, {"name":"Братьякасы","state":"Chuvashia","territory":"","country":"Russia","latitude":55.6227005,"longitude":47.2003868,"population":208,"stateCapital":false,"nationalCapital":false,"pk":null,"quiz":"asia","code":null,"archived":false,"percentageOfSessions":null}, {"name":"Бреняши","state":"Chuvashia","territory":"","country":"Russia","latitude":55.562739,"longitude":46.6672443,"population":211,"stateCapital":false,"nationalCapital":false,"pk":null,"quiz":"asia","code":null,"archived":false,"percentageOfSessions":null}, {"name":"Бугуян","state":"Chuvashia","territory":"","country":"Russia","latitude":55.3227282,"longitude":46.7964375,"population":373,"stateCapital":false,"nationalCapital":false,"pk":null,"quiz":"asia","code":null,"archived":false,"percentageOfSessions":null}, {"name":"Буинск","state":"Chuvashia","territory":"","country":"Russia","latitude":55.1951864,"longitude":47.060667,"population":1220,"stateCapital":false,"nationalCapital":false,"pk":null,"quiz":"asia","code":null,"archived":false,"percentageOfSessions":null}, {"name":"Буинск","state":"Chuvashia","territory":"","country":"Russia","latitude":55.7030331,"longitude":48.0860284,"population":96,"stateCapital":false,"nationalCapital":false,"pk":null,"quiz":"asia","code":null,"archived":false,"percentageOfSessions":null}, {"name":"Булаково","state":"Chuvashia","territory":"","country":"Russia","latitude":55.0753733,"longitude":47.6957372,"population":199,"stateCapital":false,"nationalCapital":false,"pk":null,"quiz":"asia","code":null,"archived":false,"percentageOfSessions":null}, {"name":"Булатово","state":"Chuvashia","territory":"","country":"Russia","latitude":55.4618407,"longitude":47.0572422,"population":183,"stateCapital":false,"nationalCapital":false,"pk":null,"quiz":"asia","code":null,"archived":false,"percentageOfSessions":null}, {"name":"Булдеево","state":"Chuvashia","territory":"","country":"Russia","latitude":55.906528,"longitude":47.6098531,"population":175,"stateCapital":false,"nationalCapital":false,"pk":null,"quiz":"asia","code":null,"archived":false,"percentageOfSessions":null}, {"name":"Буртасы","state":"Chuvashia","territory":"","country":"Russia","latitude":55.497452,"longitude":46.856838,"population":1101,"stateCapital":false,"nationalCapital":false,"pk":null,"quiz":"asia","code":null,"archived":false,"percentageOfSessions":null}, {"name":"Буртасы","state":"Chuvashia","territory":"","country":"Russia","latitude":55.7519875,"longitude":47.7386193,"population":19,"stateCapital":false,"nationalCapital":false,"pk":null,"quiz":"asia","code":null,"archived":false,"percentageOfSessions":null}, {"name":"Бурундуки","state":"Chuvashia","territory":"","country":"Russia","latitude":55.8101275,"longitude":46.9819686,"population":209,"stateCapital":false,"nationalCapital":false,"pk":null,"quiz":"asia","code":null,"archived":false,"percentageOfSessions":null}, {"name":"Важуково","state":"Chuvashia","territory":"","country":"Russia","latitude":56.0610791,"longitude":47.0882531,"population":95,"stateCapital":false,"nationalCapital":false,"pk":null,"quiz":"asia","code":null,"archived":false,"percentageOfSessions":null}, {"name":"Ванькино","state":"Chuvashia","territory":"","country":"Russia","latitude":55.8479543,"longitude":46.4987524,"population":90,"stateCapital":false,"nationalCapital":false,"pk":null,"quiz":"asia","code":null,"archived":false,"percentageOfSessions":null}, {"name":"Ванюшкасы","state":"Chuvashia","territory":"","country":"Russia","latitude":55.819339,"longitude":47.2494766,"population":70,"stateCapital":false,"nationalCapital":false,"pk":null,"quiz":"asia","code":null,"archived":false,"percentageOfSessions":null}, {"name":"Варпоси","state":"Chuvashia","territory":"","country":"Russia","latitude":56.0780474,"longitude":47.0385174,"population":155,"stateCapital":false,"nationalCapital":false,"pk":null,"quiz":"asia","code":null,"archived":false,"percentageOfSessions":null}, {"name":"Васильевка","state":"Chuvashia","territory":"","country":"Russia","latitude":55.3034288,"longitude":47.5119068,"population":43,"stateCapital":false,"nationalCapital":false,"pk":null,"quiz":"asia","code":null,"archived":false,"percentageOfSessions":null}, {"name":"Васильевка","state":"Chuvashia","territory":"","country":"Russia","latitude":56.1523673,"longitude":46.8680263,"population":10,"stateCapital":false,"nationalCapital":false,"pk":null,"quiz":"asia","code":null,"archived":false,"percentageOfSessions":null}, {"name":"Василькасы","state":"Chuvashia","territory":"","country":"Russia","latitude":56.0460643,"longitude":47.1272542,"population":130,"stateCapital":false,"nationalCapital":false,"pk":null,"quiz":"asia","code":null,"archived":false,"percentageOfSessions":null}, {"name":"Васнары","state":"Chuvashia","territory":"","country":"Russia","latitude":55.7788517,"longitude":47.1421312,"population":229,"stateCapital":false,"nationalCapital":false,"pk":null,"quiz":"asia","code":null,"archived":false,"percentageOfSessions":null}, {"name":"Васькино","state":"Chuvashia","territory":"","country":"Russia","latitude":55.8620317,"longitude":46.6643346,"population":283,"stateCapital":false,"nationalCapital":false,"pk":null,"quiz":"asia","code":null,"archived":false,"percentageOfSessions":null}, {"name":"Васькино","state":"Chuvashia","territory":"","country":"Russia","latitude":55.8863475,"longitude":46.3982468,"population":49,"stateCapital":false,"nationalCapital":false,"pk":null,"quiz":"asia","code":null,"archived":false,"percentageOfSessions":null}, {"name":"Верхнее Аккозино","state":"Chuvashia","territory":"","country":"Russia","latitude":55.7572992,"longitude":46.3642981,"population":365,"stateCapital":false,"nationalCapital":false,"pk":null,"quiz":"asia","code":null,"archived":false,"percentageOfSessions":null}, {"name":"Верхнее Анчиково","state":"Chuvashia","territory":"","country":"Russia","latitude":55.8087339,"longitude":48.1446235,"population":44,"stateCapital":false,"nationalCapital":false,"pk":null,"quiz":"asia","code":null,"archived":false,"percentageOfSessions":null}, {"name":"Верхнее Атыково","state":"Chuvashia","territory":"","country":"Russia","latitude":55.0407961,"longitude":47.3610839,"population":336,"stateCapital":false,"nationalCapital":false,"pk":null,"quiz":"asia","code":null,"archived":false,"percentageOfSessions":null}, {"name":"Верхнее Байгулово","state":"Chuvashia","territory":"","country":"Russia","latitude":55.8506091,"longitude":47.9592184,"population":99,"stateCapital":false,"nationalCapital":false,"pk":null,"quiz":"asia","code":null,"archived":false,"percentageOfSessions":null}, {"name":"Верхнее Буяново","state":"Chuvashia","territory":"","country":"Russia","latitude":54.9081887,"longitude":47.5901387,"population":420,"stateCapital":false,"nationalCapital":false,"pk":null,"quiz":"asia","code":null,"archived":false,"percentageOfSessions":null}, {"name":"Верхнее Девлизерово","state":"Chuvashia","territory":"","country":"Russia","latitude":55.5980846,"longitude":47.5375124,"population":210,"stateCapital":false,"nationalCapital":false,"pk":null,"quiz":"asia","code":null,"archived":false,"percentageOfSessions":null}, {"name":"Верхнее Кляшево","state":"Chuvashia","territory":"","country":"Russia","latitude":55.3139626,"longitude":47.1996781,"population":247,"stateCapital":false,"nationalCapital":false,"pk":null,"quiz":"asia","code":null,"archived":false,"percentageOfSessions":null}, {"name":"Верхнее Тимерчеево","state":"Chuvashia","territory":"","country":"Russia","latitude":55.174179,"longitude":47.399235,"population":418,"stateCapital":false,"nationalCapital":false,"pk":null,"quiz":"asia","code":null,"archived":false,"percentageOfSessions":null}, {"name":"Верхнее Турмышево","state":"Chuvashia","territory":"","country":"Russia","latitude":55.0029235,"longitude":47.3131089,"population":290,"stateCapital":false,"nationalCapital":false,"pk":null,"quiz":"asia","code":null,"archived":false,"percentageOfSessions":null}, {"name":"Верхние Анатриялы","state":"Chuvashia","territory":"","country":"Russia","latitude":55.8493178,"longitude":47.3366056,"population":62,"stateCapital":false,"nationalCapital":false,"pk":null,"quiz":"asia","code":null,"archived":false,"percentageOfSessions":null}, {"name":"Верхние Ачаки","state":"Chuvashia","territory":"","country":"Russia","latitude":55.8118302,"longitude":46.3509445,"population":355,"stateCapital":false,"nationalCapital":false,"pk":null,"quiz":"asia","code":null,"archived":false,"percentageOfSessions":null}, {"name":"Верхние Бурнаши","state":"Chuvashia","territory":"","country":"Russia","latitude":56.096886,"longitude":46.493423,"population":51,"stateCapital":false,"nationalCapital":false,"pk":null,"quiz":"asia","code":null,"archived":false,"percentageOfSessions":null}, {"name":"Верхние Бюртли-Шигали","state":"Chuvashia","territory":"","country":"Russia","latitude":55.1001487,"longitude":47.3210706,"population":254,"stateCapital":false,"nationalCapital":false,"pk":null,"quiz":"asia","code":null,"archived":false,"percentageOfSessions":null}, {"name":"Верхние Елыши","state":"Chuvashia","territory":"","country":"Russia","latitude":55.7916371,"longitude":46.871378,"population":95,"stateCapital":false,"nationalCapital":false,"pk":null,"quiz":"asia","code":null,"archived":false,"percentageOfSessions":null}, {"name":"Верхние Ирзеи","state":"Chuvashia","territory":"","country":"Russia","latitude":56.07724,"longitude":46.512043,"population":186,"stateCapital":false,"nationalCapital":false,"pk":null,"quiz":"asia","code":null,"archived":false,"percentageOfSessions":null}, {"name":"Верхние Ирх-Сирмы","state":"Chuvashia","territory":"","country":"Russia","latitude":55.9747734,"longitude":47.6350935,"population":41,"stateCapital":false,"nationalCapital":false,"pk":null,"quiz":"asia","code":null,"archived":false,"percentageOfSessions":null}, {"name":"Верхние Карачуры","state":"Chuvashia","territory":"","country":"Russia","latitude":55.6823544,"longitude":46.87632,"population":262,"stateCapital":false,"nationalCapital":false,"pk":null,"quiz":"asia","code":null,"archived":false,"percentageOfSessions":null}, {"name":"Верхние Кожары","state":"Chuvashia","territory":"","country":"Russia","latitude":55.723078,"longitude":47.1374994,"population":83,"stateCapital":false,"nationalCapital":false,"pk":null,"quiz":"asia","code":null,"archived":false,"percentageOfSessions":null}, {"name":"Верхние Куганары","state":"Chuvashia","territory":"","country":"Russia","latitude":55.68197,"longitude":46.839,"population":152,"stateCapital":false,"nationalCapital":false,"pk":null,"quiz":"asia","code":null,"archived":false,"percentageOfSessions":null}, {"name":"Верхние Кунаши","state":"Chuvashia","territory":"","country":"Russia","latitude":55.7766869,"longitude":47.3742692,"population":55,"stateCapital":false,"nationalCapital":false,"pk":null,"quiz":"asia","code":null,"archived":false,"percentageOfSessions":null}, {"name":"Верхние Мочары","state":"Chuvashia","territory":"","country":"Russia","latitude":55.9644771,"longitude":46.4334288,"population":213,"stateCapital":false,"nationalCapital":false,"pk":null,"quiz":"asia","code":null,"archived":false,"percentageOfSessions":null}, {"name":"Верхние Олгаши","state":"Chuvashia","territory":"","country":"Russia","latitude":56.1212973,"longitude":46.7600318,"population":82,"stateCapital":false,"nationalCapital":false,"pk":null,"quiz":"asia","code":null,"archived":false,"percentageOfSessions":null}, {"name":"Верхние Панклеи","state":"Chuvashia","territory":"","country":"Russia","latitude":55.87249,"longitude":46.803883,"population":269,"stateCapital":false,"nationalCapital":false,"pk":null,"quiz":"asia","code":null,"archived":false,"percentageOfSessions":null}, {"name":"Верхние Сунары","state":"Chuvashia","territory":"","country":"Russia","latitude":55.855457,"longitude":46.561623,"population":130,"stateCapital":false,"nationalCapital":false,"pk":null,"quiz":"asia","code":null,"archived":false,"percentageOfSessions":null}, {"name":"Верхние Татмыши","state":"Chuvashia","territory":"","country":"Russia","latitude":55.7388062,"longitude":46.8488012,"population":100,"stateCapital":false,"nationalCapital":false,"pk":null,"quiz":"asia","code":null,"archived":false,"percentageOfSessions":null}, {"name":"Верхние Хоразаны","state":"Chuvashia","territory":"","country":"Russia","latitude":55.8274513,"longitude":46.8684032,"population":93,"stateCapital":false,"nationalCapital":false,"pk":null,"quiz":"asia","code":null,"archived":false,"percentageOfSessions":null}, {"name":"Верхние Хыркасы","state":"Chuvashia","territory":"","country":"Russia","latitude":55.868172,"longitude":47.2968598,"population":147,"stateCapital":false,"nationalCapital":false,"pk":null,"quiz":"asia","code":null,"archived":false,"percentageOfSessions":null}, {"name":"Верхний Курган","state":"Chuvashia","territory":"","country":"Russia","latitude":55.8055416,"longitude":48.270993,"population":45,"stateCapital":false,"nationalCapital":false,"pk":null,"quiz":"asia","code":null,"archived":false,"percentageOfSessions":null}, {"name":"Верхний Магазь","state":"Chuvashia","territory":"","country":"Russia","latitude":56.0363558,"longitude":47.5209782,"population":112,"stateCapital":false,"nationalCapital":false,"pk":null,"quiz":"asia","code":null,"archived":false,"percentageOfSessions":null}, {"name":"Верхний Магарин","state":"Chuvashia","territory":"","country":"Russia","latitude":55.63052,"longitude":46.33511,"population":37,"stateCapital":false,"nationalCapital":false,"pk":null,"quiz":"asia","code":null,"archived":false,"percentageOfSessions":null}, {"name":"Верхний Томлай","state":"Chuvashia","territory":"","country":"Russia","latitude":56.021035,"longitude":46.909429,"population":64,"stateCapital":false,"nationalCapital":false,"pk":null,"quiz":"asia","code":null,"archived":false,"percentageOfSessions":null}, {"name":"Верхняя Кумашка","state":"Chuvashia","territory":"","country":"Russia","latitude":55.5893102,"longitude":46.3830909,"population":154,"stateCapital":false,"nationalCapital":false,"pk":null,"quiz":"asia","code":null,"archived":false,"percentageOfSessions":null}, {"name":"Верхняя Типсирма","state":"Chuvashia","territory":"","country":"Russia","latitude":55.8099332,"longitude":47.0480683,"population":33,"stateCapital":false,"nationalCapital":false,"pk":null,"quiz":"asia","code":null,"archived":false,"percentageOfSessions":null}, {"name":"Верхняя Шорсирма","state":"Chuvashia","territory":"","country":"Russia","latitude":55.8452167,"longitude":47.2324677,"population":63,"stateCapital":false,"nationalCapital":false,"pk":null,"quiz":"asia","code":null,"archived":false,"percentageOfSessions":null}, {"name":"Верхняя Яндоба","state":"Chuvashia","territory":"","country":"Russia","latitude":55.4777813,"longitude":47.2950888,"population":535,"stateCapital":false,"nationalCapital":false,"pk":null,"quiz":"asia","code":null,"archived":false,"percentageOfSessions":null}, {"name":"Видесючь","state":"Chuvashia","territory":"","country":"Russia","latitude":55.7295348,"longitude":46.7194721,"population":71,"stateCapital":false,"nationalCapital":false,"pk":null,"quiz":"asia","code":null,"archived":false,"percentageOfSessions":null}, {"name":"Визикасы","state":"Chuvashia","territory":"","country":"Russia","latitude":55.8935475,"longitude":47.2358263,"population":144,"stateCapital":false,"nationalCapital":false,"pk":null,"quiz":"asia","code":null,"archived":false,"percentageOfSessions":null}, {"name":"Вишенеры","state":"Chuvashia","territory":"","country":"Russia","latitude":55.648922,"longitude":46.053734,"population":36,"stateCapital":false,"nationalCapital":false,"pk":null,"quiz":"asia","code":null,"archived":false,"percentageOfSessions":null}, {"name":"Водолеево","state":"Chuvashia","territory":"","country":"Russia","latitude":56.1167769,"longitude":47.8441865,"population":15,"stateCapital":false,"nationalCapital":false,"pk":null,"quiz":"asia","code":null,"archived":false,"percentageOfSessions":null}, {"name":"Вознесенское","state":"Chuvashia","territory":"","country":"Russia","latitude":55.1158216,"longitude":46.2187537,"population":157,"stateCapital":false,"nationalCapital":false,"pk":null,"quiz":"asia","code":null,"archived":false,"percentageOfSessions":null}, {"name":"Вознесенское","state":"Chuvashia","territory":"","country":"Russia","latitude":55.7731995,"longitude":47.8917637,"population":203,"stateCapital":false,"nationalCapital":false,"pk":null,"quiz":"asia","code":null,"archived":false,"percentageOfSessions":null}, {"name":"Волга","state":"Chuvashia","territory":"","country":"Russia","latitude":55.5602353,"longitude":46.2807435,"population":148,"stateCapital":false,"nationalCapital":false,"pk":null,"quiz":"asia","code":null,"archived":false,"percentageOfSessions":null}, {"name":"Волонтер","state":"Chuvashia","territory":"","country":"Russia","latitude":55.4860521,"longitude":46.7858442,"population":74,"stateCapital":false,"nationalCapital":false,"pk":null,"quiz":"asia","code":null,"archived":false,"percentageOfSessions":null}, {"name":"Вомбакасы","state":"Chuvashia","territory":"","country":"Russia","latitude":56.1080667,"longitude":46.692922,"population":199,"stateCapital":false,"nationalCapital":false,"pk":null,"quiz":"asia","code":null,"archived":false,"percentageOfSessions":null}, {"name":"Воробьевка","state":"Chuvashia","territory":"","country":"Russia","latitude":55.7926948,"longitude":48.3329008,"population":16,"stateCapital":false,"nationalCapital":false,"pk":null,"quiz":"asia","code":null,"archived":false,"percentageOfSessions":null}, {"name":"Воробьевка","state":"Chuvashia","territory":"","country":"Russia","latitude":55.7926948,"longitude":48.3329008,"population":0,"stateCapital":false,"nationalCapital":false,"pk":null,"quiz":"asia","code":null,"archived":false,"percentageOfSessions":null}, {"name":"Вороново","state":"Chuvashia","territory":"","country":"Russia","latitude":55.9599491,"longitude":47.5925641,"population":2,"stateCapital":false,"nationalCapital":false,"pk":null,"quiz":"asia","code":null,"archived":false,"percentageOfSessions":null}, {"name":"Воронцовка","state":"Chuvashia","territory":"","country":"Russia","latitude":55.3960087,"longitude":47.5143658,"population":53,"stateCapital":false,"nationalCapital":false,"pk":null,"quiz":"asia","code":null,"archived":false,"percentageOfSessions":null}, {"name":"Восход","state":"Chuvashia","territory":"","country":"Russia","latitude":54.801529,"longitude":46.584225,"population":737,"stateCapital":false,"nationalCapital":false,"pk":null,"quiz":"asia","code":null,"archived":false,"percentageOfSessions":null}, {"name":"Вотланы","state":"Chuvashia","territory":"","country":"Russia","latitude":55.7343103,"longitude":46.8715428,"population":220,"stateCapital":false,"nationalCapital":false,"pk":null,"quiz":"asia","code":null,"archived":false,"percentageOfSessions":null}, {"name":"Вотланы","state":"Chuvashia","territory":"","country":"Russia","latitude":55.2096221,"longitude":47.2932036,"population":198,"stateCapital":false,"nationalCapital":false,"pk":null,"quiz":"asia","code":null,"archived":false,"percentageOfSessions":null}, {"name":"Вотланы","state":"Chuvashia","territory":"","country":"Russia","latitude":55.7787456,"longitude":47.2038398,"population":134,"stateCapital":false,"nationalCapital":false,"pk":null,"quiz":"asia","code":null,"archived":false,"percentageOfSessions":null}, {"name":"Вотланы","state":"Chuvashia","territory":"","country":"Russia","latitude":55.6929085,"longitude":47.4193718,"population":75,"stateCapital":false,"nationalCapital":false,"pk":null,"quiz":"asia","code":null,"archived":false,"percentageOfSessions":null}, {"name":"Второе Чемерчеево","state":"Chuvashia","territory":"","country":"Russia","latitude":55.8034098,"longitude":47.3984237,"population":105,"stateCapital":false,"nationalCapital":false,"pk":null,"quiz":"asia","code":null,"archived":false,"percentageOfSessions":null}, {"name":"Второе Чурашево","state":"Chuvashia","territory":"","country":"Russia","latitude":55.86687,"longitude":47.8270916,"population":118,"stateCapital":false,"nationalCapital":false,"pk":null,"quiz":"asia","code":null,"archived":false,"percentageOfSessions":null}, {"name":"Вторые Вурманкасы","state":"Chuvashia","territory":"","country":"Russia","latitude":55.9175788,"longitude":47.3804144,"population":737,"stateCapital":false,"nationalCapital":false,"pk":null,"quiz":"asia","code":null,"archived":false,"percentageOfSessions":null}, {"name":"Вторые Вурманкасы","state":"Chuvashia","territory":"","country":"Russia","latitude":55.9175788,"longitude":47.3804144,"population":102,"stateCapital":false,"nationalCapital":false,"pk":null,"quiz":"asia","code":null,"archived":false,"percentageOfSessions":null}, {"name":"Вторые Синьялы","state":"Chuvashia","territory":"","country":"Russia","latitude":55.7683841,"longitude":47.5075592,"population":73,"stateCapital":false,"nationalCapital":false,"pk":null,"quiz":"asia","code":null,"archived":false,"percentageOfSessions":null}, {"name":"Вторые Тойзи","state":"Chuvashia","territory":"","country":"Russia","latitude":55.8555107,"longitude":47.6947284,"population":133,"stateCapital":false,"nationalCapital":false,"pk":null,"quiz":"asia","code":null,"archived":false,"percentageOfSessions":null}, {"name":"Вторые Тюрары","state":"Chuvashia","territory":"","country":"Russia","latitude":55.7272289,"longitude":47.3283657,"population":48,"stateCapital":false,"nationalCapital":false,"pk":null,"quiz":"asia","code":null,"archived":false,"percentageOfSessions":null}, {"name":"Вторые Хормалы","state":"Chuvashia","territory":"","country":"Russia","latitude":55.5460875,"longitude":47.2309224,"population":233,"stateCapital":false,"nationalCapital":false,"pk":null,"quiz":"asia","code":null,"archived":false,"percentageOfSessions":null}, {"name":"Вторые Хоршеваши","state":"Chuvashia","territory":"","country":"Russia","latitude":55.736855,"longitude":46.351772,"population":265,"stateCapital":false,"nationalCapital":false,"pk":null,"quiz":"asia","code":null,"archived":false,"percentageOfSessions":null}, {"name":"Вторые Чекуры","state":"Chuvashia","territory":"","country":"Russia","latitude":55.8794194,"longitude":47.8700185,"population":33,"stateCapital":false,"nationalCapital":false,"pk":null,"quiz":"asia","code":null,"archived":false,"percentageOfSessions":null}, {"name":"Вторые Ялдры","state":"Chuvashia","territory":"","country":"Russia","latitude":55.6204166,"longitude":46.6817433,"population":210,"stateCapital":false,"nationalCapital":false,"pk":null,"quiz":"asia","code":null,"archived":false,"percentageOfSessions":null}, {"name":"Вудоялы","state":"Chuvashia","territory":"","country":"Russia","latitude":55.3491201,"longitude":47.3203366,"population":828,"stateCapital":false,"nationalCapital":false,"pk":null,"quiz":"asia","code":null,"archived":false,"percentageOfSessions":null}, {"name":"Вурманкас-Асламасы","state":"Chuvashia","territory":"","country":"Russia","latitude":55.9644845,"longitude":46.5232346,"population":264,"stateCapital":false,"nationalCapital":false,"pk":null,"quiz":"asia","code":null,"archived":false,"percentageOfSessions":null}, {"name":"Вурманкас-Туруново","state":"Chuvashia","territory":"","country":"Russia","latitude":55.8914904,"longitude":47.0505183,"population":266,"stateCapital":false,"nationalCapital":false,"pk":null,"quiz":"asia","code":null,"archived":false,"percentageOfSessions":null}, {"name":"Вурманкас-Чурино","state":"Chuvashia","territory":"","country":"Russia","latitude":55.6700711,"longitude":47.2771157,"population":86,"stateCapital":false,"nationalCapital":false,"pk":null,"quiz":"asia","code":null,"archived":false,"percentageOfSessions":null}, {"name":"Вурманкасы","state":"Chuvashia","territory":"","country":"Russia","latitude":55.7411945,"longitude":46.9078792,"population":124,"stateCapital":false,"nationalCapital":false,"pk":null,"quiz":"asia","code":null,"archived":false,"percentageOfSessions":null}, {"name":"Вурманкасы","state":"Chuvashia","territory":"","country":"Russia","latitude":55.548248,"longitude":46.850712,"population":518,"stateCapital":false,"nationalCapital":false,"pk":null,"quiz":"asia","code":null,"archived":false,"percentageOfSessions":null}, {"name":"Вурманкасы","state":"Chuvashia","territory":"","country":"Russia","latitude":55.7735983,"longitude":48.0127017,"population":35,"stateCapital":false,"nationalCapital":false,"pk":null,"quiz":"asia","code":null,"archived":false,"percentageOfSessions":null}, {"name":"Вурманкасы","state":"Chuvashia","territory":"","country":"Russia","latitude":55.8423099,"longitude":47.1009081,"population":109,"stateCapital":false,"nationalCapital":false,"pk":null,"quiz":"asia","code":null,"archived":false,"percentageOfSessions":null}, {"name":"Вурманкасы","state":"Chuvashia","territory":"","country":"Russia","latitude":55.8423099,"longitude":47.1009081,"population":91,"stateCapital":false,"nationalCapital":false,"pk":null,"quiz":"asia","code":null,"archived":false,"percentageOfSessions":null}, {"name":"Вурманкасы","state":"Chuvashia","territory":"","country":"Russia","latitude":55.8423099,"longitude":47.1009081,"population":46,"stateCapital":false,"nationalCapital":false,"pk":null,"quiz":"asia","code":null,"archived":false,"percentageOfSessions":null}, {"name":"Вурманкасы","state":"Chuvashia","territory":"","country":"Russia","latitude":55.9713288,"longitude":47.8251277,"population":305,"stateCapital":false,"nationalCapital":false,"pk":null,"quiz":"asia","code":null,"archived":false,"percentageOfSessions":null}, {"name":"Вурманкасы","state":"Chuvashia","territory":"","country":"Russia","latitude":56.1381439,"longitude":46.8417561,"population":100,"stateCapital":false,"nationalCapital":false,"pk":null,"quiz":"asia","code":null,"archived":false,"percentageOfSessions":null}, {"name":"Вурманкасы","state":"Chuvashia","territory":"","country":"Russia","latitude":56.1381439,"longitude":46.8417561,"population":119,"stateCapital":false,"nationalCapital":false,"pk":null,"quiz":"asia","code":null,"archived":false,"percentageOfSessions":null}, {"name":"Вурманкасы","state":"Chuvashia","territory":"","country":"Russia","latitude":56.1381439,"longitude":46.8417561,"population":469,"stateCapital":false,"nationalCapital":false,"pk":null,"quiz":"asia","code":null,"archived":false,"percentageOfSessions":null}, {"name":"Вурманкасы","state":"Chuvashia","territory":"","country":"Russia","latitude":55.9247925,"longitude":47.2797301,"population":31,"stateCapital":false,"nationalCapital":false,"pk":null,"quiz":"asia","code":null,"archived":false,"percentageOfSessions":null}, {"name":"Вурманкасы","state":"Chuvashia","territory":"","country":"Russia","latitude":56.1098979,"longitude":47.0161105,"population":487,"stateCapital":false,"nationalCapital":false,"pk":null,"quiz":"asia","code":null,"archived":false,"percentageOfSessions":null}, {"name":"Вурманкасы","state":"Chuvashia","territory":"","country":"Russia","latitude":56.1098979,"longitude":47.0161105,"population":827,"stateCapital":false,"nationalCapital":false,"pk":null,"quiz":"asia","code":null,"archived":false,"percentageOfSessions":null}, {"name":"Вурманкас-Ядрино","state":"Chuvashia","territory":"","country":"Russia","latitude":56.0030565,"longitude":46.4259498,"population":164,"stateCapital":false,"nationalCapital":false,"pk":null,"quiz":"asia","code":null,"archived":false,"percentageOfSessions":null}, {"name":"Вурман-Кибеки","state":"Chuvashia","territory":"","country":"Russia","latitude":55.6267196,"longitude":47.1606918,"population":250,"stateCapital":false,"nationalCapital":false,"pk":null,"quiz":"asia","code":null,"archived":false,"percentageOfSessions":null}, {"name":"Вурман-Кошки","state":"Chuvashia","territory":"","country":"Russia","latitude":55.9709153,"longitude":47.6757835,"population":89,"stateCapital":false,"nationalCapital":false,"pk":null,"quiz":"asia","code":null,"archived":false,"percentageOfSessions":null}, {"name":"Вурман-Пилемчи","state":"Chuvashia","territory":"","country":"Russia","latitude":55.9724824,"longitude":47.8860597,"population":137,"stateCapital":false,"nationalCapital":false,"pk":null,"quiz":"asia","code":null,"archived":false,"percentageOfSessions":null}, {"name":"Вурман-Янишево","state":"Chuvashia","territory":"","country":"Russia","latitude":55.6211739,"longitude":47.2213316,"population":331,"stateCapital":false,"nationalCapital":false,"pk":null,"quiz":"asia","code":null,"archived":false,"percentageOfSessions":null}, {"name":"Вурмеры","state":"Chuvashia","territory":"","country":"Russia","latitude":55.9276329,"longitude":47.576685,"population":186,"stateCapital":false,"nationalCapital":false,"pk":null,"quiz":"asia","code":null,"archived":false,"percentageOfSessions":null}, {"name":"Вурмой","state":"Chuvashia","territory":"","country":"Russia","latitude":55.9529019,"longitude":46.9273836,"population":30,"stateCapital":false,"nationalCapital":false,"pk":null,"quiz":"asia","code":null,"archived":false,"percentageOfSessions":null}, {"name":"Вурнары","state":"Chuvashia","territory":"","country":"Russia","latitude":55.4917095,"longitude":46.9529003,"population":10086,"stateCapital":false,"nationalCapital":false,"pk":null,"quiz":"asia","code":null,"archived":false,"percentageOfSessions":null}, {"name":"Вурумсют","state":"Chuvashia","territory":"","country":"Russia","latitude":55.9325188,"longitude":47.6019244,"population":156,"stateCapital":false,"nationalCapital":false,"pk":null,"quiz":"asia","code":null,"archived":false,"percentageOfSessions":null}, {"name":"Вускасы","state":"Chuvashia","territory":"","country":"Russia","latitude":56.041668,"longitude":46.8885049,"population":95,"stateCapital":false,"nationalCapital":false,"pk":null,"quiz":"asia","code":null,"archived":false,"percentageOfSessions":null}, {"name":"Вуспюрт-Чурачики","state":"Chuvashia","territory":"","country":"Russia","latitude":56.0138995,"longitude":46.942581,"population":103,"stateCapital":false,"nationalCapital":false,"pk":null,"quiz":"asia","code":null,"archived":false,"percentageOfSessions":null}, {"name":"Вутабоси","state":"Chuvashia","territory":"","country":"Russia","latitude":55.4326678,"longitude":47.4428126,"population":855,"stateCapital":false,"nationalCapital":false,"pk":null,"quiz":"asia","code":null,"archived":false,"percentageOfSessions":null}, {"name":"Вутакасы","state":"Chuvashia","territory":"","country":"Russia","latitude":55.763798,"longitude":47.4737782,"population":54,"stateCapital":false,"nationalCapital":false,"pk":null,"quiz":"asia","code":null,"archived":false,"percentageOfSessions":null}, {"name":"Выла","state":"Chuvashia","territory":"","country":"Russia","latitude":55.7094506,"longitude":46.5177201,"population":210,"stateCapital":false,"nationalCapital":false,"pk":null,"quiz":"asia","code":null,"archived":false,"percentageOfSessions":null}, {"name":"Выла-Базар","state":"Chuvashia","territory":"","country":"Russia","latitude":55.7674515,"longitude":46.5266168,"population":41,"stateCapital":false,"nationalCapital":false,"pk":null,"quiz":"asia","code":null,"archived":false,"percentageOfSessions":null}, {"name":"Выселок N1","state":"Chuvashia","territory":"","country":"Russia","latitude":55.8584177,"longitude":46.0970955,"population":19,"stateCapital":false,"nationalCapital":false,"pk":null,"quiz":"asia","code":null,"archived":false,"percentageOfSessions":null}, {"name":"Выселок N2","state":"Chuvashia","territory":"","country":"Russia","latitude":55.8436036,"longitude":46.1313717,"population":5,"stateCapital":false,"nationalCapital":false,"pk":null,"quiz":"asia","code":null,"archived":false,"percentageOfSessions":null}, {"name":"Высоковка Вторая","state":"Chuvashia","territory":"","country":"Russia","latitude":55.6516809,"longitude":47.5549575,"population":24,"stateCapital":false,"nationalCapital":false,"pk":null,"quiz":"asia","code":null,"archived":false,"percentageOfSessions":null}, {"name":"Высоковка Первая","state":"Chuvashia","territory":"","country":"Russia","latitude":55.6479531,"longitude":47.5397011,"population":19,"stateCapital":false,"nationalCapital":false,"pk":null,"quiz":"asia","code":null,"archived":false,"percentageOfSessions":null}, {"name":"Гарт","state":"Chuvashia","territory":"","country":"Russia","latitude":55.1269394,"longitude":46.669835,"population":166,"stateCapital":false,"nationalCapital":false,"pk":null,"quiz":"asia","code":null,"archived":false,"percentageOfSessions":null}, {"name":"Голов","state":"Chuvashia","territory":"","country":"Russia","latitude":55.8374118,"longitude":46.9973845,"population":96,"stateCapital":false,"nationalCapital":false,"pk":null,"quiz":"asia","code":null,"archived":false,"percentageOfSessions":null}, {"name":"Горбатовка","state":"Chuvashia","territory":"","country":"Russia","latitude":55.640949,"longitude":46.409969,"population":38,"stateCapital":false,"nationalCapital":false,"pk":null,"quiz":"asia","code":null,"archived":false,"percentageOfSessions":null}, {"name":"Гришино","state":"Chuvashia","territory":"","country":"Russia","latitude":55.4785071,"longitude":47.8877501,"population":163,"stateCapital":false,"nationalCapital":false,"pk":null,"quiz":"asia","code":null,"archived":false,"percentageOfSessions":null}, {"name":"Гришкино","state":"Chuvashia","territory":"","country":"Russia","latitude":55.8119112,"longitude":48.090636,"population":36,"stateCapital":false,"nationalCapital":false,"pk":null,"quiz":"asia","code":null,"archived":false,"percentageOfSessions":null}, {"name":"Дальние Сормы","state":"Chuvashia","territory":"","country":"Russia","latitude":55.6568636,"longitude":47.4349928,"population":328,"stateCapital":false,"nationalCapital":false,"pk":null,"quiz":"asia","code":null,"archived":false,"percentageOfSessions":null}, {"name":"Дворики","state":"Chuvashia","territory":"","country":"Russia","latitude":55.8119277,"longitude":47.0106975,"population":68,"stateCapital":false,"nationalCapital":false,"pk":null,"quiz":"asia","code":null,"archived":false,"percentageOfSessions":null}, {"name":"Дворики","state":"Chuvashia","territory":"","country":"Russia","latitude":55.8811856,"longitude":46.6221037,"population":119,"stateCapital":false,"nationalCapital":false,"pk":null,"quiz":"asia","code":null,"archived":false,"percentageOfSessions":null}, {"name":"Девлетгильдино","state":"Chuvashia","territory":"","country":"Russia","latitude":55.948387,"longitude":47.8470605,"population":55,"stateCapital":false,"nationalCapital":false,"pk":null,"quiz":"asia","code":null,"archived":false,"percentageOfSessions":null}, {"name":"Демешкино","state":"Chuvashia","territory":"","country":"Russia","latitude":56.1173729,"longitude":47.8140246,"population":9,"stateCapital":false,"nationalCapital":false,"pk":null,"quiz":"asia","code":null,"archived":false,"percentageOfSessions":null}, {"name":"Демкино","state":"Chuvashia","territory":"","country":"Russia","latitude":55.9280952,"longitude":46.5392864,"population":155,"stateCapital":false,"nationalCapital":false,"pk":null,"quiz":"asia","code":null,"archived":false,"percentageOfSessions":null}, {"name":"Дмитриевка","state":"Chuvashia","territory":"","country":"Russia","latitude":55.6339053,"longitude":47.5173903,"population":30,"stateCapital":false,"nationalCapital":false,"pk":null,"quiz":"asia","code":null,"archived":false,"percentageOfSessions":null}, {"name":"Долгая Поляна","state":"Chuvashia","territory":"","country":"Russia","latitude":55.1067724,"longitude":46.5810771,"population":78,"stateCapital":false,"nationalCapital":false,"pk":null,"quiz":"asia","code":null,"archived":false,"percentageOfSessions":null}, {"name":"Долгий Остров","state":"Chuvashia","territory":"","country":"Russia","latitude":55.1147,"longitude":47.5452999,"population":874,"stateCapital":false,"nationalCapital":false,"pk":null,"quiz":"asia","code":null,"archived":false,"percentageOfSessions":null}, {"name":"Долина","state":"Chuvashia","territory":"","country":"Russia","latitude":55.9902558,"longitude":46.2356109,"population":43,"stateCapital":false,"nationalCapital":false,"pk":null,"quiz":"asia","code":null,"archived":false,"percentageOfSessions":null}, {"name":"Досаево","state":"Chuvashia","territory":"","country":"Russia","latitude":55.7152799,"longitude":47.0945206,"population":367,"stateCapital":false,"nationalCapital":false,"pk":null,"quiz":"asia","code":null,"archived":false,"percentageOfSessions":null}, {"name":"Дубовка","state":"Chuvashia","territory":"","country":"Russia","latitude":55.3105817,"longitude":47.5316796,"population":152,"stateCapital":false,"nationalCapital":false,"pk":null,"quiz":"asia","code":null,"archived":false,"percentageOfSessions":null}, {"name":"Дубовка","state":"Chuvashia","territory":"","country":"Russia","latitude":55.7982593,"longitude":47.1506427,"population":49,"stateCapital":false,"nationalCapital":false,"pk":null,"quiz":"asia","code":null,"archived":false,"percentageOfSessions":null}, {"name":"Дубовка","state":"Chuvashia","territory":"","country":"Russia","latitude":55.6698922,"longitude":46.0480137,"population":21,"stateCapital":false,"nationalCapital":false,"pk":null,"quiz":"asia","code":null,"archived":false,"percentageOfSessions":null}, {"name":"Дубовка","state":"Chuvashia","territory":"","country":"Russia","latitude":56.0604368,"longitude":47.817285,"population":324,"stateCapital":false,"nationalCapital":false,"pk":null,"quiz":"asia","code":null,"archived":false,"percentageOfSessions":null}, {"name":"Дубовка","state":"Chuvashia","territory":"","country":"Russia","latitude":55.3889622,"longitude":46.4766385,"population":73,"stateCapital":false,"nationalCapital":false,"pk":null,"quiz":"asia","code":null,"archived":false,"percentageOfSessions":null}, {"name":"Дубовский","state":"Chuvashia","territory":"","country":"Russia","latitude":55.7495164,"longitude":46.8061052,"population":55,"stateCapital":false,"nationalCapital":false,"pk":null,"quiz":"asia","code":null,"archived":false,"percentageOfSessions":null}, {"name":"Дятлино","state":"Chuvashia","territory":"","country":"Russia","latitude":55.8723946,"longitude":48.1147949,"population":369,"stateCapital":false,"nationalCapital":false,"pk":null,"quiz":"asia","code":null,"archived":false,"percentageOfSessions":null}, {"name":"Егоркино","state":"Chuvashia","territory":"","country":"Russia","latitude":55.6144614,"longitude":46.5571993,"population":536,"stateCapital":false,"nationalCapital":false,"pk":null,"quiz":"asia","code":null,"archived":false,"percentageOfSessions":null}, {"name":"Егоркино","state":"Chuvashia","territory":"","country":"Russia","latitude":55.6144614,"longitude":46.5571993,"population":36,"stateCapital":false,"nationalCapital":false,"pk":null,"quiz":"asia","code":null,"archived":false,"percentageOfSessions":null}, {"name":"Егоркино","state":"Chuvashia","territory":"","country":"Russia","latitude":55.802889,"longitude":46.2857784,"population":38,"stateCapital":false,"nationalCapital":false,"pk":null,"quiz":"asia","code":null,"archived":false,"percentageOfSessions":null}, {"name":"Елабыш","state":"Chuvashia","territory":"","country":"Russia","latitude":55.6101016,"longitude":47.0131696,"population":12,"stateCapital":false,"nationalCapital":false,"pk":null,"quiz":"asia","code":null,"archived":false,"percentageOfSessions":null}, {"name":"Елачкасы","state":"Chuvashia","territory":"","country":"Russia","latitude":55.9887581,"longitude":46.8760147,"population":61,"stateCapital":false,"nationalCapital":false,"pk":null,"quiz":"asia","code":null,"archived":false,"percentageOfSessions":null}, {"name":"Елаши","state":"Chuvashia","territory":"","country":"Russia","latitude":55.9275957,"longitude":47.2457446,"population":215,"stateCapital":false,"nationalCapital":false,"pk":null,"quiz":"asia","code":null,"archived":false,"percentageOfSessions":null}, {"name":"Елжихово","state":"Chuvashia","territory":"","country":"Russia","latitude":55.9675011,"longitude":46.5878064,"population":147,"stateCapital":false,"nationalCapital":false,"pk":null,"quiz":"asia","code":null,"archived":false,"percentageOfSessions":null}, {"name":"Елкино","state":"Chuvashia","territory":"","country":"Russia","latitude":56.017455,"longitude":46.6440612,"population":3,"stateCapital":false,"nationalCapital":false,"pk":null,"quiz":"asia","code":null,"archived":false,"percentageOfSessions":null}, {"name":"Елмачи","state":"Chuvashia","territory":"","country":"Russia","latitude":55.4569016,"longitude":47.208748,"population":372,"stateCapital":false,"nationalCapital":false,"pk":null,"quiz":"asia","code":null,"archived":false,"percentageOfSessions":null}, {"name":"Елхово","state":"Chuvashia","territory":"","country":"Russia","latitude":55.9823719,"longitude":46.586037,"population":57,"stateCapital":false,"nationalCapital":false,"pk":null,"quiz":"asia","code":null,"archived":false,"percentageOfSessions":null}, {"name":"Ельниково","state":"Chuvashia","territory":"","country":"Russia","latitude":56.0276839,"longitude":47.5885904,"population":179,"stateCapital":false,"nationalCapital":false,"pk":null,"quiz":"asia","code":null,"archived":false,"percentageOfSessions":null}, {"name":"Елюй","state":"Chuvashia","territory":"","country":"Russia","latitude":55.9510919,"longitude":47.5859955,"population":81,"stateCapital":false,"nationalCapital":false,"pk":null,"quiz":"asia","code":null,"archived":false,"percentageOfSessions":null}, {"name":"Елюккасы","state":"Chuvashia","territory":"","country":"Russia","latitude":55.6962005,"longitude":47.4888181,"population":173,"stateCapital":false,"nationalCapital":false,"pk":null,"quiz":"asia","code":null,"archived":false,"percentageOfSessions":null}, {"name":"Емалоки","state":"Chuvashia","territory":"","country":"Russia","latitude":56.0618203,"longitude":46.4756632,"population":82,"stateCapital":false,"nationalCapital":false,"pk":null,"quiz":"asia","code":null,"archived":false,"percentageOfSessions":null}, {"name":"Еметкино","state":"Chuvashia","territory":"","country":"Russia","latitude":55.7978257,"longitude":48.0413692,"population":374,"stateCapital":false,"nationalCapital":false,"pk":null,"quiz":"asia","code":null,"archived":false,"percentageOfSessions":null}, {"name":"Ендоба","state":"Chuvashia","territory":"","country":"Russia","latitude":55.1136611,"longitude":47.4046121,"population":195,"stateCapital":false,"nationalCapital":false,"pk":null,"quiz":"asia","code":null,"archived":false,"percentageOfSessions":null},