{"cities":[{"name":"100 км","state":"Kirov","territory":"","country":"Russia","latitude":58.991825,"longitude":52.403542,"population":6,"stateCapital":false,"nationalCapital":false,"pk":null,"quiz":"asia","code":null,"archived":false,"percentageOfSessions":null}, {"name":"1002 км","state":"Kirov","territory":"","country":"Russia","latitude":58.4407877,"longitude":50.2194869,"population":2,"stateCapital":false,"nationalCapital":false,"pk":null,"quiz":"asia","code":null,"archived":false,"percentageOfSessions":null}, {"name":"1012 км","state":"Kirov","territory":"","country":"Russia","latitude":58.425086,"longitude":50.3843031,"population":0,"stateCapital":false,"nationalCapital":false,"pk":null,"quiz":"asia","code":null,"archived":false,"percentageOfSessions":null}, {"name":"1040 км","state":"Kirov","territory":"","country":"Russia","latitude":58.4585999,"longitude":50.8078411,"population":6,"stateCapital":false,"nationalCapital":false,"pk":null,"quiz":"asia","code":null,"archived":false,"percentageOfSessions":null}, {"name":"1041 км","state":"Kirov","territory":"","country":"Russia","latitude":58.4583982,"longitude":50.8259835,"population":3,"stateCapital":false,"nationalCapital":false,"pk":null,"quiz":"asia","code":null,"archived":false,"percentageOfSessions":null}, {"name":"1045 км","state":"Kirov","territory":"","country":"Russia","latitude":58.455295,"longitude":50.9053145,"population":2,"stateCapital":false,"nationalCapital":false,"pk":null,"quiz":"asia","code":null,"archived":false,"percentageOfSessions":null}, {"name":"1046 км","state":"Kirov","territory":"","country":"Russia","latitude":58.454337,"longitude":50.9217959,"population":1,"stateCapital":false,"nationalCapital":false,"pk":null,"quiz":"asia","code":null,"archived":false,"percentageOfSessions":null}, {"name":"1050 км","state":"Kirov","territory":"","country":"Russia","latitude":58.4373837,"longitude":50.9846033,"population":9,"stateCapital":false,"nationalCapital":false,"pk":null,"quiz":"asia","code":null,"archived":false,"percentageOfSessions":null}, {"name":"1083 км","state":"Kirov","territory":"","country":"Russia","latitude":58.4024102,"longitude":51.4993555,"population":5,"stateCapital":false,"nationalCapital":false,"pk":null,"quiz":"asia","code":null,"archived":false,"percentageOfSessions":null}, {"name":"14 км","state":"Kirov","territory":"","country":"Russia","latitude":58.643891,"longitude":49.5204398,"population":0,"stateCapital":false,"nationalCapital":false,"pk":null,"quiz":"asia","code":null,"archived":false,"percentageOfSessions":null}, {"name":"17 км","state":"Kirov","territory":"","country":"Russia","latitude":58.657024,"longitude":49.52523,"population":0,"stateCapital":false,"nationalCapital":false,"pk":null,"quiz":"asia","code":null,"archived":false,"percentageOfSessions":null}, {"name":"44 км","state":"Kirov","territory":"","country":"Russia","latitude":58.8749056,"longitude":49.4875529,"population":2,"stateCapital":false,"nationalCapital":false,"pk":null,"quiz":"asia","code":null,"archived":false,"percentageOfSessions":null}, {"name":"50 км","state":"Kirov","territory":"","country":"Russia","latitude":58.9214931,"longitude":49.4265814,"population":7,"stateCapital":false,"nationalCapital":false,"pk":null,"quiz":"asia","code":null,"archived":false,"percentageOfSessions":null}, {"name":"61 км","state":"Kirov","territory":"","country":"Russia","latitude":58.993366,"longitude":49.324364,"population":3,"stateCapital":false,"nationalCapital":false,"pk":null,"quiz":"asia","code":null,"archived":false,"percentageOfSessions":null}, {"name":"815 км","state":"Kirov","territory":"","country":"Russia","latitude":58.285351,"longitude":47.471214,"population":1,"stateCapital":false,"nationalCapital":false,"pk":null,"quiz":"asia","code":null,"archived":false,"percentageOfSessions":null}, {"name":"839 км","state":"Kirov","territory":"","country":"Russia","latitude":58.282074,"longitude":47.86409,"population":2,"stateCapital":false,"nationalCapital":false,"pk":null,"quiz":"asia","code":null,"archived":false,"percentageOfSessions":null}, {"name":"894 км","state":"Kirov","territory":"","country":"Russia","latitude":58.328754,"longitude":48.726654,"population":4,"stateCapital":false,"nationalCapital":false,"pk":null,"quiz":"asia","code":null,"archived":false,"percentageOfSessions":null}, {"name":"904 км","state":"Kirov","territory":"","country":"Russia","latitude":58.3596294,"longitude":48.8877869,"population":5,"stateCapital":false,"nationalCapital":false,"pk":null,"quiz":"asia","code":null,"archived":false,"percentageOfSessions":null}, {"name":"907 км","state":"Kirov","territory":"","country":"Russia","latitude":58.3746535,"longitude":48.9396232,"population":0,"stateCapital":false,"nationalCapital":false,"pk":null,"quiz":"asia","code":null,"archived":false,"percentageOfSessions":null}, {"name":"92 км","state":"Kirov","territory":"","country":"Russia","latitude":58.9291091,"longitude":52.3685432,"population":5,"stateCapital":false,"nationalCapital":false,"pk":null,"quiz":"asia","code":null,"archived":false,"percentageOfSessions":null}, {"name":"932 км","state":"Kirov","territory":"","country":"Russia","latitude":58.4708687,"longitude":49.308763,"population":0,"stateCapital":false,"nationalCapital":false,"pk":null,"quiz":"asia","code":null,"archived":false,"percentageOfSessions":null}, {"name":"978 км","state":"Kirov","territory":"","country":"Russia","latitude":58.470266,"longitude":49.8303826,"population":8,"stateCapital":false,"nationalCapital":false,"pk":null,"quiz":"asia","code":null,"archived":false,"percentageOfSessions":null}, {"name":"N 1","state":"Kirov","territory":"","country":"Russia","latitude":58.4356395,"longitude":50.2205517,"population":1,"stateCapital":false,"nationalCapital":false,"pk":null,"quiz":"asia","code":null,"archived":false,"percentageOfSessions":null}, {"name":"Абдалы","state":"Kirov","territory":"","country":"Russia","latitude":58.6419988,"longitude":49.9132648,"population":4,"stateCapital":false,"nationalCapital":false,"pk":null,"quiz":"asia","code":null,"archived":false,"percentageOfSessions":null}, {"name":"Абрамово","state":"Kirov","territory":"","country":"Russia","latitude":57.1577,"longitude":47.057243,"population":73,"stateCapital":false,"nationalCapital":false,"pk":null,"quiz":"asia","code":null,"archived":false,"percentageOfSessions":null}, {"name":"Абрамово","state":"Kirov","territory":"","country":"Russia","latitude":57.1572729,"longitude":46.8606915,"population":0,"stateCapital":false,"nationalCapital":false,"pk":null,"quiz":"asia","code":null,"archived":false,"percentageOfSessions":null}, {"name":"Абросенки","state":"Kirov","territory":"","country":"Russia","latitude":58.4930808,"longitude":51.2146699,"population":10,"stateCapital":false,"nationalCapital":false,"pk":null,"quiz":"asia","code":null,"archived":false,"percentageOfSessions":null}, {"name":"Абросимовцы","state":"Kirov","territory":"","country":"Russia","latitude":58.9816868,"longitude":50.076435,"population":1,"stateCapital":false,"nationalCapital":false,"pk":null,"quiz":"asia","code":null,"archived":false,"percentageOfSessions":null}, {"name":"Аверины","state":"Kirov","territory":"","country":"Russia","latitude":58.830257,"longitude":53.304661,"population":80,"stateCapital":false,"nationalCapital":false,"pk":null,"quiz":"asia","code":null,"archived":false,"percentageOfSessions":null}, {"name":"Агалаченки","state":"Kirov","territory":"","country":"Russia","latitude":58.9224125,"longitude":49.1034865,"population":19,"stateCapital":false,"nationalCapital":false,"pk":null,"quiz":"asia","code":null,"archived":false,"percentageOfSessions":null}, {"name":"Агапиха","state":"Kirov","territory":"","country":"Russia","latitude":58.6205444,"longitude":48.9325748,"population":0,"stateCapital":false,"nationalCapital":false,"pk":null,"quiz":"asia","code":null,"archived":false,"percentageOfSessions":null}, {"name":"Агафоново","state":"Kirov","territory":"","country":"Russia","latitude":56.9381341,"longitude":46.9199427,"population":0,"stateCapital":false,"nationalCapital":false,"pk":null,"quiz":"asia","code":null,"archived":false,"percentageOfSessions":null}, {"name":"Агеево","state":"Kirov","territory":"","country":"Russia","latitude":56.8404228,"longitude":47.2569862,"population":24,"stateCapital":false,"nationalCapital":false,"pk":null,"quiz":"asia","code":null,"archived":false,"percentageOfSessions":null}, {"name":"Агеево","state":"Kirov","territory":"","country":"Russia","latitude":59.160942,"longitude":49.905655,"population":0,"stateCapital":false,"nationalCapital":false,"pk":null,"quiz":"asia","code":null,"archived":false,"percentageOfSessions":null}, {"name":"Агельдино","state":"Kirov","territory":"","country":"Russia","latitude":56.5318065,"longitude":50.875279,"population":10,"stateCapital":false,"nationalCapital":false,"pk":null,"quiz":"asia","code":null,"archived":false,"percentageOfSessions":null}, {"name":"Аг-Юл","state":"Kirov","territory":"","country":"Russia","latitude":56.4801185,"longitude":51.1348892,"population":2,"stateCapital":false,"nationalCapital":false,"pk":null,"quiz":"asia","code":null,"archived":false,"percentageOfSessions":null}, {"name":"Аджим","state":"Kirov","territory":"","country":"Russia","latitude":56.739207,"longitude":50.2684362,"population":475,"stateCapital":false,"nationalCapital":false,"pk":null,"quiz":"asia","code":null,"archived":false,"percentageOfSessions":null}, {"name":"Адово","state":"Kirov","territory":"","country":"Russia","latitude":57.228548,"longitude":49.6590333,"population":204,"stateCapital":false,"nationalCapital":false,"pk":null,"quiz":"asia","code":null,"archived":false,"percentageOfSessions":null}, {"name":"Адовщина","state":"Kirov","territory":"","country":"Russia","latitude":58.314754,"longitude":47.505784,"population":5,"stateCapital":false,"nationalCapital":false,"pk":null,"quiz":"asia","code":null,"archived":false,"percentageOfSessions":null}, {"name":"Адышево","state":"Kirov","territory":"","country":"Russia","latitude":58.3406758,"longitude":49.4886662,"population":1111,"stateCapital":false,"nationalCapital":false,"pk":null,"quiz":"asia","code":null,"archived":false,"percentageOfSessions":null}, {"name":"Ажваж","state":"Kirov","territory":"","country":"Russia","latitude":58.1616081,"longitude":47.0764678,"population":0,"stateCapital":false,"nationalCapital":false,"pk":null,"quiz":"asia","code":null,"archived":false,"percentageOfSessions":null}, {"name":"Азансола","state":"Kirov","territory":"","country":"Russia","latitude":57.5883919,"longitude":47.9800633,"population":72,"stateCapital":false,"nationalCapital":false,"pk":null,"quiz":"asia","code":null,"archived":false,"percentageOfSessions":null}, {"name":"Азбаев Ключ","state":"Kirov","territory":"","country":"Russia","latitude":56.558392,"longitude":50.9705323,"population":2,"stateCapital":false,"nationalCapital":false,"pk":null,"quiz":"asia","code":null,"archived":false,"percentageOfSessions":null}, {"name":"Азелино","state":"Kirov","territory":"","country":"Russia","latitude":56.5163,"longitude":50.590199,"population":42,"stateCapital":false,"nationalCapital":false,"pk":null,"quiz":"asia","code":null,"archived":false,"percentageOfSessions":null}, {"name":"Азиково","state":"Kirov","territory":"","country":"Russia","latitude":56.7889084,"longitude":51.417067,"population":226,"stateCapital":false,"nationalCapital":false,"pk":null,"quiz":"asia","code":null,"archived":false,"percentageOfSessions":null}, {"name":"Акбатырево","state":"Kirov","territory":"","country":"Russia","latitude":56.375099,"longitude":50.731899,"population":88,"stateCapital":false,"nationalCapital":false,"pk":null,"quiz":"asia","code":null,"archived":false,"percentageOfSessions":null}, {"name":"Акиловская","state":"Kirov","territory":"","country":"Russia","latitude":58.9474062,"longitude":53.426265,"population":0,"stateCapital":false,"nationalCapital":false,"pk":null,"quiz":"asia","code":null,"archived":false,"percentageOfSessions":null}, {"name":"Акмазики","state":"Kirov","territory":"","country":"Russia","latitude":56.9425705,"longitude":50.3226436,"population":11,"stateCapital":false,"nationalCapital":false,"pk":null,"quiz":"asia","code":null,"archived":false,"percentageOfSessions":null}, {"name":"Акмазики","state":"Kirov","territory":"","country":"Russia","latitude":57.2592948,"longitude":47.901936,"population":0,"stateCapital":false,"nationalCapital":false,"pk":null,"quiz":"asia","code":null,"archived":false,"percentageOfSessions":null}, {"name":"Аксеново","state":"Kirov","territory":"","country":"Russia","latitude":58.7019807,"longitude":53.3955127,"population":12,"stateCapital":false,"nationalCapital":false,"pk":null,"quiz":"asia","code":null,"archived":false,"percentageOfSessions":null}, {"name":"Аксеново","state":"Kirov","territory":"","country":"Russia","latitude":57.394016,"longitude":47.486092,"population":0,"stateCapital":false,"nationalCapital":false,"pk":null,"quiz":"asia","code":null,"archived":false,"percentageOfSessions":null}, {"name":"Аксеново","state":"Kirov","territory":"","country":"Russia","latitude":57.8280764,"longitude":48.7742646,"population":2,"stateCapital":false,"nationalCapital":false,"pk":null,"quiz":"asia","code":null,"archived":false,"percentageOfSessions":null}, {"name":"Аксеновская","state":"Kirov","territory":"","country":"Russia","latitude":60.7093775,"longitude":47.9480222,"population":49,"stateCapital":false,"nationalCapital":false,"pk":null,"quiz":"asia","code":null,"archived":false,"percentageOfSessions":null}, {"name":"Актаиха","state":"Kirov","territory":"","country":"Russia","latitude":56.8240817,"longitude":47.1610275,"population":0,"stateCapital":false,"nationalCapital":false,"pk":null,"quiz":"asia","code":null,"archived":false,"percentageOfSessions":null}, {"name":"Актыгашево","state":"Kirov","territory":"","country":"Russia","latitude":56.9335518,"longitude":50.1910307,"population":84,"stateCapital":false,"nationalCapital":false,"pk":null,"quiz":"asia","code":null,"archived":false,"percentageOfSessions":null}, {"name":"Актюба","state":"Kirov","territory":"","country":"Russia","latitude":56.588241,"longitude":50.7484407,"population":57,"stateCapital":false,"nationalCapital":false,"pk":null,"quiz":"asia","code":null,"archived":false,"percentageOfSessions":null}, {"name":"Алдарово","state":"Kirov","territory":"","country":"Russia","latitude":56.3692898,"longitude":50.6332077,"population":103,"stateCapital":false,"nationalCapital":false,"pk":null,"quiz":"asia","code":null,"archived":false,"percentageOfSessions":null}, {"name":"Алебино","state":"Kirov","territory":"","country":"Russia","latitude":60.3211624,"longitude":47.0757283,"population":0,"stateCapital":false,"nationalCapital":false,"pk":null,"quiz":"asia","code":null,"archived":false,"percentageOfSessions":null}, {"name":"Александрово","state":"Kirov","territory":"","country":"Russia","latitude":60.7609117,"longitude":47.5883966,"population":3,"stateCapital":false,"nationalCapital":false,"pk":null,"quiz":"asia","code":null,"archived":false,"percentageOfSessions":null}, {"name":"Александровский","state":"Kirov","territory":"","country":"Russia","latitude":56.9834896,"longitude":47.1070614,"population":0,"stateCapital":false,"nationalCapital":false,"pk":null,"quiz":"asia","code":null,"archived":false,"percentageOfSessions":null}, {"name":"Александровский","state":"Kirov","territory":"","country":"Russia","latitude":57.5003732,"longitude":49.6341501,"population":0,"stateCapital":false,"nationalCapital":false,"pk":null,"quiz":"asia","code":null,"archived":false,"percentageOfSessions":null}, {"name":"Александровский","state":"Kirov","territory":"","country":"Russia","latitude":56.9834896,"longitude":47.1070614,"population":12,"stateCapital":false,"nationalCapital":false,"pk":null,"quiz":"asia","code":null,"archived":false,"percentageOfSessions":null}, {"name":"Александровский","state":"Kirov","territory":"","country":"Russia","latitude":57.1828215,"longitude":49.7475142,"population":8,"stateCapital":false,"nationalCapital":false,"pk":null,"quiz":"asia","code":null,"archived":false,"percentageOfSessions":null}, {"name":"Александровское","state":"Kirov","territory":"","country":"Russia","latitude":58.8335492,"longitude":47.3905287,"population":151,"stateCapital":false,"nationalCapital":false,"pk":null,"quiz":"asia","code":null,"archived":false,"percentageOfSessions":null}, {"name":"Александровское","state":"Kirov","territory":"","country":"Russia","latitude":58.2587006,"longitude":47.9674802,"population":325,"stateCapital":false,"nationalCapital":false,"pk":null,"quiz":"asia","code":null,"archived":false,"percentageOfSessions":null}, {"name":"Алексаны","state":"Kirov","territory":"","country":"Russia","latitude":58.2143252,"longitude":48.3099728,"population":0,"stateCapital":false,"nationalCapital":false,"pk":null,"quiz":"asia","code":null,"archived":false,"percentageOfSessions":null}, {"name":"Алексеево","state":"Kirov","territory":"","country":"Russia","latitude":58.63666,"longitude":50.4676121,"population":1,"stateCapital":false,"nationalCapital":false,"pk":null,"quiz":"asia","code":null,"archived":false,"percentageOfSessions":null}, {"name":"Алексеевское","state":"Kirov","territory":"","country":"Russia","latitude":59.2841508,"longitude":48.765208,"population":0,"stateCapital":false,"nationalCapital":false,"pk":null,"quiz":"asia","code":null,"archived":false,"percentageOfSessions":null}, {"name":"Алексеиха","state":"Kirov","territory":"","country":"Russia","latitude":56.9034665,"longitude":47.3823848,"population":202,"stateCapital":false,"nationalCapital":false,"pk":null,"quiz":"asia","code":null,"archived":false,"percentageOfSessions":null}, {"name":"Аленкино","state":"Kirov","territory":"","country":"Russia","latitude":60.6315672,"longitude":47.7519635,"population":0,"stateCapital":false,"nationalCapital":false,"pk":null,"quiz":"asia","code":null,"archived":false,"percentageOfSessions":null}, {"name":"Алехино","state":"Kirov","territory":"","country":"Russia","latitude":57.4218073,"longitude":48.3159031,"population":20,"stateCapital":false,"nationalCapital":false,"pk":null,"quiz":"asia","code":null,"archived":false,"percentageOfSessions":null}, {"name":"Алешата","state":"Kirov","territory":"","country":"Russia","latitude":58.4486144,"longitude":53.4665496,"population":26,"stateCapital":false,"nationalCapital":false,"pk":null,"quiz":"asia","code":null,"archived":false,"percentageOfSessions":null}, {"name":"Алешево","state":"Kirov","territory":"","country":"Russia","latitude":60.6047495,"longitude":47.8862064,"population":2,"stateCapital":false,"nationalCapital":false,"pk":null,"quiz":"asia","code":null,"archived":false,"percentageOfSessions":null}, {"name":"Алешкино","state":"Kirov","territory":"","country":"Russia","latitude":57.444702,"longitude":48.104301,"population":3,"stateCapital":false,"nationalCapital":false,"pk":null,"quiz":"asia","code":null,"archived":false,"percentageOfSessions":null}, {"name":"Алешкины","state":"Kirov","territory":"","country":"Russia","latitude":59.0463358,"longitude":53.2658905,"population":45,"stateCapital":false,"nationalCapital":false,"pk":null,"quiz":"asia","code":null,"archived":false,"percentageOfSessions":null}, {"name":"Алешонки","state":"Kirov","territory":"","country":"Russia","latitude":59.1347664,"longitude":48.1465314,"population":1,"stateCapital":false,"nationalCapital":false,"pk":null,"quiz":"asia","code":null,"archived":false,"percentageOfSessions":null}, {"name":"Алинерь","state":"Kirov","territory":"","country":"Russia","latitude":56.7466653,"longitude":50.7612561,"population":1,"stateCapital":false,"nationalCapital":false,"pk":null,"quiz":"asia","code":null,"archived":false,"percentageOfSessions":null}, {"name":"Алыповцы","state":"Kirov","territory":"","country":"Russia","latitude":57.7688342,"longitude":51.4775181,"population":114,"stateCapital":false,"nationalCapital":false,"pk":null,"quiz":"asia","code":null,"archived":false,"percentageOfSessions":null}, {"name":"Альмеж","state":"Kirov","territory":"","country":"Russia","latitude":60.055228,"longitude":48.0335037,"population":438,"stateCapital":false,"nationalCapital":false,"pk":null,"quiz":"asia","code":null,"archived":false,"percentageOfSessions":null}, {"name":"Амур","state":"Kirov","territory":"","country":"Russia","latitude":58.671299,"longitude":50.524391,"population":0,"stateCapital":false,"nationalCapital":false,"pk":null,"quiz":"asia","code":null,"archived":false,"percentageOfSessions":null}, {"name":"Ананино","state":"Kirov","territory":"","country":"Russia","latitude":60.2223631,"longitude":47.1128642,"population":7,"stateCapital":false,"nationalCapital":false,"pk":null,"quiz":"asia","code":null,"archived":false,"percentageOfSessions":null}, {"name":"Андреева Гора","state":"Kirov","territory":"","country":"Russia","latitude":60.4700429,"longitude":48.1944084,"population":58,"stateCapital":false,"nationalCapital":false,"pk":null,"quiz":"asia","code":null,"archived":false,"percentageOfSessions":null}, {"name":"Андреево","state":"Kirov","territory":"","country":"Russia","latitude":57.4675685,"longitude":48.379795,"population":43,"stateCapital":false,"nationalCapital":false,"pk":null,"quiz":"asia","code":null,"archived":false,"percentageOfSessions":null}, {"name":"Андреевский","state":"Kirov","territory":"","country":"Russia","latitude":57.1723004,"longitude":49.8720344,"population":549,"stateCapital":false,"nationalCapital":false,"pk":null,"quiz":"asia","code":null,"archived":false,"percentageOfSessions":null}, {"name":"Андриенки","state":"Kirov","territory":"","country":"Russia","latitude":58.711215,"longitude":53.676362,"population":12,"stateCapital":false,"nationalCapital":false,"pk":null,"quiz":"asia","code":null,"archived":false,"percentageOfSessions":null}, {"name":"Андрияхи","state":"Kirov","territory":"","country":"Russia","latitude":57.542103,"longitude":47.357296,"population":2,"stateCapital":false,"nationalCapital":false,"pk":null,"quiz":"asia","code":null,"archived":false,"percentageOfSessions":null}, {"name":"Андрюшкино","state":"Kirov","territory":"","country":"Russia","latitude":57.098133,"longitude":50.9411821,"population":48,"stateCapital":false,"nationalCapital":false,"pk":null,"quiz":"asia","code":null,"archived":false,"percentageOfSessions":null}, {"name":"Аникинцы","state":"Kirov","territory":"","country":"Russia","latitude":58.0473074,"longitude":49.7927859,"population":3,"stateCapital":false,"nationalCapital":false,"pk":null,"quiz":"asia","code":null,"archived":false,"percentageOfSessions":null}, {"name":"Аникинцы","state":"Kirov","territory":"","country":"Russia","latitude":59.3737282,"longitude":50.9229262,"population":3,"stateCapital":false,"nationalCapital":false,"pk":null,"quiz":"asia","code":null,"archived":false,"percentageOfSessions":null}, {"name":"Аникинцы","state":"Kirov","territory":"","country":"Russia","latitude":59.3737282,"longitude":50.9229262,"population":19,"stateCapital":false,"nationalCapital":false,"pk":null,"quiz":"asia","code":null,"archived":false,"percentageOfSessions":null}, {"name":"Аникинцы","state":"Kirov","territory":"","country":"Russia","latitude":58.613533,"longitude":52.437801,"population":5,"stateCapital":false,"nationalCapital":false,"pk":null,"quiz":"asia","code":null,"archived":false,"percentageOfSessions":null}, {"name":"Аникины","state":"Kirov","territory":"","country":"Russia","latitude":58.5810465,"longitude":48.2703512,"population":23,"stateCapital":false,"nationalCapital":false,"pk":null,"quiz":"asia","code":null,"archived":false,"percentageOfSessions":null}, {"name":"Аннинский","state":"Kirov","territory":"","country":"Russia","latitude":56.976135,"longitude":47.13279,"population":0,"stateCapital":false,"nationalCapital":false,"pk":null,"quiz":"asia","code":null,"archived":false,"percentageOfSessions":null}, {"name":"Анохинцы","state":"Kirov","territory":"","country":"Russia","latitude":58.018063,"longitude":50.210663,"population":0,"stateCapital":false,"nationalCapital":false,"pk":null,"quiz":"asia","code":null,"archived":false,"percentageOfSessions":null}, {"name":"Антаки","state":"Kirov","territory":"","country":"Russia","latitude":57.751728,"longitude":48.6777,"population":0,"stateCapital":false,"nationalCapital":false,"pk":null,"quiz":"asia","code":null,"archived":false,"percentageOfSessions":null}, {"name":"Антамоново","state":"Kirov","territory":"","country":"Russia","latitude":60.2148833,"longitude":47.4205206,"population":4,"stateCapital":false,"nationalCapital":false,"pk":null,"quiz":"asia","code":null,"archived":false,"percentageOfSessions":null}, {"name":"Антипенки","state":"Kirov","territory":"","country":"Russia","latitude":57.712238,"longitude":47.982464,"population":3,"stateCapital":false,"nationalCapital":false,"pk":null,"quiz":"asia","code":null,"archived":false,"percentageOfSessions":null}, {"name":"Антипино","state":"Kirov","territory":"","country":"Russia","latitude":60.571899,"longitude":48.0761176,"population":16,"stateCapital":false,"nationalCapital":false,"pk":null,"quiz":"asia","code":null,"archived":false,"percentageOfSessions":null}, {"name":"Антипино","state":"Kirov","territory":"","country":"Russia","latitude":60.1448588,"longitude":46.5991918,"population":16,"stateCapital":false,"nationalCapital":false,"pk":null,"quiz":"asia","code":null,"archived":false,"percentageOfSessions":null}, {"name":"Антипино","state":"Kirov","territory":"","country":"Russia","latitude":57.0025605,"longitude":47.3027857,"population":102,"stateCapital":false,"nationalCapital":false,"pk":null,"quiz":"asia","code":null,"archived":false,"percentageOfSessions":null}, {"name":"Антипята","state":"Kirov","territory":"","country":"Russia","latitude":59.2277348,"longitude":51.1255902,"population":9,"stateCapital":false,"nationalCapital":false,"pk":null,"quiz":"asia","code":null,"archived":false,"percentageOfSessions":null}, {"name":"Антоненки","state":"Kirov","territory":"","country":"Russia","latitude":58.4990872,"longitude":53.6279653,"population":7,"stateCapital":false,"nationalCapital":false,"pk":null,"quiz":"asia","code":null,"archived":false,"percentageOfSessions":null}, {"name":"Антонково","state":"Kirov","territory":"","country":"Russia","latitude":57.1515888,"longitude":50.0284778,"population":226,"stateCapital":false,"nationalCapital":false,"pk":null,"quiz":"asia","code":null,"archived":false,"percentageOfSessions":null}, {"name":"Антоновцы","state":"Kirov","territory":"","country":"Russia","latitude":57.65265,"longitude":51.5094806,"population":16,"stateCapital":false,"nationalCapital":false,"pk":null,"quiz":"asia","code":null,"archived":false,"percentageOfSessions":null}, {"name":"Антошонки","state":"Kirov","territory":"","country":"Russia","latitude":58.8854101,"longitude":48.033997,"population":2,"stateCapital":false,"nationalCapital":false,"pk":null,"quiz":"asia","code":null,"archived":false,"percentageOfSessions":null}, {"name":"Антропово","state":"Kirov","territory":"","country":"Russia","latitude":57.4688476,"longitude":48.3957759,"population":29,"stateCapital":false,"nationalCapital":false,"pk":null,"quiz":"asia","code":null,"archived":false,"percentageOfSessions":null}, {"name":"Антюшевская","state":"Kirov","territory":"","country":"Russia","latitude":60.618475,"longitude":47.1752595,"population":6,"stateCapital":false,"nationalCapital":false,"pk":null,"quiz":"asia","code":null,"archived":false,"percentageOfSessions":null}, {"name":"Анфалово","state":"Kirov","territory":"","country":"Russia","latitude":60.3323318,"longitude":47.084083,"population":2,"stateCapital":false,"nationalCapital":false,"pk":null,"quiz":"asia","code":null,"archived":false,"percentageOfSessions":null}, {"name":"Анфиногеново","state":"Kirov","territory":"","country":"Russia","latitude":58.7603068,"longitude":53.3412203,"population":10,"stateCapital":false,"nationalCapital":false,"pk":null,"quiz":"asia","code":null,"archived":false,"percentageOfSessions":null}, {"name":"Арбаж","state":"Kirov","territory":"","country":"Russia","latitude":57.6793484,"longitude":48.3035946,"population":3563,"stateCapital":false,"nationalCapital":false,"pk":null,"quiz":"asia","code":null,"archived":false,"percentageOfSessions":null}, {"name":"Аргыж","state":"Kirov","territory":"","country":"Russia","latitude":56.6625206,"longitude":50.7434182,"population":21,"stateCapital":false,"nationalCapital":false,"pk":null,"quiz":"asia","code":null,"archived":false,"percentageOfSessions":null}, {"name":"Ардашевский","state":"Kirov","territory":"","country":"Russia","latitude":58.1849248,"longitude":50.685267,"population":132,"stateCapital":false,"nationalCapital":false,"pk":null,"quiz":"asia","code":null,"archived":false,"percentageOfSessions":null}, {"name":"Ардаши","state":"Kirov","territory":"","country":"Russia","latitude":58.4614914,"longitude":50.6374499,"population":36,"stateCapital":false,"nationalCapital":false,"pk":null,"quiz":"asia","code":null,"archived":false,"percentageOfSessions":null}, {"name":"Ардаши","state":"Kirov","territory":"","country":"Russia","latitude":58.4614914,"longitude":50.6374499,"population":174,"stateCapital":false,"nationalCapital":false,"pk":null,"quiz":"asia","code":null,"archived":false,"percentageOfSessions":null}, {"name":"Ардашиха","state":"Kirov","territory":"","country":"Russia","latitude":58.146986,"longitude":50.2184279,"population":348,"stateCapital":false,"nationalCapital":false,"pk":null,"quiz":"asia","code":null,"archived":false,"percentageOfSessions":null}, {"name":"Ардичи","state":"Kirov","territory":"","country":"Russia","latitude":58.8856512,"longitude":49.0621141,"population":4,"stateCapital":false,"nationalCapital":false,"pk":null,"quiz":"asia","code":null,"archived":false,"percentageOfSessions":null}, {"name":"Аркуль","state":"Kirov","territory":"","country":"Russia","latitude":56.9357565,"longitude":50.7580197,"population":15,"stateCapital":false,"nationalCapital":false,"pk":null,"quiz":"asia","code":null,"archived":false,"percentageOfSessions":null}, {"name":"Аркуль","state":"Kirov","territory":"","country":"Russia","latitude":57.2788793,"longitude":50.0422837,"population":2053,"stateCapital":false,"nationalCapital":false,"pk":null,"quiz":"asia","code":null,"archived":false,"percentageOfSessions":null}, {"name":"Аркульский","state":"Kirov","territory":"","country":"Russia","latitude":56.9772034,"longitude":50.7808388,"population":155,"stateCapital":false,"nationalCapital":false,"pk":null,"quiz":"asia","code":null,"archived":false,"percentageOfSessions":null}, {"name":"Арламуаш","state":"Kirov","territory":"","country":"Russia","latitude":57.2302712,"longitude":48.2686116,"population":3,"stateCapital":false,"nationalCapital":false,"pk":null,"quiz":"asia","code":null,"archived":false,"percentageOfSessions":null}, {"name":"Арпорек","state":"Kirov","territory":"","country":"Russia","latitude":56.8178475,"longitude":50.5256109,"population":156,"stateCapital":false,"nationalCapital":false,"pk":null,"quiz":"asia","code":null,"archived":false,"percentageOfSessions":null}, {"name":"Арсеменки","state":"Kirov","territory":"","country":"Russia","latitude":58.9704099,"longitude":48.0947674,"population":2,"stateCapital":false,"nationalCapital":false,"pk":null,"quiz":"asia","code":null,"archived":false,"percentageOfSessions":null}, {"name":"Арситово","state":"Kirov","territory":"","country":"Russia","latitude":56.9820896,"longitude":47.4357898,"population":93,"stateCapital":false,"nationalCapital":false,"pk":null,"quiz":"asia","code":null,"archived":false,"percentageOfSessions":null}, {"name":"Арское","state":"Kirov","territory":"","country":"Russia","latitude":57.4829793,"longitude":50.2960663,"population":47,"stateCapital":false,"nationalCapital":false,"pk":null,"quiz":"asia","code":null,"archived":false,"percentageOfSessions":null}, {"name":"Артеково","state":"Kirov","territory":"","country":"Russia","latitude":57.4739857,"longitude":48.0056796,"population":3,"stateCapital":false,"nationalCapital":false,"pk":null,"quiz":"asia","code":null,"archived":false,"percentageOfSessions":null}, {"name":"Артемейка","state":"Kirov","territory":"","country":"Russia","latitude":57.3756197,"longitude":48.4354891,"population":14,"stateCapital":false,"nationalCapital":false,"pk":null,"quiz":"asia","code":null,"archived":false,"percentageOfSessions":null}, {"name":"Архангельское","state":"Kirov","territory":"","country":"Russia","latitude":57.6342499,"longitude":50.1973782,"population":1082,"stateCapital":false,"nationalCapital":false,"pk":null,"quiz":"asia","code":null,"archived":false,"percentageOfSessions":null}, {"name":"Архангельское","state":"Kirov","territory":"","country":"Russia","latitude":57.1277196,"longitude":49.8319198,"population":29,"stateCapital":false,"nationalCapital":false,"pk":null,"quiz":"asia","code":null,"archived":false,"percentageOfSessions":null}, {"name":"Архангельское","state":"Kirov","territory":"","country":"Russia","latitude":58.5434866,"longitude":46.8995122,"population":325,"stateCapital":false,"nationalCapital":false,"pk":null,"quiz":"asia","code":null,"archived":false,"percentageOfSessions":null}, {"name":"Архипенки","state":"Kirov","territory":"","country":"Russia","latitude":58.1542792,"longitude":48.1808866,"population":2,"stateCapital":false,"nationalCapital":false,"pk":null,"quiz":"asia","code":null,"archived":false,"percentageOfSessions":null}, {"name":"Архипята","state":"Kirov","territory":"","country":"Russia","latitude":58.962322,"longitude":53.531353,"population":210,"stateCapital":false,"nationalCapital":false,"pk":null,"quiz":"asia","code":null,"archived":false,"percentageOfSessions":null}, {"name":"Арык","state":"Kirov","territory":"","country":"Russia","latitude":56.5892254,"longitude":50.8251569,"population":322,"stateCapital":false,"nationalCapital":false,"pk":null,"quiz":"asia","code":null,"archived":false,"percentageOfSessions":null}, {"name":"Астраповцы","state":"Kirov","territory":"","country":"Russia","latitude":58.2615329,"longitude":49.3842214,"population":5,"stateCapital":false,"nationalCapital":false,"pk":null,"quiz":"asia","code":null,"archived":false,"percentageOfSessions":null}, {"name":"Астраханово","state":"Kirov","territory":"","country":"Russia","latitude":56.9326394,"longitude":50.7076887,"population":25,"stateCapital":false,"nationalCapital":false,"pk":null,"quiz":"asia","code":null,"archived":false,"percentageOfSessions":null}, {"name":"Астрахань","state":"Kirov","territory":"","country":"Russia","latitude":57.8237694,"longitude":51.2602306,"population":246,"stateCapital":false,"nationalCapital":false,"pk":null,"quiz":"asia","code":null,"archived":false,"percentageOfSessions":null}, {"name":"Атары","state":"Kirov","territory":"","country":"Russia","latitude":57.5009,"longitude":48.911823,"population":22,"stateCapital":false,"nationalCapital":false,"pk":null,"quiz":"asia","code":null,"archived":false,"percentageOfSessions":null}, {"name":"Афанасьево","state":"Kirov","territory":"","country":"Russia","latitude":58.865421,"longitude":53.26273,"population":3435,"stateCapital":false,"nationalCapital":false,"pk":null,"quiz":"asia","code":null,"archived":false,"percentageOfSessions":null}, {"name":"Афанасьевцы","state":"Kirov","territory":"","country":"Russia","latitude":57.6908124,"longitude":51.2741861,"population":141,"stateCapital":false,"nationalCapital":false,"pk":null,"quiz":"asia","code":null,"archived":false,"percentageOfSessions":null}, {"name":"Афонята","state":"Kirov","territory":"","country":"Russia","latitude":59.339012,"longitude":52.950626,"population":101,"stateCapital":false,"nationalCapital":false,"pk":null,"quiz":"asia","code":null,"archived":false,"percentageOfSessions":null}, {"name":"Ахманово","state":"Kirov","territory":"","country":"Russia","latitude":57.3655587,"longitude":48.5032828,"population":421,"stateCapital":false,"nationalCapital":false,"pk":null,"quiz":"asia","code":null,"archived":false,"percentageOfSessions":null}, {"name":"Ахмоличи","state":"Kirov","territory":"","country":"Russia","latitude":57.4271936,"longitude":47.5299221,"population":2,"stateCapital":false,"nationalCapital":false,"pk":null,"quiz":"asia","code":null,"archived":false,"percentageOfSessions":null}, {"name":"Ахпай","state":"Kirov","territory":"","country":"Russia","latitude":56.4413,"longitude":50.8729,"population":43,"stateCapital":false,"nationalCapital":false,"pk":null,"quiz":"asia","code":null,"archived":false,"percentageOfSessions":null}, {"name":"Ацвеж","state":"Kirov","territory":"","country":"Russia","latitude":58.2815651,"longitude":47.9320084,"population":20,"stateCapital":false,"nationalCapital":false,"pk":null,"quiz":"asia","code":null,"archived":false,"percentageOfSessions":null}, {"name":"Ацвеж","state":"Kirov","territory":"","country":"Russia","latitude":58.3403412,"longitude":47.7557075,"population":145,"stateCapital":false,"nationalCapital":false,"pk":null,"quiz":"asia","code":null,"archived":false,"percentageOfSessions":null}, {"name":"Ашеево","state":"Kirov","territory":"","country":"Russia","latitude":57.6235558,"longitude":47.8430836,"population":0,"stateCapital":false,"nationalCapital":false,"pk":null,"quiz":"asia","code":null,"archived":false,"percentageOfSessions":null}, {"name":"Ашланы","state":"Kirov","territory":"","country":"Russia","latitude":58.271914,"longitude":47.640216,"population":14,"stateCapital":false,"nationalCapital":false,"pk":null,"quiz":"asia","code":null,"archived":false,"percentageOfSessions":null}, {"name":"Ашлань","state":"Kirov","territory":"","country":"Russia","latitude":56.9881022,"longitude":49.9543161,"population":203,"stateCapital":false,"nationalCapital":false,"pk":null,"quiz":"asia","code":null,"archived":false,"percentageOfSessions":null}, {"name":"Бабаевская","state":"Kirov","territory":"","country":"Russia","latitude":60.3814431,"longitude":48.4305984,"population":3,"stateCapital":false,"nationalCapital":false,"pk":null,"quiz":"asia","code":null,"archived":false,"percentageOfSessions":null}, {"name":"Бабино","state":"Kirov","territory":"","country":"Russia","latitude":57.3655836,"longitude":48.7471961,"population":44,"stateCapital":false,"nationalCapital":false,"pk":null,"quiz":"asia","code":null,"archived":false,"percentageOfSessions":null}, {"name":"Бабино","state":"Kirov","territory":"","country":"Russia","latitude":57.7710562,"longitude":50.1058954,"population":1,"stateCapital":false,"nationalCapital":false,"pk":null,"quiz":"asia","code":null,"archived":false,"percentageOfSessions":null}, {"name":"Бабичи","state":"Kirov","territory":"","country":"Russia","latitude":57.9362156,"longitude":48.9205924,"population":2,"stateCapital":false,"nationalCapital":false,"pk":null,"quiz":"asia","code":null,"archived":false,"percentageOfSessions":null}, {"name":"Бабичи","state":"Kirov","territory":"","country":"Russia","latitude":58.6006121,"longitude":49.9409168,"population":10,"stateCapital":false,"nationalCapital":false,"pk":null,"quiz":"asia","code":null,"archived":false,"percentageOfSessions":null}, {"name":"Бабкинцы","state":"Kirov","territory":"","country":"Russia","latitude":58.128949,"longitude":49.8860581,"population":0,"stateCapital":false,"nationalCapital":false,"pk":null,"quiz":"asia","code":null,"archived":false,"percentageOfSessions":null}, {"name":"Бабкинцы","state":"Kirov","territory":"","country":"Russia","latitude":58.128949,"longitude":49.8860581,"population":2,"stateCapital":false,"nationalCapital":false,"pk":null,"quiz":"asia","code":null,"archived":false,"percentageOfSessions":null}, {"name":"Багаевы","state":"Kirov","territory":"","country":"Russia","latitude":58.5456385,"longitude":48.6971085,"population":0,"stateCapital":false,"nationalCapital":false,"pk":null,"quiz":"asia","code":null,"archived":false,"percentageOfSessions":null}, {"name":"Багаи","state":"Kirov","territory":"","country":"Russia","latitude":57.877228,"longitude":48.511356,"population":0,"stateCapital":false,"nationalCapital":false,"pk":null,"quiz":"asia","code":null,"archived":false,"percentageOfSessions":null}, {"name":"Багей","state":"Kirov","territory":"","country":"Russia","latitude":57.697544,"longitude":51.354729,"population":0,"stateCapital":false,"nationalCapital":false,"pk":null,"quiz":"asia","code":null,"archived":false,"percentageOfSessions":null}, {"name":"Бадруженки","state":"Kirov","territory":"","country":"Russia","latitude":58.1907854,"longitude":49.9097939,"population":0,"stateCapital":false,"nationalCapital":false,"pk":null,"quiz":"asia","code":null,"archived":false,"percentageOfSessions":null}, {"name":"Бадьины","state":"Kirov","territory":"","country":"Russia","latitude":58.551968,"longitude":48.862465,"population":1,"stateCapital":false,"nationalCapital":false,"pk":null,"quiz":"asia","code":null,"archived":false,"percentageOfSessions":null}, {"name":"Бадья","state":"Kirov","territory":"","country":"Russia","latitude":60.8022657,"longitude":52.3689593,"population":7,"stateCapital":false,"nationalCapital":false,"pk":null,"quiz":"asia","code":null,"archived":false,"percentageOfSessions":null}, {"name":"Бажгалы","state":"Kirov","territory":"","country":"Russia","latitude":58.7092579,"longitude":50.283048,"population":10,"stateCapital":false,"nationalCapital":false,"pk":null,"quiz":"asia","code":null,"archived":false,"percentageOfSessions":null}, {"name":"Бажелка","state":"Kirov","territory":"","country":"Russia","latitude":59.4810871,"longitude":50.0650765,"population":305,"stateCapital":false,"nationalCapital":false,"pk":null,"quiz":"asia","code":null,"archived":false,"percentageOfSessions":null}, {"name":"Баженово","state":"Kirov","territory":"","country":"Russia","latitude":57.930702,"longitude":51.178761,"population":81,"stateCapital":false,"nationalCapital":false,"pk":null,"quiz":"asia","code":null,"archived":false,"percentageOfSessions":null}, {"name":"Бажино","state":"Kirov","territory":"","country":"Russia","latitude":57.352943,"longitude":46.999348,"population":27,"stateCapital":false,"nationalCapital":false,"pk":null,"quiz":"asia","code":null,"archived":false,"percentageOfSessions":null}, {"name":"Бажинцы","state":"Kirov","territory":"","country":"Russia","latitude":58.6832053,"longitude":50.0061253,"population":78,"stateCapital":false,"nationalCapital":false,"pk":null,"quiz":"asia","code":null,"archived":false,"percentageOfSessions":null}, {"name":"Баи","state":"Kirov","territory":"","country":"Russia","latitude":58.4484078,"longitude":50.560074,"population":16,"stateCapital":false,"nationalCapital":false,"pk":null,"quiz":"asia","code":null,"archived":false,"percentageOfSessions":null}, {"name":"Баи","state":"Kirov","territory":"","country":"Russia","latitude":58.056938,"longitude":51.3375317,"population":50,"stateCapital":false,"nationalCapital":false,"pk":null,"quiz":"asia","code":null,"archived":false,"percentageOfSessions":null}, {"name":"Байбеки","state":"Kirov","territory":"","country":"Russia","latitude":57.2038075,"longitude":50.8502537,"population":0,"stateCapital":false,"nationalCapital":false,"pk":null,"quiz":"asia","code":null,"archived":false,"percentageOfSessions":null}, {"name":"Байкалово","state":"Kirov","territory":"","country":"Russia","latitude":60.3391466,"longitude":47.1153952,"population":0,"stateCapital":false,"nationalCapital":false,"pk":null,"quiz":"asia","code":null,"archived":false,"percentageOfSessions":null}, {"name":"Баимово","state":"Kirov","territory":"","country":"Russia","latitude":57.3135482,"longitude":50.1388309,"population":28,"stateCapital":false,"nationalCapital":false,"pk":null,"quiz":"asia","code":null,"archived":false,"percentageOfSessions":null}, {"name":"Баимово","state":"Kirov","territory":"","country":"Russia","latitude":56.9139228,"longitude":47.2911008,"population":5,"stateCapital":false,"nationalCapital":false,"pk":null,"quiz":"asia","code":null,"archived":false,"percentageOfSessions":null}, {"name":"Байса","state":"Kirov","territory":"","country":"Russia","latitude":57.1973423,"longitude":49.5310663,"population":669,"stateCapital":false,"nationalCapital":false,"pk":null,"quiz":"asia","code":null,"archived":false,"percentageOfSessions":null}, {"name":"Бакалда","state":"Kirov","territory":"","country":"Russia","latitude":57.1714782,"longitude":47.8587181,"population":16,"stateCapital":false,"nationalCapital":false,"pk":null,"quiz":"asia","code":null,"archived":false,"percentageOfSessions":null}, {"name":"Бакалово","state":"Kirov","territory":"","country":"Russia","latitude":58.2716439,"longitude":48.1455386,"population":6,"stateCapital":false,"nationalCapital":false,"pk":null,"quiz":"asia","code":null,"archived":false,"percentageOfSessions":null}, {"name":"Бакичи","state":"Kirov","territory":"","country":"Russia","latitude":58.7664977,"longitude":49.3430088,"population":0,"stateCapital":false,"nationalCapital":false,"pk":null,"quiz":"asia","code":null,"archived":false,"percentageOfSessions":null}, {"name":"Бакули","state":"Kirov","territory":"","country":"Russia","latitude":58.695122,"longitude":50.191589,"population":126,"stateCapital":false,"nationalCapital":false,"pk":null,"quiz":"asia","code":null,"archived":false,"percentageOfSessions":null}, {"name":"Бакулины","state":"Kirov","territory":"","country":"Russia","latitude":58.518635,"longitude":49.155716,"population":11,"stateCapital":false,"nationalCapital":false,"pk":null,"quiz":"asia","code":null,"archived":false,"percentageOfSessions":null}, {"name":"Балабаново","state":"Kirov","territory":"","country":"Russia","latitude":57.2088147,"longitude":48.8194888,"population":0,"stateCapital":false,"nationalCapital":false,"pk":null,"quiz":"asia","code":null,"archived":false,"percentageOfSessions":null}, {"name":"Балабаны","state":"Kirov","territory":"","country":"Russia","latitude":58.617805,"longitude":49.82468,"population":3,"stateCapital":false,"nationalCapital":false,"pk":null,"quiz":"asia","code":null,"archived":false,"percentageOfSessions":null}, {"name":"Баланды","state":"Kirov","territory":"","country":"Russia","latitude":57.8115794,"longitude":48.2110714,"population":40,"stateCapital":false,"nationalCapital":false,"pk":null,"quiz":"asia","code":null,"archived":false,"percentageOfSessions":null}, {"name":"Балдино","state":"Kirov","territory":"","country":"Russia","latitude":57.3162827,"longitude":47.7609967,"population":2,"stateCapital":false,"nationalCapital":false,"pk":null,"quiz":"asia","code":null,"archived":false,"percentageOfSessions":null}, {"name":"Балезенки","state":"Kirov","territory":"","country":"Russia","latitude":58.2128211,"longitude":50.0160981,"population":0,"stateCapital":false,"nationalCapital":false,"pk":null,"quiz":"asia","code":null,"archived":false,"percentageOfSessions":null}, {"name":"Балезинщина","state":"Kirov","territory":"","country":"Russia","latitude":58.600117,"longitude":49.344494,"population":82,"stateCapital":false,"nationalCapital":false,"pk":null,"quiz":"asia","code":null,"archived":false,"percentageOfSessions":null}, {"name":"Банниковы","state":"Kirov","territory":"","country":"Russia","latitude":58.337166,"longitude":48.292484,"population":10,"stateCapital":false,"nationalCapital":false,"pk":null,"quiz":"asia","code":null,"archived":false,"percentageOfSessions":null}, {"name":"Банново","state":"Kirov","territory":"","country":"Russia","latitude":57.2157108,"longitude":48.1127492,"population":17,"stateCapital":false,"nationalCapital":false,"pk":null,"quiz":"asia","code":null,"archived":false,"percentageOfSessions":null}, {"name":"Банново 1-е","state":"Kirov","territory":"","country":"Russia","latitude":57.2818675,"longitude":47.9769486,"population":1,"stateCapital":false,"nationalCapital":false,"pk":null,"quiz":"asia","code":null,"archived":false,"percentageOfSessions":null}, {"name":"Бараки","state":"Kirov","territory":"","country":"Russia","latitude":58.863807,"longitude":47.6138161,"population":0,"stateCapital":false,"nationalCapital":false,"pk":null,"quiz":"asia","code":null,"archived":false,"percentageOfSessions":null}, {"name":"Барамзы","state":"Kirov","territory":"","country":"Russia","latitude":58.6354085,"longitude":49.7752128,"population":11,"stateCapital":false,"nationalCapital":false,"pk":null,"quiz":"asia","code":null,"archived":false,"percentageOfSessions":null}, {"name":"Барановка","state":"Kirov","territory":"","country":"Russia","latitude":59.376371,"longitude":51.9290684,"population":88,"stateCapital":false,"nationalCapital":false,"pk":null,"quiz":"asia","code":null,"archived":false,"percentageOfSessions":null}, {"name":"Бараново","state":"Kirov","territory":"","country":"Russia","latitude":57.3778144,"longitude":48.1716642,"population":54,"stateCapital":false,"nationalCapital":false,"pk":null,"quiz":"asia","code":null,"archived":false,"percentageOfSessions":null}, {"name":"Барановская","state":"Kirov","territory":"","country":"Russia","latitude":58.5466134,"longitude":49.3685216,"population":2,"stateCapital":false,"nationalCapital":false,"pk":null,"quiz":"asia","code":null,"archived":false,"percentageOfSessions":null}, {"name":"Барановщина","state":"Kirov","territory":"","country":"Russia","latitude":58.2047295,"longitude":49.5638102,"population":473,"stateCapital":false,"nationalCapital":false,"pk":null,"quiz":"asia","code":null,"archived":false,"percentageOfSessions":null}, {"name":"Барановщина","state":"Kirov","territory":"","country":"Russia","latitude":57.65583,"longitude":50.368648,"population":17,"stateCapital":false,"nationalCapital":false,"pk":null,"quiz":"asia","code":null,"archived":false,"percentageOfSessions":null}, {"name":"Барановщина","state":"Kirov","territory":"","country":"Russia","latitude":60.2049315,"longitude":47.6375542,"population":8,"stateCapital":false,"nationalCapital":false,"pk":null,"quiz":"asia","code":null,"archived":false,"percentageOfSessions":null}, {"name":"Барашки","state":"Kirov","territory":"","country":"Russia","latitude":57.721975,"longitude":51.061875,"population":152,"stateCapital":false,"nationalCapital":false,"pk":null,"quiz":"asia","code":null,"archived":false,"percentageOfSessions":null}, {"name":"Бардинская","state":"Kirov","territory":"","country":"Russia","latitude":59.624683,"longitude":52.531567,"population":1,"stateCapital":false,"nationalCapital":false,"pk":null,"quiz":"asia","code":null,"archived":false,"percentageOfSessions":null}, {"name":"Баринцы","state":"Kirov","territory":"","country":"Russia","latitude":58.403058,"longitude":50.1810811,"population":0,"stateCapital":false,"nationalCapital":false,"pk":null,"quiz":"asia","code":null,"archived":false,"percentageOfSessions":null}, {"name":"Баричи","state":"Kirov","territory":"","country":"Russia","latitude":58.2766234,"longitude":49.766934,"population":5,"stateCapital":false,"nationalCapital":false,"pk":null,"quiz":"asia","code":null,"archived":false,"percentageOfSessions":null}, {"name":"Бармаши","state":"Kirov","territory":"","country":"Russia","latitude":57.601051,"longitude":51.33559,"population":2,"stateCapital":false,"nationalCapital":false,"pk":null,"quiz":"asia","code":null,"archived":false,"percentageOfSessions":null}, {"name":"Барменки","state":"Kirov","territory":"","country":"Russia","latitude":58.1182685,"longitude":50.9790104,"population":14,"stateCapital":false,"nationalCapital":false,"pk":null,"quiz":"asia","code":null,"archived":false,"percentageOfSessions":null}, {"name":"Барменки","state":"Kirov","territory":"","country":"Russia","latitude":58.1182685,"longitude":50.9790104,"population":0,"stateCapital":false,"nationalCapital":false,"pk":null,"quiz":"asia","code":null,"archived":false,"percentageOfSessions":null}, {"name":"Бармино","state":"Kirov","territory":"","country":"Russia","latitude":56.3140914,"longitude":51.0050251,"population":0,"stateCapital":false,"nationalCapital":false,"pk":null,"quiz":"asia","code":null,"archived":false,"percentageOfSessions":null}, {"name":"Барминская","state":"Kirov","territory":"","country":"Russia","latitude":60.5822538,"longitude":47.2709657,"population":1,"stateCapital":false,"nationalCapital":false,"pk":null,"quiz":"asia","code":null,"archived":false,"percentageOfSessions":null}, {"name":"Бармята","state":"Kirov","territory":"","country":"Russia","latitude":58.4934181,"longitude":53.4646972,"population":26,"stateCapital":false,"nationalCapital":false,"pk":null,"quiz":"asia","code":null,"archived":false,"percentageOfSessions":null}, {"name":"Баруткино","state":"Kirov","territory":"","country":"Russia","latitude":57.3571088,"longitude":48.9593156,"population":16,"stateCapital":false,"nationalCapital":false,"pk":null,"quiz":"asia","code":null,"archived":false,"percentageOfSessions":null}, {"name":"Баруткины","state":"Kirov","territory":"","country":"Russia","latitude":58.3566767,"longitude":47.555864,"population":10,"stateCapital":false,"nationalCapital":false,"pk":null,"quiz":"asia","code":null,"archived":false,"percentageOfSessions":null}, {"name":"Барышники","state":"Kirov","territory":"","country":"Russia","latitude":57.405766,"longitude":46.932003,"population":16,"stateCapital":false,"nationalCapital":false,"pk":null,"quiz":"asia","code":null,"archived":false,"percentageOfSessions":null}, {"name":"Басиха","state":"Kirov","territory":"","country":"Russia","latitude":58.4995807,"longitude":49.9936784,"population":8,"stateCapital":false,"nationalCapital":false,"pk":null,"quiz":"asia","code":null,"archived":false,"percentageOfSessions":null}, {"name":"Басманы","state":"Kirov","territory":"","country":"Russia","latitude":57.657823,"longitude":48.4826453,"population":105,"stateCapital":false,"nationalCapital":false,"pk":null,"quiz":"asia","code":null,"archived":false,"percentageOfSessions":null}, {"name":"Баталово","state":"Kirov","territory":"","country":"Russia","latitude":59.665405,"longitude":52.547504,"population":7,"stateCapital":false,"nationalCapital":false,"pk":null,"quiz":"asia","code":null,"archived":false,"percentageOfSessions":null}, {"name":"Баталово","state":"Kirov","territory":"","country":"Russia","latitude":58.6177821,"longitude":50.6236952,"population":0,"stateCapital":false,"nationalCapital":false,"pk":null,"quiz":"asia","code":null,"archived":false,"percentageOfSessions":null}, {"name":"Баташи","state":"Kirov","territory":"","country":"Russia","latitude":58.6197153,"longitude":49.9891304,"population":54,"stateCapital":false,"nationalCapital":false,"pk":null,"quiz":"asia","code":null,"archived":false,"percentageOfSessions":null}, {"name":"Бахиево","state":"Kirov","territory":"","country":"Russia","latitude":58.574329,"longitude":50.602951,"population":0,"stateCapital":false,"nationalCapital":false,"pk":null,"quiz":"asia","code":null,"archived":false,"percentageOfSessions":null}, {"name":"Бахта","state":"Kirov","territory":"","country":"Russia","latitude":58.610977,"longitude":49.414675,"population":2100,"stateCapital":false,"nationalCapital":false,"pk":null,"quiz":"asia","code":null,"archived":false,"percentageOfSessions":null}, {"name":"Бахтенки","state":"Kirov","territory":"","country":"Russia","latitude":57.2159696,"longitude":48.5298464,"population":11,"stateCapital":false,"nationalCapital":false,"pk":null,"quiz":"asia","code":null,"archived":false,"percentageOfSessions":null}, {"name":"Бахтино","state":"Kirov","territory":"","country":"Russia","latitude":57.333241,"longitude":48.6422794,"population":12,"stateCapital":false,"nationalCapital":false,"pk":null,"quiz":"asia","code":null,"archived":false,"percentageOfSessions":null}, {"name":"Бахтинские","state":"Kirov","territory":"","country":"Russia","latitude":56.9987338,"longitude":48.1142192,"population":0,"stateCapital":false,"nationalCapital":false,"pk":null,"quiz":"asia","code":null,"archived":false,"percentageOfSessions":null}, {"name":"Башарово","state":"Kirov","territory":"","country":"Russia","latitude":58.8471989,"longitude":49.8268559,"population":0,"stateCapital":false,"nationalCapital":false,"pk":null,"quiz":"asia","code":null,"archived":false,"percentageOfSessions":null}, {"name":"Башарово","state":"Kirov","territory":"","country":"Russia","latitude":58.5059472,"longitude":49.2632265,"population":46,"stateCapital":false,"nationalCapital":false,"pk":null,"quiz":"asia","code":null,"archived":false,"percentageOfSessions":null}, {"name":"Башары","state":"Kirov","territory":"","country":"Russia","latitude":58.8508689,"longitude":47.6829435,"population":0,"stateCapital":false,"nationalCapital":false,"pk":null,"quiz":"asia","code":null,"archived":false,"percentageOfSessions":null}, {"name":"Башкерь","state":"Kirov","territory":"","country":"Russia","latitude":58.1124545,"longitude":50.0200655,"population":0,"stateCapital":false,"nationalCapital":false,"pk":null,"quiz":"asia","code":null,"archived":false,"percentageOfSessions":null}, {"name":"Башкирь","state":"Kirov","territory":"","country":"Russia","latitude":58.530918,"longitude":48.805279,"population":0,"stateCapital":false,"nationalCapital":false,"pk":null,"quiz":"asia","code":null,"archived":false,"percentageOfSessions":null}, {"name":"Башланы","state":"Kirov","territory":"","country":"Russia","latitude":58.4162673,"longitude":50.4827216,"population":10,"stateCapital":false,"nationalCapital":false,"pk":null,"quiz":"asia","code":null,"archived":false,"percentageOfSessions":null}, {"name":"Бегичи","state":"Kirov","territory":"","country":"Russia","latitude":58.2911882,"longitude":50.5153327,"population":84,"stateCapital":false,"nationalCapital":false,"pk":null,"quiz":"asia","code":null,"archived":false,"percentageOfSessions":null}, {"name":"Безбожник","state":"Kirov","territory":"","country":"Russia","latitude":59.5111367,"longitude":48.8050461,"population":2363,"stateCapital":false,"nationalCapital":false,"pk":null,"quiz":"asia","code":null,"archived":false,"percentageOfSessions":null}, {"name":"Безводная","state":"Kirov","territory":"","country":"Russia","latitude":58.3427658,"longitude":47.1228485,"population":1,"stateCapital":false,"nationalCapital":false,"pk":null,"quiz":"asia","code":null,"archived":false,"percentageOfSessions":null}, {"name":"Безводное","state":"Kirov","territory":"","country":"Russia","latitude":57.5413569,"longitude":49.5663797,"population":0,"stateCapital":false,"nationalCapital":false,"pk":null,"quiz":"asia","code":null,"archived":false,"percentageOfSessions":null}, {"name":"Безводное","state":"Kirov","territory":"","country":"Russia","latitude":57.4215494,"longitude":48.338146,"population":807,"stateCapital":false,"nationalCapital":false,"pk":null,"quiz":"asia","code":null,"archived":false,"percentageOfSessions":null}, {"name":"Безводное","state":"Kirov","territory":"","country":"Russia","latitude":59.0730672,"longitude":49.2746295,"population":11,"stateCapital":false,"nationalCapital":false,"pk":null,"quiz":"asia","code":null,"archived":false,"percentageOfSessions":null}, {"name":"Безгачево","state":"Kirov","territory":"","country":"Russia","latitude":59.9597722,"longitude":52.9428049,"population":2,"stateCapital":false,"nationalCapital":false,"pk":null,"quiz":"asia","code":null,"archived":false,"percentageOfSessions":null}, {"name":"Безденежные","state":"Kirov","territory":"","country":"Russia","latitude":58.059624,"longitude":49.009731,"population":45,"stateCapital":false,"nationalCapital":false,"pk":null,"quiz":"asia","code":null,"archived":false,"percentageOfSessions":null}, {"name":"Безденежные","state":"Kirov","territory":"","country":"Russia","latitude":58.069825,"longitude":47.897446,"population":1,"stateCapital":false,"nationalCapital":false,"pk":null,"quiz":"asia","code":null,"archived":false,"percentageOfSessions":null}, {"name":"Безденежье","state":"Kirov","territory":"","country":"Russia","latitude":57.570557,"longitude":47.804714,"population":10,"stateCapital":false,"nationalCapital":false,"pk":null,"quiz":"asia","code":null,"archived":false,"percentageOfSessions":null}, {"name":"Белая","state":"Kirov","territory":"","country":"Russia","latitude":60.2167915,"longitude":46.6731242,"population":1,"stateCapital":false,"nationalCapital":false,"pk":null,"quiz":"asia","code":null,"archived":false,"percentageOfSessions":null}, {"name":"Белая","state":"Kirov","territory":"","country":"Russia","latitude":57.9801748,"longitude":51.685831,"population":303,"stateCapital":false,"nationalCapital":false,"pk":null,"quiz":"asia","code":null,"archived":false,"percentageOfSessions":null}, {"name":"Белая Гора","state":"Kirov","territory":"","country":"Russia","latitude":59.0459603,"longitude":49.9554282,"population":50,"stateCapital":false,"nationalCapital":false,"pk":null,"quiz":"asia","code":null,"archived":false,"percentageOfSessions":null}, {"name":"Белая Холуница","state":"Kirov","territory":"","country":"Russia","latitude":58.8432546,"longitude":50.8528865,"population":11232,"stateCapital":false,"nationalCapital":false,"pk":null,"quiz":"asia","code":null,"archived":false,"percentageOfSessions":null}, {"name":"Белеенки","state":"Kirov","territory":"","country":"Russia","latitude":58.7488836,"longitude":47.9562285,"population":35,"stateCapital":false,"nationalCapital":false,"pk":null,"quiz":"asia","code":null,"archived":false,"percentageOfSessions":null}, {"name":"Белененки","state":"Kirov","territory":"","country":"Russia","latitude":59.2561,"longitude":48.4288,"population":0,"stateCapital":false,"nationalCapital":false,"pk":null,"quiz":"asia","code":null,"archived":false,"percentageOfSessions":null}, {"name":"Беловщина","state":"Kirov","territory":"","country":"Russia","latitude":58.3804426,"longitude":48.4241092,"population":1,"stateCapital":false,"nationalCapital":false,"pk":null,"quiz":"asia","code":null,"archived":false,"percentageOfSessions":null}, {"name":"Белозерье","state":"Kirov","territory":"","country":"Russia","latitude":59.3601442,"longitude":48.9790581,"population":20,"stateCapital":false,"nationalCapital":false,"pk":null,"quiz":"asia","code":null,"archived":false,"percentageOfSessions":null}, {"name":"Бело-Пашино","state":"Kirov","territory":"","country":"Russia","latitude":58.7613268,"longitude":53.2517893,"population":15,"stateCapital":false,"nationalCapital":false,"pk":null,"quiz":"asia","code":null,"archived":false,"percentageOfSessions":null}, {"name":"Белопуховы","state":"Kirov","territory":"","country":"Russia","latitude":58.334581,"longitude":48.8579513,"population":0,"stateCapital":false,"nationalCapital":false,"pk":null,"quiz":"asia","code":null,"archived":false,"percentageOfSessions":null}, {"name":"Белорецк","state":"Kirov","territory":"","country":"Russia","latitude":58.669624,"longitude":52.479298,"population":617,"stateCapital":false,"nationalCapital":false,"pk":null,"quiz":"asia","code":null,"archived":false,"percentageOfSessions":null}, {"name":"Белореченск","state":"Kirov","territory":"","country":"Russia","latitude":58.7730642,"longitude":52.2937592,"population":1292,"stateCapital":false,"nationalCapital":false,"pk":null,"quiz":"asia","code":null,"archived":false,"percentageOfSessions":null}, {"name":"Белоусово","state":"Kirov","territory":"","country":"Russia","latitude":57.6408972,"longitude":49.767192,"population":0,"stateCapital":false,"nationalCapital":false,"pk":null,"quiz":"asia","code":null,"archived":false,"percentageOfSessions":null}, {"name":"Белоусово","state":"Kirov","territory":"","country":"Russia","latitude":57.221004,"longitude":48.344963,"population":25,"stateCapital":false,"nationalCapital":false,"pk":null,"quiz":"asia","code":null,"archived":false,"percentageOfSessions":null}, {"name":"Белохолуницкий разъезд","state":"Kirov","territory":"","country":"Russia","latitude":58.727872,"longitude":50.282243,"population":8,"stateCapital":false,"nationalCapital":false,"pk":null,"quiz":"asia","code":null,"archived":false,"percentageOfSessions":null}, {"name":"Белые Чежеги","state":"Kirov","territory":"","country":"Russia","latitude":58.4792423,"longitude":50.054242,"population":3,"stateCapital":false,"nationalCapital":false,"pk":null,"quiz":"asia","code":null,"archived":false,"percentageOfSessions":null}, {"name":"Бельник","state":"Kirov","territory":"","country":"Russia","latitude":58.3565386,"longitude":50.7785717,"population":41,"stateCapital":false,"nationalCapital":false,"pk":null,"quiz":"asia","code":null,"archived":false,"percentageOfSessions":null}, {"name":"Бельтюги","state":"Kirov","territory":"","country":"Russia","latitude":58.0763667,"longitude":50.2447204,"population":204,"stateCapital":false,"nationalCapital":false,"pk":null,"quiz":"asia","code":null,"archived":false,"percentageOfSessions":null}, {"name":"Бельтюки","state":"Kirov","territory":"","country":"Russia","latitude":58.1892442,"longitude":50.5495159,"population":1,"stateCapital":false,"nationalCapital":false,"pk":null,"quiz":"asia","code":null,"archived":false,"percentageOfSessions":null}, {"name":"Бельтюковы","state":"Kirov","territory":"","country":"Russia","latitude":59.74192,"longitude":52.677917,"population":0,"stateCapital":false,"nationalCapital":false,"pk":null,"quiz":"asia","code":null,"archived":false,"percentageOfSessions":null}, {"name":"Беляево","state":"Kirov","territory":"","country":"Russia","latitude":57.3644202,"longitude":47.4302246,"population":208,"stateCapital":false,"nationalCapital":false,"pk":null,"quiz":"asia","code":null,"archived":false,"percentageOfSessions":null}, {"name":"Беляевская","state":"Kirov","territory":"","country":"Russia","latitude":58.7591567,"longitude":50.1323232,"population":17,"stateCapital":false,"nationalCapital":false,"pk":null,"quiz":"asia","code":null,"archived":false,"percentageOfSessions":null}, {"name":"Белянино","state":"Kirov","territory":"","country":"Russia","latitude":58.1455475,"longitude":49.6665719,"population":0,"stateCapital":false,"nationalCapital":false,"pk":null,"quiz":"asia","code":null,"archived":false,"percentageOfSessions":null}, {"name":"Белянка","state":"Kirov","territory":"","country":"Russia","latitude":58.5510763,"longitude":48.8892307,"population":51,"stateCapital":false,"nationalCapital":false,"pk":null,"quiz":"asia","code":null,"archived":false,"percentageOfSessions":null}, {"name":"Береговой","state":"Kirov","territory":"","country":"Russia","latitude":58.4801223,"longitude":50.7107357,"population":0,"stateCapital":false,"nationalCapital":false,"pk":null,"quiz":"asia","code":null,"archived":false,"percentageOfSessions":null}, {"name":"Бережана","state":"Kirov","territory":"","country":"Russia","latitude":58.3232728,"longitude":49.6865239,"population":18,"stateCapital":false,"nationalCapital":false,"pk":null,"quiz":"asia","code":null,"archived":false,"percentageOfSessions":null}, {"name":"Бережане","state":"Kirov","territory":"","country":"Russia","latitude":57.980064,"longitude":47.424198,"population":0,"stateCapital":false,"nationalCapital":false,"pk":null,"quiz":"asia","code":null,"archived":false,"percentageOfSessions":null}, {"name":"Бережане","state":"Kirov","territory":"","country":"Russia","latitude":58.8894498,"longitude":50.2109709,"population":0,"stateCapital":false,"nationalCapital":false,"pk":null,"quiz":"asia","code":null,"archived":false,"percentageOfSessions":null}, {"name":"Бережные у реки","state":"Kirov","territory":"","country":"Russia","latitude":58.050167,"longitude":49.44862,"population":0,"stateCapital":false,"nationalCapital":false,"pk":null,"quiz":"asia","code":null,"archived":false,"percentageOfSessions":null}, {"name":"Березино","state":"Kirov","territory":"","country":"Russia","latitude":58.4813098,"longitude":49.741938,"population":57,"stateCapital":false,"nationalCapital":false,"pk":null,"quiz":"asia","code":null,"archived":false,"percentageOfSessions":null}, {"name":"Березино","state":"Kirov","territory":"","country":"Russia","latitude":60.5817873,"longitude":47.3701536,"population":0,"stateCapital":false,"nationalCapital":false,"pk":null,"quiz":"asia","code":null,"archived":false,"percentageOfSessions":null}, {"name":"Березины","state":"Kirov","territory":"","country":"Russia","latitude":57.8525365,"longitude":48.5847151,"population":0,"stateCapital":false,"nationalCapital":false,"pk":null,"quiz":"asia","code":null,"archived":false,"percentageOfSessions":null}, {"name":"Березины","state":"Kirov","territory":"","country":"Russia","latitude":58.315575,"longitude":48.739792,"population":3,"stateCapital":false,"nationalCapital":false,"pk":null,"quiz":"asia","code":null,"archived":false,"percentageOfSessions":null}, {"name":"Березкины","state":"Kirov","territory":"","country":"Russia","latitude":58.3430491,"longitude":48.7534209,"population":5,"stateCapital":false,"nationalCapital":false,"pk":null,"quiz":"asia","code":null,"archived":false,"percentageOfSessions":null}, {"name":"Березник","state":"Kirov","territory":"","country":"Russia","latitude":58.0558038,"longitude":51.1032478,"population":64,"stateCapital":false,"nationalCapital":false,"pk":null,"quiz":"asia","code":null,"archived":false,"percentageOfSessions":null}, {"name":"Березник","state":"Kirov","territory":"","country":"Russia","latitude":58.099087,"longitude":49.881607,"population":556,"stateCapital":false,"nationalCapital":false,"pk":null,"quiz":"asia","code":null,"archived":false,"percentageOfSessions":null}, {"name":"Березник","state":"Kirov","territory":"","country":"Russia","latitude":58.7697683,"longitude":48.5375566,"population":0,"stateCapital":false,"nationalCapital":false,"pk":null,"quiz":"asia","code":null,"archived":false,"percentageOfSessions":null}, {"name":"Березник","state":"Kirov","territory":"","country":"Russia","latitude":59.293724,"longitude":50.072926,"population":0,"stateCapital":false,"nationalCapital":false,"pk":null,"quiz":"asia","code":null,"archived":false,"percentageOfSessions":null}, {"name":"Березник","state":"Kirov","territory":"","country":"Russia","latitude":58.099087,"longitude":49.881607,"population":471,"stateCapital":false,"nationalCapital":false,"pk":null,"quiz":"asia","code":null,"archived":false,"percentageOfSessions":null}, {"name":"Березовка","state":"Kirov","territory":"","country":"Russia","latitude":57.211857,"longitude":46.982716,"population":146,"stateCapital":false,"nationalCapital":false,"pk":null,"quiz":"asia","code":null,"archived":false,"percentageOfSessions":null}, {"name":"Березовка","state":"Kirov","territory":"","country":"Russia","latitude":59.6605471,"longitude":47.496745,"population":1,"stateCapital":false,"nationalCapital":false,"pk":null,"quiz":"asia","code":null,"archived":false,"percentageOfSessions":null}, {"name":"Березовка","state":"Kirov","territory":"","country":"Russia","latitude":58.1802134,"longitude":49.4724206,"population":8,"stateCapital":false,"nationalCapital":false,"pk":null,"quiz":"asia","code":null,"archived":false,"percentageOfSessions":null}, {"name":"Березовка","state":"Kirov","territory":"","country":"Russia","latitude":57.1302879,"longitude":46.9064661,"population":0,"stateCapital":false,"nationalCapital":false,"pk":null,"quiz":"asia","code":null,"archived":false,"percentageOfSessions":null}, {"name":"Березовка","state":"Kirov","territory":"","country":"Russia","latitude":58.0581567,"longitude":51.2465195,"population":26,"stateCapital":false,"nationalCapital":false,"pk":null,"quiz":"asia","code":null,"archived":false,"percentageOfSessions":null}, {"name":"Березовка","state":"Kirov","territory":"","country":"Russia","latitude":57.5123549,"longitude":50.4736141,"population":39,"stateCapital":false,"nationalCapital":false,"pk":null,"quiz":"asia","code":null,"archived":false,"percentageOfSessions":null}, {"name":"Березово","state":"Kirov","territory":"","country":"Russia","latitude":59.0833684,"longitude":49.5479974,"population":22,"stateCapital":false,"nationalCapital":false,"pk":null,"quiz":"asia","code":null,"archived":false,"percentageOfSessions":null}, {"name":"Березовский","state":"Kirov","territory":"","country":"Russia","latitude":59.2734157,"longitude":48.7987404,"population":5,"stateCapital":false,"nationalCapital":false,"pk":null,"quiz":"asia","code":null,"archived":false,"percentageOfSessions":null}, {"name":"Бересневы","state":"Kirov","territory":"","country":"Russia","latitude":58.8892344,"longitude":48.3218464,"population":18,"stateCapital":false,"nationalCapital":false,"pk":null,"quiz":"asia","code":null,"archived":false,"percentageOfSessions":null}, {"name":"Бересневы-Федоровцы","state":"Kirov","territory":"","country":"Russia","latitude":58.9920964,"longitude":48.1205541,"population":2,"stateCapital":false,"nationalCapital":false,"pk":null,"quiz":"asia","code":null,"archived":false,"percentageOfSessions":null}, {"name":"Береснята","state":"Kirov","territory":"","country":"Russia","latitude":59.127804,"longitude":48.15192,"population":0,"stateCapital":false,"nationalCapital":false,"pk":null,"quiz":"asia","code":null,"archived":false,"percentageOfSessions":null}, {"name":"Берляки","state":"Kirov","territory":"","country":"Russia","latitude":57.3383239,"longitude":48.194119,"population":44,"stateCapital":false,"nationalCapital":false,"pk":null,"quiz":"asia","code":null,"archived":false,"percentageOfSessions":null}, {"name":"Берсениха","state":"Kirov","territory":"","country":"Russia","latitude":57.0913497,"longitude":49.9515686,"population":121,"stateCapital":false,"nationalCapital":false,"pk":null,"quiz":"asia","code":null,"archived":false,"percentageOfSessions":null}, {"name":"Бессолки","state":"Kirov","territory":"","country":"Russia","latitude":58.4496427,"longitude":49.8292638,"population":0,"stateCapital":false,"nationalCapital":false,"pk":null,"quiz":"asia","code":null,"archived":false,"percentageOfSessions":null}, {"name":"Бехтери","state":"Kirov","territory":"","country":"Russia","latitude":58.308144,"longitude":49.015625,"population":11,"stateCapital":false,"nationalCapital":false,"pk":null,"quiz":"asia","code":null,"archived":false,"percentageOfSessions":null}, {"name":"Бехтери","state":"Kirov","territory":"","country":"Russia","latitude":58.308144,"longitude":49.015625,"population":0,"stateCapital":false,"nationalCapital":false,"pk":null,"quiz":"asia","code":null,"archived":false,"percentageOfSessions":null}, {"name":"Бечева","state":"Kirov","territory":"","country":"Russia","latitude":58.9090514,"longitude":48.3943868,"population":96,"stateCapital":false,"nationalCapital":false,"pk":null,"quiz":"asia","code":null,"archived":false,"percentageOfSessions":null}, {"name":"Бечковская","state":"Kirov","territory":"","country":"Russia","latitude":60.6512673,"longitude":47.7525016,"population":5,"stateCapital":false,"nationalCapital":false,"pk":null,"quiz":"asia","code":null,"archived":false,"percentageOfSessions":null}, {"name":"Бздюли","state":"Kirov","territory":"","country":"Russia","latitude":58.533268,"longitude":49.4838907,"population":0,"stateCapital":false,"nationalCapital":false,"pk":null,"quiz":"asia","code":null,"archived":false,"percentageOfSessions":null}, {"name":"Биртяевы","state":"Kirov","territory":"","country":"Russia","latitude":58.3475836,"longitude":48.4123824,"population":11,"stateCapital":false,"nationalCapital":false,"pk":null,"quiz":"asia","code":null,"archived":false,"percentageOfSessions":null}, {"name":"Бисерово","state":"Kirov","territory":"","country":"Russia","latitude":59.069492,"longitude":53.260601,"population":805,"stateCapital":false,"nationalCapital":false,"pk":null,"quiz":"asia","code":null,"archived":false,"percentageOfSessions":null}, {"name":"Благовещенское","state":"Kirov","territory":"","country":"Russia","latitude":58.467007,"longitude":47.495141,"population":108,"stateCapital":false,"nationalCapital":false,"pk":null,"quiz":"asia","code":null,"archived":false,"percentageOfSessions":null}, {"name":"Блиненки","state":"Kirov","territory":"","country":"Russia","latitude":58.1444362,"longitude":49.9869757,"population":11,"stateCapital":false,"nationalCapital":false,"pk":null,"quiz":"asia","code":null,"archived":false,"percentageOfSessions":null}, {"name":"Блиновская","state":"Kirov","territory":"","country":"Russia","latitude":58.2521608,"longitude":51.2845086,"population":0,"stateCapital":false,"nationalCapital":false,"pk":null,"quiz":"asia","code":null,"archived":false,"percentageOfSessions":null}, {"name":"Блины","state":"Kirov","territory":"","country":"Russia","latitude":58.321931,"longitude":46.9775747,"population":1,"stateCapital":false,"nationalCapital":false,"pk":null,"quiz":"asia","code":null,"archived":false,"percentageOfSessions":null}, {"name":"Блохи","state":"Kirov","territory":"","country":"Russia","latitude":58.5382185,"longitude":49.5157703,"population":4,"stateCapital":false,"nationalCapital":false,"pk":null,"quiz":"asia","code":null,"archived":false,"percentageOfSessions":null}, {"name":"Блохичи","state":"Kirov","territory":"","country":"Russia","latitude":58.807327,"longitude":48.003845,"population":9,"stateCapital":false,"nationalCapital":false,"pk":null,"quiz":"asia","code":null,"archived":false,"percentageOfSessions":null}, {"name":"Бобино","state":"Kirov","territory":"","country":"Russia","latitude":58.7009026,"longitude":49.7642219,"population":954,"stateCapital":false,"nationalCapital":false,"pk":null,"quiz":"asia","code":null,"archived":false,"percentageOfSessions":null}, {"name":"Боброво","state":"Kirov","territory":"","country":"Russia","latitude":60.6509954,"longitude":47.8013322,"population":0,"stateCapital":false,"nationalCapital":false,"pk":null,"quiz":"asia","code":null,"archived":false,"percentageOfSessions":null}, {"name":"Бобровы","state":"Kirov","territory":"","country":"Russia","latitude":58.8328842,"longitude":47.8936867,"population":221,"stateCapital":false,"nationalCapital":false,"pk":null,"quiz":"asia","code":null,"archived":false,"percentageOfSessions":null}, {"name":"Бобровы","state":"Kirov","territory":"","country":"Russia","latitude":57.9915546,"longitude":48.3010691,"population":2,"stateCapital":false,"nationalCapital":false,"pk":null,"quiz":"asia","code":null,"archived":false,"percentageOfSessions":null}, {"name":"Бобылево","state":"Kirov","territory":"","country":"Russia","latitude":58.0978731,"longitude":49.7479179,"population":2,"stateCapital":false,"nationalCapital":false,"pk":null,"quiz":"asia","code":null,"archived":false,"percentageOfSessions":null}, {"name":"Бобыли","state":"Kirov","territory":"","country":"Russia","latitude":58.3771598,"longitude":48.9260704,"population":2,"stateCapital":false,"nationalCapital":false,"pk":null,"quiz":"asia","code":null,"archived":false,"percentageOfSessions":null}, {"name":"Бобыли","state":"Kirov","territory":"","country":"Russia","latitude":58.3765694,"longitude":51.7414124,"population":1,"stateCapital":false,"nationalCapital":false,"pk":null,"quiz":"asia","code":null,"archived":false,"percentageOfSessions":null}, {"name":"Бобыли","state":"Kirov","territory":"","country":"Russia","latitude":58.5360528,"longitude":49.4703637,"population":13,"stateCapital":false,"nationalCapital":false,"pk":null,"quiz":"asia","code":null,"archived":false,"percentageOfSessions":null}, {"name":"Бовыкины","state":"Kirov","territory":"","country":"Russia","latitude":59.2569917,"longitude":48.4608954,"population":15,"stateCapital":false,"nationalCapital":false,"pk":null,"quiz":"asia","code":null,"archived":false,"percentageOfSessions":null}, {"name":"Богданово","state":"Kirov","territory":"","country":"Russia","latitude":57.0646405,"longitude":50.0264192,"population":435,"stateCapital":false,"nationalCapital":false,"pk":null,"quiz":"asia","code":null,"archived":false,"percentageOfSessions":null}, {"name":"Боговитовщина","state":"Kirov","territory":"","country":"Russia","latitude":57.5497895,"longitude":50.1527011,"population":0,"stateCapital":false,"nationalCapital":false,"pk":null,"quiz":"asia","code":null,"archived":false,"percentageOfSessions":null}, {"name":"Богомазы","state":"Kirov","territory":"","country":"Russia","latitude":58.669956,"longitude":49.8872823,"population":0,"stateCapital":false,"nationalCapital":false,"pk":null,"quiz":"asia","code":null,"archived":false,"percentageOfSessions":null}, {"name":"Богомолово","state":"Kirov","territory":"","country":"Russia","latitude":57.1979082,"longitude":48.8819006,"population":12,"stateCapital":false,"nationalCapital":false,"pk":null,"quiz":"asia","code":null,"archived":false,"percentageOfSessions":null}, {"name":"Богомоловы","state":"Kirov","territory":"","country":"Russia","latitude":58.3198179,"longitude":48.2669522,"population":23,"stateCapital":false,"nationalCapital":false,"pk":null,"quiz":"asia","code":null,"archived":false,"percentageOfSessions":null}, {"name":"Богомоловы","state":"Kirov","territory":"","country":"Russia","latitude":58.9998254,"longitude":48.9965537,"population":0,"stateCapital":false,"nationalCapital":false,"pk":null,"quiz":"asia","code":null,"archived":false,"percentageOfSessions":null}, {"name":"Богородская","state":"Kirov","territory":"","country":"Russia","latitude":58.599781,"longitude":49.746597,"population":679,"stateCapital":false,"nationalCapital":false,"pk":null,"quiz":"asia","code":null,"archived":false,"percentageOfSessions":null}, {"name":"Богородское","state":"Kirov","territory":"","country":"Russia","latitude":57.8316459,"longitude":50.7512195,"population":2875,"stateCapital":false,"nationalCapital":false,"pk":null,"quiz":"asia","code":null,"archived":false,"percentageOfSessions":null}, {"name":"Болванская","state":"Kirov","territory":"","country":"Russia","latitude":58.4839184,"longitude":48.574747,"population":4,"stateCapital":false,"nationalCapital":false,"pk":null,"quiz":"asia","code":null,"archived":false,"percentageOfSessions":null}, {"name":"Болдычи","state":"Kirov","territory":"","country":"Russia","latitude":58.6500477,"longitude":49.03953,"population":33,"stateCapital":false,"nationalCapital":false,"pk":null,"quiz":"asia","code":null,"archived":false,"percentageOfSessions":null}, {"name":"Большая Белая","state":"Kirov","territory":"","country":"Russia","latitude":57.517181,"longitude":48.797703,"population":0,"stateCapital":false,"nationalCapital":false,"pk":null,"quiz":"asia","code":null,"archived":false,"percentageOfSessions":null}, {"name":"Большая Верховская","state":"Kirov","territory":"","country":"Russia","latitude":59.2303067,"longitude":47.9083707,"population":43,"stateCapital":false,"nationalCapital":false,"pk":null,"quiz":"asia","code":null,"archived":false,"percentageOfSessions":null}, {"name":"Большая Ворона","state":"Kirov","territory":"","country":"Russia","latitude":57.8210691,"longitude":48.3038537,"population":0,"stateCapital":false,"nationalCapital":false,"pk":null,"quiz":"asia","code":null,"archived":false,"percentageOfSessions":null}, {"name":"Большая Гора","state":"Kirov","territory":"","country":"Russia","latitude":58.6666524,"longitude":49.5896347,"population":404,"stateCapital":false,"nationalCapital":false,"pk":null,"quiz":"asia","code":null,"archived":false,"percentageOfSessions":null}, {"name":"Большая Горка","state":"Kirov","territory":"","country":"Russia","latitude":59.0918654,"longitude":47.8535182,"population":9,"stateCapital":false,"nationalCapital":false,"pk":null,"quiz":"asia","code":null,"archived":false,"percentageOfSessions":null}, {"name":"Большая Дуброва","state":"Kirov","territory":"","country":"Russia","latitude":57.722076,"longitude":51.386272,"population":98,"stateCapital":false,"nationalCapital":false,"pk":null,"quiz":"asia","code":null,"archived":false,"percentageOfSessions":null}, {"name":"Большая Каракша","state":"Kirov","territory":"","country":"Russia","latitude":57.0433239,"longitude":47.9825965,"population":41,"stateCapital":false,"nationalCapital":false,"pk":null,"quiz":"asia","code":null,"archived":false,"percentageOfSessions":null}, {"name":"Большая Козловка","state":"Kirov","territory":"","country":"Russia","latitude":58.1543403,"longitude":46.841902,"population":31,"stateCapital":false,"nationalCapital":false,"pk":null,"quiz":"asia","code":null,"archived":false,"percentageOfSessions":null}, {"name":"Большая Коротаевщина","state":"Kirov","territory":"","country":"Russia","latitude":59.1457669,"longitude":48.4767418,"population":1,"stateCapital":false,"nationalCapital":false,"pk":null,"quiz":"asia","code":null,"archived":false,"percentageOfSessions":null}, {"name":"Большая Крутенка","state":"Kirov","territory":"","country":"Russia","latitude":58.3358106,"longitude":46.8861435,"population":5,"stateCapital":false,"nationalCapital":false,"pk":null,"quiz":"asia","code":null,"archived":false,"percentageOfSessions":null}, {"name":"Большая Кугушерга","state":"Kirov","territory":"","country":"Russia","latitude":57.1586646,"longitude":47.6558276,"population":1,"stateCapital":false,"nationalCapital":false,"pk":null,"quiz":"asia","code":null,"archived":false,"percentageOfSessions":null}, {"name":"Большая Курба","state":"Kirov","territory":"","country":"Russia","latitude":57.201817,"longitude":49.00724,"population":12,"stateCapital":false,"nationalCapital":false,"pk":null,"quiz":"asia","code":null,"archived":false,"percentageOfSessions":null}, {"name":"Большая Лайка","state":"Kirov","territory":"","country":"Russia","latitude":57.2464388,"longitude":48.0773551,"population":29,"stateCapital":false,"nationalCapital":false,"pk":null,"quiz":"asia","code":null,"archived":false,"percentageOfSessions":null}, {"name":"Большая Лукинская","state":"Kirov","territory":"","country":"Russia","latitude":59.1819072,"longitude":47.7369776,"population":71,"stateCapital":false,"nationalCapital":false,"pk":null,"quiz":"asia","code":null,"archived":false,"percentageOfSessions":null}, {"name":"Большая Лыжня","state":"Kirov","territory":"","country":"Russia","latitude":57.257633,"longitude":47.285465,"population":0,"stateCapital":false,"nationalCapital":false,"pk":null,"quiz":"asia","code":null,"archived":false,"percentageOfSessions":null}, {"name":"Большая Люя","state":"Kirov","territory":"","country":"Russia","latitude":57.217415,"longitude":47.378216,"population":2,"stateCapital":false,"nationalCapital":false,"pk":null,"quiz":"asia","code":null,"archived":false,"percentageOfSessions":null}, {"name":"Большая Пеньба","state":"Kirov","territory":"","country":"Russia","latitude":57.1963129,"longitude":49.8974934,"population":80,"stateCapital":false,"nationalCapital":false,"pk":null,"quiz":"asia","code":null,"archived":false,"percentageOfSessions":null}, {"name":"Большая Пижанка","state":"Kirov","territory":"","country":"Russia","latitude":57.432461,"longitude":48.542816,"population":28,"stateCapital":false,"nationalCapital":false,"pk":null,"quiz":"asia","code":null,"archived":false,"percentageOfSessions":null}, {"name":"Большая Подволочная","state":"Kirov","territory":"","country":"Russia","latitude":58.2205453,"longitude":48.2375121,"population":0,"stateCapital":false,"nationalCapital":false,"pk":null,"quiz":"asia","code":null,"archived":false,"percentageOfSessions":null}, {"name":"Большая Поломка","state":"Kirov","territory":"","country":"Russia","latitude":57.0519281,"longitude":46.9392907,"population":110,"stateCapital":false,"nationalCapital":false,"pk":null,"quiz":"asia","code":null,"archived":false,"percentageOfSessions":null}, {"name":"Большая Русская Лиса","state":"Kirov","territory":"","country":"Russia","latitude":57.053738,"longitude":47.236073,"population":2,"stateCapital":false,"nationalCapital":false,"pk":null,"quiz":"asia","code":null,"archived":false,"percentageOfSessions":null}, {"name":"Большая Рябовщина","state":"Kirov","territory":"","country":"Russia","latitude":58.4589053,"longitude":49.9274552,"population":21,"stateCapital":false,"nationalCapital":false,"pk":null,"quiz":"asia","code":null,"archived":false,"percentageOfSessions":null}, {"name":"Большая Субботиха","state":"Kirov","territory":"","country":"Russia","latitude":58.589058,"longitude":49.749825,"population":680,"stateCapital":false,"nationalCapital":false,"pk":null,"quiz":"asia","code":null,"archived":false,"percentageOfSessions":null}, {"name":"Большая Удюрма","state":"Kirov","territory":"","country":"Russia","latitude":56.954891,"longitude":47.06876,"population":13,"stateCapital":false,"nationalCapital":false,"pk":null,"quiz":"asia","code":null,"archived":false,"percentageOfSessions":null}, {"name":"Большая Чернушка","state":"Kirov","territory":"","country":"Russia","latitude":57.666458,"longitude":48.52121,"population":2,"stateCapital":false,"nationalCapital":false,"pk":null,"quiz":"asia","code":null,"archived":false,"percentageOfSessions":null}, {"name":"Большая Шабанка","state":"Kirov","territory":"","country":"Russia","latitude":56.6337645,"longitude":51.0857415,"population":126,"stateCapital":false,"nationalCapital":false,"pk":null,"quiz":"asia","code":null,"archived":false,"percentageOfSessions":null}, {"name":"Большая Шишовка","state":"Kirov","territory":"","country":"Russia","latitude":56.8922212,"longitude":47.2733902,"population":259,"stateCapital":false,"nationalCapital":false,"pk":null,"quiz":"asia","code":null,"archived":false,"percentageOfSessions":null}, {"name":"Большая Шуйма","state":"Kirov","territory":"","country":"Russia","latitude":57.3458882,"longitude":48.4046551,"population":32,"stateCapital":false,"nationalCapital":false,"pk":null,"quiz":"asia","code":null,"archived":false,"percentageOfSessions":null}, {"name":"Большевик","state":"Kirov","territory":"","country":"Russia","latitude":57.8464301,"longitude":50.0672082,"population":658,"stateCapital":false,"nationalCapital":false,"pk":null,"quiz":"asia","code":null,"archived":false,"percentageOfSessions":null}, {"name":"Большедорская","state":"Kirov","territory":"","country":"Russia","latitude":60.6118263,"longitude":47.9600424,"population":1,"stateCapital":false,"nationalCapital":false,"pk":null,"quiz":"asia","code":null,"archived":false,"percentageOfSessions":null}, {"name":"Большероманово","state":"Kirov","territory":"","country":"Russia","latitude":60.1335556,"longitude":46.5053145,"population":156,"stateCapital":false,"nationalCapital":false,"pk":null,"quiz":"asia","code":null,"archived":false,"percentageOfSessions":null}, {"name":"Большие Барановы","state":"Kirov","territory":"","country":"Russia","latitude":58.8884449,"longitude":49.0672904,"population":7,"stateCapital":false,"nationalCapital":false,"pk":null,"quiz":"asia","code":null,"archived":false,"percentageOfSessions":null}, {"name":"Большие Бесселята","state":"Kirov","territory":"","country":"Russia","latitude":58.4536474,"longitude":49.8745104,"population":18,"stateCapital":false,"nationalCapital":false,"pk":null,"quiz":"asia","code":null,"archived":false,"percentageOfSessions":null}, {"name":"Большие Блины","state":"Kirov","territory":"","country":"Russia","latitude":58.0289177,"longitude":49.5156513,"population":0,"stateCapital":false,"nationalCapital":false,"pk":null,"quiz":"asia","code":null,"archived":false,"percentageOfSessions":null}, {"name":"Большие Вершининцы","state":"Kirov","territory":"","country":"Russia","latitude":58.1273415,"longitude":49.8524958,"population":30,"stateCapital":false,"nationalCapital":false,"pk":null,"quiz":"asia","code":null,"archived":false,"percentageOfSessions":null}, {"name":"Большие Волки","state":"Kirov","territory":"","country":"Russia","latitude":57.820133,"longitude":48.482635,"population":1,"stateCapital":false,"nationalCapital":false,"pk":null,"quiz":"asia","code":null,"archived":false,"percentageOfSessions":null}, {"name":"Большие Гари","state":"Kirov","territory":"","country":"Russia","latitude":57.0699455,"longitude":49.4369652,"population":6,"stateCapital":false,"nationalCapital":false,"pk":null,"quiz":"asia","code":null,"archived":false,"percentageOfSessions":null}, {"name":"Большие Гари","state":"Kirov","territory":"","country":"Russia","latitude":58.506599,"longitude":49.049454,"population":287,"stateCapital":false,"nationalCapital":false,"pk":null,"quiz":"asia","code":null,"archived":false,"percentageOfSessions":null}, {"name":"Большие Ждановы","state":"Kirov","territory":"","country":"Russia","latitude":58.655785,"longitude":49.065945,"population":4,"stateCapital":false,"nationalCapital":false,"pk":null,"quiz":"asia","code":null,"archived":false,"percentageOfSessions":null}, {"name":"Большие Камерлята","state":"Kirov","territory":"","country":"Russia","latitude":58.741783,"longitude":52.446686,"population":0,"stateCapital":false,"nationalCapital":false,"pk":null,"quiz":"asia","code":null,"archived":false,"percentageOfSessions":null}, {"name":"Большие Ковали","state":"Kirov","territory":"","country":"Russia","latitude":58.458477,"longitude":47.522993,"population":0,"stateCapital":false,"nationalCapital":false,"pk":null,"quiz":"asia","code":null,"archived":false,"percentageOfSessions":null}, {"name":"Большие Ковали","state":"Kirov","territory":"","country":"Russia","latitude":58.557354,"longitude":46.883236,"population":1,"stateCapital":false,"nationalCapital":false,"pk":null,"quiz":"asia","code":null,"archived":false,"percentageOfSessions":null}, {"name":"Большие Коромысловы","state":"Kirov","territory":"","country":"Russia","latitude":58.2268692,"longitude":48.30988,"population":0,"stateCapital":false,"nationalCapital":false,"pk":null,"quiz":"asia","code":null,"archived":false,"percentageOfSessions":null}, {"name":"Большие Кулики","state":"Kirov","territory":"","country":"Russia","latitude":57.981467,"longitude":49.2676224,"population":126,"stateCapital":false,"nationalCapital":false,"pk":null,"quiz":"asia","code":null,"archived":false,"percentageOfSessions":null}, {"name":"Большие Кушовы","state":"Kirov","territory":"","country":"Russia","latitude":58.6119953,"longitude":49.53492,"population":16,"stateCapital":false,"nationalCapital":false,"pk":null,"quiz":"asia","code":null,"archived":false,"percentageOfSessions":null}, {"name":"Большие Лобастовы","state":"Kirov","territory":"","country":"Russia","latitude":58.3976018,"longitude":48.9781952,"population":12,"stateCapital":false,"nationalCapital":false,"pk":null,"quiz":"asia","code":null,"archived":false,"percentageOfSessions":null}, {"name":"Большие Логуновы","state":"Kirov","territory":"","country":"Russia","latitude":58.6769509,"longitude":49.9741059,"population":139,"stateCapital":false,"nationalCapital":false,"pk":null,"quiz":"asia","code":null,"archived":false,"percentageOfSessions":null}, {"name":"Большие Медянцы","state":"Kirov","territory":"","country":"Russia","latitude":57.94638,"longitude":48.9752083,"population":0,"stateCapital":false,"nationalCapital":false,"pk":null,"quiz":"asia","code":null,"archived":false,"percentageOfSessions":null}, {"name":"Большие Наговицыны","state":"Kirov","territory":"","country":"Russia","latitude":58.1274975,"longitude":48.3554962,"population":4,"stateCapital":false,"nationalCapital":false,"pk":null,"quiz":"asia","code":null,"archived":false,"percentageOfSessions":null}, {"name":"Большие Некрасовы","state":"Kirov","territory":"","country":"Russia","latitude":58.773579,"longitude":53.342232,"population":67,"stateCapital":false,"nationalCapital":false,"pk":null,"quiz":"asia","code":null,"archived":false,"percentageOfSessions":null}, {"name":"Большие Пальники","state":"Kirov","territory":"","country":"Russia","latitude":57.5607924,"longitude":50.8596175,"population":33,"stateCapital":false,"nationalCapital":false,"pk":null,"quiz":"asia","code":null,"archived":false,"percentageOfSessions":null}, {"name":"Большие Пасынки","state":"Kirov","territory":"","country":"Russia","latitude":58.3237197,"longitude":51.0001046,"population":206,"stateCapital":false,"nationalCapital":false,"pk":null,"quiz":"asia","code":null,"archived":false,"percentageOfSessions":null}, {"name":"Большие Пачи","state":"Kirov","territory":"","country":"Russia","latitude":57.5415013,"longitude":48.1554468,"population":0,"stateCapital":false,"nationalCapital":false,"pk":null,"quiz":"asia","code":null,"archived":false,"percentageOfSessions":null}, {"name":"Большие Раскопины","state":"Kirov","territory":"","country":"Russia","latitude":58.658114,"longitude":49.8000411,"population":10,"stateCapital":false,"nationalCapital":false,"pk":null,"quiz":"asia","code":null,"archived":false,"percentageOfSessions":null}, {"name":"Большие Семейкины","state":"Kirov","territory":"","country":"Russia","latitude":58.7959552,"longitude":48.0371886,"population":0,"stateCapital":false,"nationalCapital":false,"pk":null,"quiz":"asia","code":null,"archived":false,"percentageOfSessions":null}, {"name":"Большие Серовы","state":"Kirov","territory":"","country":"Russia","latitude":58.672695,"longitude":49.785282,"population":0,"stateCapital":false,"nationalCapital":false,"pk":null,"quiz":"asia","code":null,"archived":false,"percentageOfSessions":null}, {"name":"Большие Сколотни","state":"Kirov","territory":"","country":"Russia","latitude":58.6146386,"longitude":49.9563473,"population":11,"stateCapital":false,"nationalCapital":false,"pk":null,"quiz":"asia","code":null,"archived":false,"percentageOfSessions":null}, {"name":"Большие Скурихины","state":"Kirov","territory":"","country":"Russia","latitude":58.57077,"longitude":48.635143,"population":8,"stateCapital":false,"nationalCapital":false,"pk":null,"quiz":"asia","code":null,"archived":false,"percentageOfSessions":null}, {"name":"Большие Туры","state":"Kirov","territory":"","country":"Russia","latitude":57.8048803,"longitude":49.82143,"population":111,"stateCapital":false,"nationalCapital":false,"pk":null,"quiz":"asia","code":null,"archived":false,"percentageOfSessions":null}, {"name":"Большие Шалаи","state":"Kirov","territory":"","country":"Russia","latitude":57.2743455,"longitude":47.7285061,"population":2,"stateCapital":false,"nationalCapital":false,"pk":null,"quiz":"asia","code":null,"archived":false,"percentageOfSessions":null}, {"name":"Большие Шоры","state":"Kirov","territory":"","country":"Russia","latitude":57.3907599,"longitude":49.5670319,"population":35,"stateCapital":false,"nationalCapital":false,"pk":null,"quiz":"asia","code":null,"archived":false,"percentageOfSessions":null}, {"name":"Большие Шувары","state":"Kirov","territory":"","country":"Russia","latitude":57.2482879,"longitude":47.8017885,"population":19,"stateCapital":false,"nationalCapital":false,"pk":null,"quiz":"asia","code":null,"archived":false,"percentageOfSessions":null}, {"name":"Большие Юринцы","state":"Kirov","territory":"","country":"Russia","latitude":58.8365187,"longitude":48.8991165,"population":4,"stateCapital":false,"nationalCapital":false,"pk":null,"quiz":"asia","code":null,"archived":false,"percentageOfSessions":null}, {"name":"Большое Безруково","state":"Kirov","territory":"","country":"Russia","latitude":57.4512602,"longitude":48.4331668,"population":224,"stateCapital":false,"nationalCapital":false,"pk":null,"quiz":"asia","code":null,"archived":false,"percentageOfSessions":null}, {"name":"Большое Бузаново","state":"Kirov","territory":"","country":"Russia","latitude":58.940266,"longitude":49.8204038,"population":0,"stateCapital":false,"nationalCapital":false,"pk":null,"quiz":"asia","code":null,"archived":false,"percentageOfSessions":null}, {"name":"Большое Демино","state":"Kirov","territory":"","country":"Russia","latitude":57.774761,"longitude":48.855507,"population":6,"stateCapital":false,"nationalCapital":false,"pk":null,"quiz":"asia","code":null,"archived":false,"percentageOfSessions":null}, {"name":"Большое Долгое","state":"Kirov","territory":"","country":"Russia","latitude":58.9262458,"longitude":49.3299228,"population":4,"stateCapital":false,"nationalCapital":false,"pk":null,"quiz":"asia","code":null,"archived":false,"percentageOfSessions":null}, {"name":"Большое Заборье","state":"Kirov","territory":"","country":"Russia","latitude":60.6513527,"longitude":47.5284361,"population":5,"stateCapital":false,"nationalCapital":false,"pk":null,"quiz":"asia","code":null,"archived":false,"percentageOfSessions":null}, {"name":"Большое Киримбаево","state":"Kirov","territory":"","country":"Russia","latitude":57.1473799,"longitude":46.9326445,"population":18,"stateCapital":false,"nationalCapital":false,"pk":null,"quiz":"asia","code":null,"archived":false,"percentageOfSessions":null},