{"cities":[{"name":"24 Км Горьковской Железной Дороги","state":"Mari El","territory":"","country":"Russia","latitude":56.004733,"longitude":48.387929,"population":1,"stateCapital":false,"nationalCapital":false,"pk":null,"quiz":"asia","code":null,"archived":false,"percentageOfSessions":null}, {"name":"53 Квартал","state":"Mari El","territory":"","country":"Russia","latitude":56.1977069,"longitude":47.788818,"population":0,"stateCapital":false,"nationalCapital":false,"pk":null,"quiz":"asia","code":null,"archived":false,"percentageOfSessions":null}, {"name":"Абаснурский","state":"Mari El","territory":"","country":"Russia","latitude":56.6861957,"longitude":48.3616391,"population":42,"stateCapital":false,"nationalCapital":false,"pk":null,"quiz":"asia","code":null,"archived":false,"percentageOfSessions":null}, {"name":"Абдаево","state":"Mari El","territory":"","country":"Russia","latitude":56.3855466,"longitude":48.7753849,"population":239,"stateCapital":false,"nationalCapital":false,"pk":null,"quiz":"asia","code":null,"archived":false,"percentageOfSessions":null}, {"name":"Абленки","state":"Mari El","territory":"","country":"Russia","latitude":56.9435204,"longitude":49.0366613,"population":49,"stateCapital":false,"nationalCapital":false,"pk":null,"quiz":"asia","code":null,"archived":false,"percentageOfSessions":null}, {"name":"Абросимово","state":"Mari El","territory":"","country":"Russia","latitude":56.5790251,"longitude":45.8151045,"population":68,"stateCapital":false,"nationalCapital":false,"pk":null,"quiz":"asia","code":null,"archived":false,"percentageOfSessions":null}, {"name":"Аганур","state":"Mari El","territory":"","country":"Russia","latitude":56.648514,"longitude":49.181038,"population":164,"stateCapital":false,"nationalCapital":false,"pk":null,"quiz":"asia","code":null,"archived":false,"percentageOfSessions":null}, {"name":"Адымаш","state":"Mari El","territory":"","country":"Russia","latitude":56.3463483,"longitude":48.9698506,"population":109,"stateCapital":false,"nationalCapital":false,"pk":null,"quiz":"asia","code":null,"archived":false,"percentageOfSessions":null}, {"name":"Азаново","state":"Mari El","territory":"","country":"Russia","latitude":56.7167,"longitude":48.2196,"population":1764,"stateCapital":false,"nationalCapital":false,"pk":null,"quiz":"asia","code":null,"archived":false,"percentageOfSessions":null}, {"name":"Азъял","state":"Mari El","territory":"","country":"Russia","latitude":56.4008714,"longitude":48.9078712,"population":28,"stateCapital":false,"nationalCapital":false,"pk":null,"quiz":"asia","code":null,"archived":false,"percentageOfSessions":null}, {"name":"Азъял","state":"Mari El","territory":"","country":"Russia","latitude":56.4008714,"longitude":48.9078712,"population":227,"stateCapital":false,"nationalCapital":false,"pk":null,"quiz":"asia","code":null,"archived":false,"percentageOfSessions":null}, {"name":"Азянково","state":"Mari El","territory":"","country":"Russia","latitude":56.9241013,"longitude":49.6314352,"population":132,"stateCapital":false,"nationalCapital":false,"pk":null,"quiz":"asia","code":null,"archived":false,"percentageOfSessions":null}, {"name":"Айбакнур","state":"Mari El","territory":"","country":"Russia","latitude":56.4779808,"longitude":48.9634232,"population":12,"stateCapital":false,"nationalCapital":false,"pk":null,"quiz":"asia","code":null,"archived":false,"percentageOfSessions":null}, {"name":"Айметово","state":"Mari El","territory":"","country":"Russia","latitude":56.64431,"longitude":48.301727,"population":22,"stateCapital":false,"nationalCapital":false,"pk":null,"quiz":"asia","code":null,"archived":false,"percentageOfSessions":null}, {"name":"Аимково","state":"Mari El","territory":"","country":"Russia","latitude":56.8331556,"longitude":49.7331058,"population":152,"stateCapital":false,"nationalCapital":false,"pk":null,"quiz":"asia","code":null,"archived":false,"percentageOfSessions":null}, {"name":"Акилово","state":"Mari El","territory":"","country":"Russia","latitude":57.0551361,"longitude":48.4669046,"population":19,"stateCapital":false,"nationalCapital":false,"pk":null,"quiz":"asia","code":null,"archived":false,"percentageOfSessions":null}, {"name":"Акиндулкино","state":"Mari El","territory":"","country":"Russia","latitude":56.7741608,"longitude":47.9612026,"population":90,"stateCapital":false,"nationalCapital":false,"pk":null,"quiz":"asia","code":null,"archived":false,"percentageOfSessions":null}, {"name":"Акпатырево","state":"Mari El","territory":"","country":"Russia","latitude":56.9776501,"longitude":49.6072309,"population":76,"stateCapital":false,"nationalCapital":false,"pk":null,"quiz":"asia","code":null,"archived":false,"percentageOfSessions":null}, {"name":"Аксаево","state":"Mari El","territory":"","country":"Russia","latitude":56.2551674,"longitude":46.5008121,"population":100,"stateCapital":false,"nationalCapital":false,"pk":null,"quiz":"asia","code":null,"archived":false,"percentageOfSessions":null}, {"name":"Аксаркино","state":"Mari El","territory":"","country":"Russia","latitude":56.7666823,"longitude":47.9631123,"population":180,"stateCapital":false,"nationalCapital":false,"pk":null,"quiz":"asia","code":null,"archived":false,"percentageOfSessions":null}, {"name":"Актаюж","state":"Mari El","territory":"","country":"Russia","latitude":56.6725859,"longitude":47.0081655,"population":231,"stateCapital":false,"nationalCapital":false,"pk":null,"quiz":"asia","code":null,"archived":false,"percentageOfSessions":null}, {"name":"Актугансола","state":"Mari El","territory":"","country":"Russia","latitude":56.773481,"longitude":49.1620082,"population":222,"stateCapital":false,"nationalCapital":false,"pk":null,"quiz":"asia","code":null,"archived":false,"percentageOfSessions":null}, {"name":"Актушево","state":"Mari El","territory":"","country":"Russia","latitude":56.2289624,"longitude":46.2981691,"population":112,"stateCapital":false,"nationalCapital":false,"pk":null,"quiz":"asia","code":null,"archived":false,"percentageOfSessions":null}, {"name":"Акшубино","state":"Mari El","territory":"","country":"Russia","latitude":56.6854511,"longitude":48.1021339,"population":36,"stateCapital":false,"nationalCapital":false,"pk":null,"quiz":"asia","code":null,"archived":false,"percentageOfSessions":null}, {"name":"Алатаево","state":"Mari El","territory":"","country":"Russia","latitude":56.1776767,"longitude":46.3459687,"population":72,"stateCapital":false,"nationalCapital":false,"pk":null,"quiz":"asia","code":null,"archived":false,"percentageOfSessions":null}, {"name":"Алатайкино","state":"Mari El","territory":"","country":"Russia","latitude":56.2686571,"longitude":46.9264997,"population":130,"stateCapital":false,"nationalCapital":false,"pk":null,"quiz":"asia","code":null,"archived":false,"percentageOfSessions":null}, {"name":"Алашайка","state":"Mari El","territory":"","country":"Russia","latitude":56.7726176,"longitude":49.4901828,"population":904,"stateCapital":false,"nationalCapital":false,"pk":null,"quiz":"asia","code":null,"archived":false,"percentageOfSessions":null}, {"name":"Алгаскино","state":"Mari El","territory":"","country":"Russia","latitude":56.1528539,"longitude":46.2018221,"population":26,"stateCapital":false,"nationalCapital":false,"pk":null,"quiz":"asia","code":null,"archived":false,"percentageOfSessions":null}, {"name":"Алдеево","state":"Mari El","territory":"","country":"Russia","latitude":56.1380572,"longitude":46.6851416,"population":43,"stateCapital":false,"nationalCapital":false,"pk":null,"quiz":"asia","code":null,"archived":false,"percentageOfSessions":null}, {"name":"Алдиярово","state":"Mari El","territory":"","country":"Russia","latitude":56.9294476,"longitude":49.0006504,"population":33,"stateCapital":false,"nationalCapital":false,"pk":null,"quiz":"asia","code":null,"archived":false,"percentageOfSessions":null}, {"name":"Алдышка","state":"Mari El","territory":"","country":"Russia","latitude":56.3974359,"longitude":48.9477545,"population":48,"stateCapital":false,"nationalCapital":false,"pk":null,"quiz":"asia","code":null,"archived":false,"percentageOfSessions":null}, {"name":"Алеево","state":"Mari El","territory":"","country":"Russia","latitude":56.9242504,"longitude":48.6811309,"population":92,"stateCapital":false,"nationalCapital":false,"pk":null,"quiz":"asia","code":null,"archived":false,"percentageOfSessions":null}, {"name":"Алеево","state":"Mari El","territory":"","country":"Russia","latitude":56.8254753,"longitude":48.3344095,"population":117,"stateCapital":false,"nationalCapital":false,"pk":null,"quiz":"asia","code":null,"archived":false,"percentageOfSessions":null}, {"name":"Александровка","state":"Mari El","territory":"","country":"Russia","latitude":55.9300357,"longitude":48.4523749,"population":3,"stateCapital":false,"nationalCapital":false,"pk":null,"quiz":"asia","code":null,"archived":false,"percentageOfSessions":null}, {"name":"Александровка","state":"Mari El","territory":"","country":"Russia","latitude":56.9776624,"longitude":48.3570151,"population":0,"stateCapital":false,"nationalCapital":false,"pk":null,"quiz":"asia","code":null,"archived":false,"percentageOfSessions":null}, {"name":"Александровка","state":"Mari El","territory":"","country":"Russia","latitude":56.658848,"longitude":48.302258,"population":15,"stateCapital":false,"nationalCapital":false,"pk":null,"quiz":"asia","code":null,"archived":false,"percentageOfSessions":null}, {"name":"Александрово","state":"Mari El","territory":"","country":"Russia","latitude":56.584793,"longitude":45.793304,"population":24,"stateCapital":false,"nationalCapital":false,"pk":null,"quiz":"asia","code":null,"archived":false,"percentageOfSessions":null}, {"name":"Александровский","state":"Mari El","territory":"","country":"Russia","latitude":56.8255858,"longitude":49.9057541,"population":44,"stateCapital":false,"nationalCapital":false,"pk":null,"quiz":"asia","code":null,"archived":false,"percentageOfSessions":null}, {"name":"Алексеевка","state":"Mari El","territory":"","country":"Russia","latitude":56.7316613,"longitude":48.3241956,"population":4,"stateCapital":false,"nationalCapital":false,"pk":null,"quiz":"asia","code":null,"archived":false,"percentageOfSessions":null}, {"name":"Алексеевский","state":"Mari El","territory":"","country":"Russia","latitude":56.7462786,"longitude":48.3456786,"population":1644,"stateCapital":false,"nationalCapital":false,"pk":null,"quiz":"asia","code":null,"archived":false,"percentageOfSessions":null}, {"name":"Алексеевское","state":"Mari El","territory":"","country":"Russia","latitude":56.0320679,"longitude":48.4942496,"population":46,"stateCapital":false,"nationalCapital":false,"pk":null,"quiz":"asia","code":null,"archived":false,"percentageOfSessions":null}, {"name":"Алексеевское","state":"Mari El","territory":"","country":"Russia","latitude":56.7205376,"longitude":49.7300631,"population":238,"stateCapital":false,"nationalCapital":false,"pk":null,"quiz":"asia","code":null,"archived":false,"percentageOfSessions":null}, {"name":"Алехино","state":"Mari El","territory":"","country":"Russia","latitude":56.1435749,"longitude":46.3681299,"population":12,"stateCapital":false,"nationalCapital":false,"pk":null,"quiz":"asia","code":null,"archived":false,"percentageOfSessions":null}, {"name":"Алешкино","state":"Mari El","territory":"","country":"Russia","latitude":56.2496951,"longitude":46.5730132,"population":134,"stateCapital":false,"nationalCapital":false,"pk":null,"quiz":"asia","code":null,"archived":false,"percentageOfSessions":null}, {"name":"Алешкино","state":"Mari El","territory":"","country":"Russia","latitude":56.4237486,"longitude":46.7265488,"population":331,"stateCapital":false,"nationalCapital":false,"pk":null,"quiz":"asia","code":null,"archived":false,"percentageOfSessions":null}, {"name":"Алмаматово","state":"Mari El","territory":"","country":"Russia","latitude":57.288548,"longitude":49.096352,"population":14,"stateCapital":false,"nationalCapital":false,"pk":null,"quiz":"asia","code":null,"archived":false,"percentageOfSessions":null}, {"name":"Алмаметьево","state":"Mari El","territory":"","country":"Russia","latitude":56.4928322,"longitude":49.0707363,"population":377,"stateCapital":false,"nationalCapital":false,"pk":null,"quiz":"asia","code":null,"archived":false,"percentageOfSessions":null}, {"name":"Алманово","state":"Mari El","territory":"","country":"Russia","latitude":56.1837715,"longitude":46.3462387,"population":70,"stateCapital":false,"nationalCapital":false,"pk":null,"quiz":"asia","code":null,"archived":false,"percentageOfSessions":null}, {"name":"Амануры","state":"Mari El","territory":"","country":"Russia","latitude":56.1952931,"longitude":46.4354072,"population":55,"stateCapital":false,"nationalCapital":false,"pk":null,"quiz":"asia","code":null,"archived":false,"percentageOfSessions":null}, {"name":"Ананур","state":"Mari El","territory":"","country":"Russia","latitude":57.2710014,"longitude":49.1705243,"population":407,"stateCapital":false,"nationalCapital":false,"pk":null,"quiz":"asia","code":null,"archived":false,"percentageOfSessions":null}, {"name":"Андреевка","state":"Mari El","territory":"","country":"Russia","latitude":56.634155,"longitude":48.241859,"population":2,"stateCapital":false,"nationalCapital":false,"pk":null,"quiz":"asia","code":null,"archived":false,"percentageOfSessions":null}, {"name":"Андреевский","state":"Mari El","territory":"","country":"Russia","latitude":56.7683554,"longitude":49.572212,"population":1,"stateCapital":false,"nationalCapital":false,"pk":null,"quiz":"asia","code":null,"archived":false,"percentageOfSessions":null}, {"name":"Андрюшенки","state":"Mari El","territory":"","country":"Russia","latitude":56.9497686,"longitude":49.1740284,"population":13,"stateCapital":false,"nationalCapital":false,"pk":null,"quiz":"asia","code":null,"archived":false,"percentageOfSessions":null}, {"name":"Анисково","state":"Mari El","territory":"","country":"Russia","latitude":56.9973026,"longitude":48.3096365,"population":2,"stateCapital":false,"nationalCapital":false,"pk":null,"quiz":"asia","code":null,"archived":false,"percentageOfSessions":null}, {"name":"Аниссола","state":"Mari El","territory":"","country":"Russia","latitude":56.2251821,"longitude":48.2798192,"population":157,"stateCapital":false,"nationalCapital":false,"pk":null,"quiz":"asia","code":null,"archived":false,"percentageOfSessions":null}, {"name":"Антоново","state":"Mari El","territory":"","country":"Russia","latitude":56.9377833,"longitude":49.0047703,"population":58,"stateCapital":false,"nationalCapital":false,"pk":null,"quiz":"asia","code":null,"archived":false,"percentageOfSessions":null}, {"name":"Анчутино","state":"Mari El","territory":"","country":"Russia","latitude":56.5366894,"longitude":46.0358262,"population":14,"stateCapital":false,"nationalCapital":false,"pk":null,"quiz":"asia","code":null,"archived":false,"percentageOfSessions":null}, {"name":"Апаево","state":"Mari El","territory":"","country":"Russia","latitude":56.381908,"longitude":46.492718,"population":108,"stateCapital":false,"nationalCapital":false,"pk":null,"quiz":"asia","code":null,"archived":false,"percentageOfSessions":null}, {"name":"Апанаево","state":"Mari El","territory":"","country":"Russia","latitude":56.4439551,"longitude":48.9125084,"population":34,"stateCapital":false,"nationalCapital":false,"pk":null,"quiz":"asia","code":null,"archived":false,"percentageOfSessions":null}, {"name":"Аппаково","state":"Mari El","territory":"","country":"Russia","latitude":56.9759785,"longitude":48.3376173,"population":141,"stateCapital":false,"nationalCapital":false,"pk":null,"quiz":"asia","code":null,"archived":false,"percentageOfSessions":null}, {"name":"Апшакбеляк","state":"Mari El","territory":"","country":"Russia","latitude":56.6752908,"longitude":48.0741745,"population":28,"stateCapital":false,"nationalCapital":false,"pk":null,"quiz":"asia","code":null,"archived":false,"percentageOfSessions":null}, {"name":"Апшак-Пеляк","state":"Mari El","territory":"","country":"Russia","latitude":56.1763505,"longitude":46.7043289,"population":129,"stateCapital":false,"nationalCapital":false,"pk":null,"quiz":"asia","code":null,"archived":false,"percentageOfSessions":null}, {"name":"Арбаны","state":"Mari El","territory":"","country":"Russia","latitude":56.7186498,"longitude":47.769488,"population":327,"stateCapital":false,"nationalCapital":false,"pk":null,"quiz":"asia","code":null,"archived":false,"percentageOfSessions":null}, {"name":"Аргаево","state":"Mari El","territory":"","country":"Russia","latitude":56.1986145,"longitude":46.5762253,"population":58,"stateCapital":false,"nationalCapital":false,"pk":null,"quiz":"asia","code":null,"archived":false,"percentageOfSessions":null}, {"name":"Аргамач","state":"Mari El","territory":"","country":"Russia","latitude":56.7245811,"longitude":47.3369357,"population":1,"stateCapital":false,"nationalCapital":false,"pk":null,"quiz":"asia","code":null,"archived":false,"percentageOfSessions":null}, {"name":"Арда","state":"Mari El","territory":"","country":"Russia","latitude":56.4012476,"longitude":46.7795204,"population":432,"stateCapital":false,"nationalCapital":false,"pk":null,"quiz":"asia","code":null,"archived":false,"percentageOfSessions":null}, {"name":"Арзебеляк","state":"Mari El","territory":"","country":"Russia","latitude":56.0733176,"longitude":47.9979825,"population":99,"stateCapital":false,"nationalCapital":false,"pk":null,"quiz":"asia","code":null,"archived":false,"percentageOfSessions":null}, {"name":"Арино","state":"Mari El","territory":"","country":"Russia","latitude":56.3581714,"longitude":48.8143714,"population":239,"stateCapital":false,"nationalCapital":false,"pk":null,"quiz":"asia","code":null,"archived":false,"percentageOfSessions":null}, {"name":"Артюшкино","state":"Mari El","territory":"","country":"Russia","latitude":56.2173957,"longitude":46.6819811,"population":61,"stateCapital":false,"nationalCapital":false,"pk":null,"quiz":"asia","code":null,"archived":false,"percentageOfSessions":null}, {"name":"Арып-Мурза","state":"Mari El","territory":"","country":"Russia","latitude":56.9456424,"longitude":49.6082609,"population":117,"stateCapital":false,"nationalCapital":false,"pk":null,"quiz":"asia","code":null,"archived":false,"percentageOfSessions":null}, {"name":"Атеево","state":"Mari El","territory":"","country":"Russia","latitude":56.2184439,"longitude":46.2087098,"population":102,"stateCapital":false,"nationalCapital":false,"pk":null,"quiz":"asia","code":null,"archived":false,"percentageOfSessions":null}, {"name":"Атюлово","state":"Mari El","territory":"","country":"Russia","latitude":56.1436928,"longitude":46.2814249,"population":51,"stateCapital":false,"nationalCapital":false,"pk":null,"quiz":"asia","code":null,"archived":false,"percentageOfSessions":null}, {"name":"Атюловский","state":"Mari El","territory":"","country":"Russia","latitude":56.1321602,"longitude":46.2732736,"population":9,"stateCapital":false,"nationalCapital":false,"pk":null,"quiz":"asia","code":null,"archived":false,"percentageOfSessions":null}, {"name":"Афанассола","state":"Mari El","territory":"","country":"Russia","latitude":56.7742169,"longitude":48.5098604,"population":64,"stateCapital":false,"nationalCapital":false,"pk":null,"quiz":"asia","code":null,"archived":false,"percentageOfSessions":null}, {"name":"Афонькино","state":"Mari El","territory":"","country":"Russia","latitude":56.2004908,"longitude":46.6113677,"population":27,"stateCapital":false,"nationalCapital":false,"pk":null,"quiz":"asia","code":null,"archived":false,"percentageOfSessions":null}, {"name":"Ахматенер","state":"Mari El","territory":"","country":"Russia","latitude":56.956676,"longitude":49.334309,"population":28,"stateCapital":false,"nationalCapital":false,"pk":null,"quiz":"asia","code":null,"archived":false,"percentageOfSessions":null}, {"name":"Ахматенер","state":"Mari El","territory":"","country":"Russia","latitude":56.956676,"longitude":49.334309,"population":175,"stateCapital":false,"nationalCapital":false,"pk":null,"quiz":"asia","code":null,"archived":false,"percentageOfSessions":null}, {"name":"Ахперка","state":"Mari El","territory":"","country":"Russia","latitude":56.4015919,"longitude":46.4804552,"population":21,"stateCapital":false,"nationalCapital":false,"pk":null,"quiz":"asia","code":null,"archived":false,"percentageOfSessions":null}, {"name":"Ашланка","state":"Mari El","territory":"","country":"Russia","latitude":55.950128,"longitude":48.5620486,"population":135,"stateCapital":false,"nationalCapital":false,"pk":null,"quiz":"asia","code":null,"archived":false,"percentageOfSessions":null}, {"name":"Ашлань-Билямор","state":"Mari El","territory":"","country":"Russia","latitude":56.8662235,"longitude":49.8847523,"population":86,"stateCapital":false,"nationalCapital":false,"pk":null,"quiz":"asia","code":null,"archived":false,"percentageOfSessions":null}, {"name":"Ашлань-Вершина","state":"Mari El","territory":"","country":"Russia","latitude":56.8630631,"longitude":49.8005216,"population":44,"stateCapital":false,"nationalCapital":false,"pk":null,"quiz":"asia","code":null,"archived":false,"percentageOfSessions":null}, {"name":"Аэропорт","state":"Mari El","territory":"","country":"Russia","latitude":56.6988469,"longitude":47.9087349,"population":289,"stateCapital":false,"nationalCapital":false,"pk":null,"quiz":"asia","code":null,"archived":false,"percentageOfSessions":null}, {"name":"Балдырка","state":"Mari El","territory":"","country":"Russia","latitude":56.3364794,"longitude":48.9302833,"population":98,"stateCapital":false,"nationalCapital":false,"pk":null,"quiz":"asia","code":null,"archived":false,"percentageOfSessions":null}, {"name":"Барковка","state":"Mari El","territory":"","country":"Russia","latitude":56.1585287,"longitude":46.1329334,"population":79,"stateCapital":false,"nationalCapital":false,"pk":null,"quiz":"asia","code":null,"archived":false,"percentageOfSessions":null}, {"name":"Басалаево","state":"Mari El","territory":"","country":"Russia","latitude":56.7794679,"longitude":48.9336639,"population":89,"stateCapital":false,"nationalCapital":false,"pk":null,"quiz":"asia","code":null,"archived":false,"percentageOfSessions":null}, {"name":"Бахтиарово","state":"Mari El","territory":"","country":"Russia","latitude":56.7002841,"longitude":48.2607494,"population":34,"stateCapital":false,"nationalCapital":false,"pk":null,"quiz":"asia","code":null,"archived":false,"percentageOfSessions":null}, {"name":"Бахтино","state":"Mari El","territory":"","country":"Russia","latitude":57.12388,"longitude":48.6330574,"population":12,"stateCapital":false,"nationalCapital":false,"pk":null,"quiz":"asia","code":null,"archived":false,"percentageOfSessions":null}, {"name":"Башкири","state":"Mari El","territory":"","country":"Russia","latitude":56.8782664,"longitude":48.8867966,"population":6,"stateCapital":false,"nationalCapital":false,"pk":null,"quiz":"asia","code":null,"archived":false,"percentageOfSessions":null}, {"name":"Беляево","state":"Mari El","territory":"","country":"Russia","latitude":56.9258935,"longitude":48.227754,"population":10,"stateCapital":false,"nationalCapital":false,"pk":null,"quiz":"asia","code":null,"archived":false,"percentageOfSessions":null}, {"name":"Березники","state":"Mari El","territory":"","country":"Russia","latitude":55.962559,"longitude":48.301669,"population":435,"stateCapital":false,"nationalCapital":false,"pk":null,"quiz":"asia","code":null,"archived":false,"percentageOfSessions":null}, {"name":"Березники","state":"Mari El","territory":"","country":"Russia","latitude":57.296432,"longitude":49.1523144,"population":65,"stateCapital":false,"nationalCapital":false,"pk":null,"quiz":"asia","code":null,"archived":false,"percentageOfSessions":null}, {"name":"Березово","state":"Mari El","territory":"","country":"Russia","latitude":56.1530427,"longitude":46.1955913,"population":71,"stateCapital":false,"nationalCapital":false,"pk":null,"quiz":"asia","code":null,"archived":false,"percentageOfSessions":null}, {"name":"Березово","state":"Mari El","territory":"","country":"Russia","latitude":56.1530427,"longitude":46.1955913,"population":69,"stateCapital":false,"nationalCapital":false,"pk":null,"quiz":"asia","code":null,"archived":false,"percentageOfSessions":null}, {"name":"Березово-Шимбатрово","state":"Mari El","territory":"","country":"Russia","latitude":56.2262183,"longitude":46.2429442,"population":68,"stateCapital":false,"nationalCapital":false,"pk":null,"quiz":"asia","code":null,"archived":false,"percentageOfSessions":null}, {"name":"Березята","state":"Mari El","territory":"","country":"Russia","latitude":56.92366,"longitude":48.55724,"population":25,"stateCapital":false,"nationalCapital":false,"pk":null,"quiz":"asia","code":null,"archived":false,"percentageOfSessions":null}, {"name":"Бизюргуп","state":"Mari El","territory":"","country":"Russia","latitude":55.9617147,"longitude":48.6334652,"population":393,"stateCapital":false,"nationalCapital":false,"pk":null,"quiz":"asia","code":null,"archived":false,"percentageOfSessions":null}, {"name":"Бирюки","state":"Mari El","territory":"","country":"Russia","latitude":56.5831407,"longitude":49.5146693,"population":39,"stateCapital":false,"nationalCapital":false,"pk":null,"quiz":"asia","code":null,"archived":false,"percentageOfSessions":null}, {"name":"Блиново","state":"Mari El","territory":"","country":"Russia","latitude":56.9803433,"longitude":47.8473228,"population":31,"stateCapital":false,"nationalCapital":false,"pk":null,"quiz":"asia","code":null,"archived":false,"percentageOfSessions":null}, {"name":"Болгары","state":"Mari El","territory":"","country":"Russia","latitude":56.451598,"longitude":49.8809535,"population":43,"stateCapital":false,"nationalCapital":false,"pk":null,"quiz":"asia","code":null,"archived":false,"percentageOfSessions":null}, {"name":"Болониха","state":"Mari El","territory":"","country":"Russia","latitude":56.3051506,"longitude":46.5081826,"population":29,"stateCapital":false,"nationalCapital":false,"pk":null,"quiz":"asia","code":null,"archived":false,"percentageOfSessions":null}, {"name":"Болотная","state":"Mari El","territory":"","country":"Russia","latitude":55.957661,"longitude":48.516861,"population":120,"stateCapital":false,"nationalCapital":false,"pk":null,"quiz":"asia","code":null,"archived":false,"percentageOfSessions":null}, {"name":"Большая Арда","state":"Mari El","territory":"","country":"Russia","latitude":56.3912998,"longitude":46.778471,"population":132,"stateCapital":false,"nationalCapital":false,"pk":null,"quiz":"asia","code":null,"archived":false,"percentageOfSessions":null}, {"name":"Большая Вочерма","state":"Mari El","territory":"","country":"Russia","latitude":56.9867233,"longitude":49.6310919,"population":89,"stateCapital":false,"nationalCapital":false,"pk":null,"quiz":"asia","code":null,"archived":false,"percentageOfSessions":null}, {"name":"Большая Гора","state":"Mari El","territory":"","country":"Russia","latitude":57.204391,"longitude":49.060272,"population":71,"stateCapital":false,"nationalCapital":false,"pk":null,"quiz":"asia","code":null,"archived":false,"percentageOfSessions":null}, {"name":"Большая Кемсола","state":"Mari El","territory":"","country":"Russia","latitude":56.9000721,"longitude":48.7310843,"population":111,"stateCapital":false,"nationalCapital":false,"pk":null,"quiz":"asia","code":null,"archived":false,"percentageOfSessions":null}, {"name":"Большая Коклала","state":"Mari El","territory":"","country":"Russia","latitude":56.884907,"longitude":49.10574,"population":196,"stateCapital":false,"nationalCapital":false,"pk":null,"quiz":"asia","code":null,"archived":false,"percentageOfSessions":null}, {"name":"Большая Кульша","state":"Mari El","territory":"","country":"Russia","latitude":57.261448,"longitude":49.115921,"population":6,"stateCapital":false,"nationalCapital":false,"pk":null,"quiz":"asia","code":null,"archived":false,"percentageOfSessions":null}, {"name":"Большая Лумарь","state":"Mari El","territory":"","country":"Russia","latitude":57.1091192,"longitude":48.7120064,"population":338,"stateCapital":false,"nationalCapital":false,"pk":null,"quiz":"asia","code":null,"archived":false,"percentageOfSessions":null}, {"name":"Большая Мушерань","state":"Mari El","territory":"","country":"Russia","latitude":56.4430468,"longitude":48.7656878,"population":139,"stateCapital":false,"nationalCapital":false,"pk":null,"quiz":"asia","code":null,"archived":false,"percentageOfSessions":null}, {"name":"Большая Мушка","state":"Mari El","territory":"","country":"Russia","latitude":56.896114,"longitude":49.145222,"population":290,"stateCapital":false,"nationalCapital":false,"pk":null,"quiz":"asia","code":null,"archived":false,"percentageOfSessions":null}, {"name":"Большая Ноля","state":"Mari El","territory":"","country":"Russia","latitude":56.592973,"longitude":47.8259358,"population":262,"stateCapital":false,"nationalCapital":false,"pk":null,"quiz":"asia","code":null,"archived":false,"percentageOfSessions":null}, {"name":"Большая Нурма","state":"Mari El","territory":"","country":"Russia","latitude":56.916263,"longitude":48.7961011,"population":121,"stateCapital":false,"nationalCapital":false,"pk":null,"quiz":"asia","code":null,"archived":false,"percentageOfSessions":null}, {"name":"Большая Орша","state":"Mari El","territory":"","country":"Russia","latitude":56.9212742,"longitude":47.8221666,"population":429,"stateCapital":false,"nationalCapital":false,"pk":null,"quiz":"asia","code":null,"archived":false,"percentageOfSessions":null}, {"name":"Большая Руясола","state":"Mari El","territory":"","country":"Russia","latitude":56.8121509,"longitude":48.2382921,"population":221,"stateCapital":false,"nationalCapital":false,"pk":null,"quiz":"asia","code":null,"archived":false,"percentageOfSessions":null}, {"name":"Большая Сосновка","state":"Mari El","territory":"","country":"Russia","latitude":56.1076879,"longitude":48.666742,"population":296,"stateCapital":false,"nationalCapital":false,"pk":null,"quiz":"asia","code":null,"archived":false,"percentageOfSessions":null}, {"name":"Большая Убрень","state":"Mari El","territory":"","country":"Russia","latitude":56.8588696,"longitude":47.4056627,"population":65,"stateCapital":false,"nationalCapital":false,"pk":null,"quiz":"asia","code":null,"archived":false,"percentageOfSessions":null}, {"name":"Большая Шимшурга","state":"Mari El","territory":"","country":"Russia","latitude":57.1425066,"longitude":48.3488015,"population":94,"stateCapital":false,"nationalCapital":false,"pk":null,"quiz":"asia","code":null,"archived":false,"percentageOfSessions":null}, {"name":"Большеникольск","state":"Mari El","territory":"","country":"Russia","latitude":56.662395,"longitude":48.352673,"population":102,"stateCapital":false,"nationalCapital":false,"pk":null,"quiz":"asia","code":null,"archived":false,"percentageOfSessions":null}, {"name":"Большие Вележи","state":"Mari El","territory":"","country":"Russia","latitude":56.157593,"longitude":47.99675,"population":136,"stateCapital":false,"nationalCapital":false,"pk":null,"quiz":"asia","code":null,"archived":false,"percentageOfSessions":null}, {"name":"Большие Ключи","state":"Mari El","territory":"","country":"Russia","latitude":57.009918,"longitude":48.996361,"population":245,"stateCapital":false,"nationalCapital":false,"pk":null,"quiz":"asia","code":null,"archived":false,"percentageOfSessions":null}, {"name":"Большие Коршуны","state":"Mari El","territory":"","country":"Russia","latitude":56.7737199,"longitude":50.0689227,"population":0,"stateCapital":false,"nationalCapital":false,"pk":null,"quiz":"asia","code":null,"archived":false,"percentageOfSessions":null}, {"name":"Большие Коршуны","state":"Mari El","territory":"","country":"Russia","latitude":56.7737199,"longitude":50.0689227,"population":0,"stateCapital":false,"nationalCapital":false,"pk":null,"quiz":"asia","code":null,"archived":false,"percentageOfSessions":null}, {"name":"Большие Маламасы","state":"Mari El","territory":"","country":"Russia","latitude":56.033268,"longitude":48.003841,"population":349,"stateCapital":false,"nationalCapital":false,"pk":null,"quiz":"asia","code":null,"archived":false,"percentageOfSessions":null}, {"name":"Большие Ноли","state":"Mari El","territory":"","country":"Russia","latitude":56.8239889,"longitude":49.8300515,"population":242,"stateCapital":false,"nationalCapital":false,"pk":null,"quiz":"asia","code":null,"archived":false,"percentageOfSessions":null}, {"name":"Большие Памъялы","state":"Mari El","territory":"","country":"Russia","latitude":56.7044333,"longitude":46.6593849,"population":228,"stateCapital":false,"nationalCapital":false,"pk":null,"quiz":"asia","code":null,"archived":false,"percentageOfSessions":null}, {"name":"Большие Чирки","state":"Mari El","territory":"","country":"Russia","latitude":56.9432821,"longitude":48.1498028,"population":61,"stateCapital":false,"nationalCapital":false,"pk":null,"quiz":"asia","code":null,"archived":false,"percentageOfSessions":null}, {"name":"Большие Шали","state":"Mari El","territory":"","country":"Russia","latitude":56.4152482,"longitude":48.8386464,"population":546,"stateCapital":false,"nationalCapital":false,"pk":null,"quiz":"asia","code":null,"archived":false,"percentageOfSessions":null}, {"name":"Большие Шапы","state":"Mari El","territory":"","country":"Russia","latitude":56.6636951,"longitude":47.534031,"population":53,"stateCapital":false,"nationalCapital":false,"pk":null,"quiz":"asia","code":null,"archived":false,"percentageOfSessions":null}, {"name":"Большое Кибеево","state":"Mari El","territory":"","country":"Russia","latitude":56.9140659,"longitude":47.076178,"population":150,"stateCapital":false,"nationalCapital":false,"pk":null,"quiz":"asia","code":null,"archived":false,"percentageOfSessions":null}, {"name":"Большое Онучино","state":"Mari El","territory":"","country":"Russia","latitude":56.9354777,"longitude":49.417443,"population":83,"stateCapital":false,"nationalCapital":false,"pk":null,"quiz":"asia","code":null,"archived":false,"percentageOfSessions":null}, {"name":"Большое Опарино","state":"Mari El","territory":"","country":"Russia","latitude":56.6594399,"longitude":49.8505457,"population":472,"stateCapital":false,"nationalCapital":false,"pk":null,"quiz":"asia","code":null,"archived":false,"percentageOfSessions":null}, {"name":"Большое Пызаково","state":"Mari El","territory":"","country":"Russia","latitude":57.0243675,"longitude":48.7606263,"population":62,"stateCapital":false,"nationalCapital":false,"pk":null,"quiz":"asia","code":null,"archived":false,"percentageOfSessions":null}, {"name":"Большое Танаково","state":"Mari El","territory":"","country":"Russia","latitude":57.0850489,"longitude":48.7031198,"population":122,"stateCapital":false,"nationalCapital":false,"pk":null,"quiz":"asia","code":null,"archived":false,"percentageOfSessions":null}, {"name":"Большое Шигаково","state":"Mari El","territory":"","country":"Russia","latitude":56.199924,"longitude":48.326359,"population":45,"stateCapital":false,"nationalCapital":false,"pk":null,"quiz":"asia","code":null,"archived":false,"percentageOfSessions":null}, {"name":"Большой Абанур","state":"Mari El","territory":"","country":"Russia","latitude":56.896748,"longitude":47.136936,"population":130,"stateCapital":false,"nationalCapital":false,"pk":null,"quiz":"asia","code":null,"archived":false,"percentageOfSessions":null}, {"name":"Большой Ашламаш","state":"Mari El","territory":"","country":"Russia","latitude":56.714603,"longitude":48.608036,"population":82,"stateCapital":false,"nationalCapital":false,"pk":null,"quiz":"asia","code":null,"archived":false,"percentageOfSessions":null}, {"name":"Большой Вильял","state":"Mari El","territory":"","country":"Russia","latitude":57.0735737,"longitude":48.6270738,"population":44,"stateCapital":false,"nationalCapital":false,"pk":null,"quiz":"asia","code":null,"archived":false,"percentageOfSessions":null}, {"name":"Большой Ермучаш","state":"Mari El","territory":"","country":"Russia","latitude":56.355968,"longitude":47.076702,"population":102,"stateCapital":false,"nationalCapital":false,"pk":null,"quiz":"asia","code":null,"archived":false,"percentageOfSessions":null}, {"name":"Большой Карлыган","state":"Mari El","territory":"","country":"Russia","latitude":56.565114,"longitude":50.0600448,"population":837,"stateCapital":false,"nationalCapital":false,"pk":null,"quiz":"asia","code":null,"archived":false,"percentageOfSessions":null}, {"name":"Большой Ключ","state":"Mari El","territory":"","country":"Russia","latitude":56.964275,"longitude":49.014557,"population":37,"stateCapital":false,"nationalCapital":false,"pk":null,"quiz":"asia","code":null,"archived":false,"percentageOfSessions":null}, {"name":"Большой Кожвож","state":"Mari El","territory":"","country":"Russia","latitude":56.146603,"longitude":48.133812,"population":160,"stateCapital":false,"nationalCapital":false,"pk":null,"quiz":"asia","code":null,"archived":false,"percentageOfSessions":null}, {"name":"Большой Кожлаял","state":"Mari El","territory":"","country":"Russia","latitude":56.4469738,"longitude":48.9095963,"population":107,"stateCapital":false,"nationalCapital":false,"pk":null,"quiz":"asia","code":null,"archived":false,"percentageOfSessions":null}, {"name":"Большой Кугланур","state":"Mari El","territory":"","country":"Russia","latitude":57.0770954,"longitude":48.2761947,"population":289,"stateCapital":false,"nationalCapital":false,"pk":null,"quiz":"asia","code":null,"archived":false,"percentageOfSessions":null}, {"name":"Большой Кулеял","state":"Mari El","territory":"","country":"Russia","latitude":56.3816629,"longitude":48.9147766,"population":96,"stateCapital":false,"nationalCapital":false,"pk":null,"quiz":"asia","code":null,"archived":false,"percentageOfSessions":null}, {"name":"Большой Кундыш","state":"Mari El","territory":"","country":"Russia","latitude":56.776047,"longitude":46.832607,"population":45,"stateCapital":false,"nationalCapital":false,"pk":null,"quiz":"asia","code":null,"archived":false,"percentageOfSessions":null}, {"name":"Большой Ломбенур","state":"Mari El","territory":"","country":"Russia","latitude":56.845066,"longitude":46.833458,"population":34,"stateCapital":false,"nationalCapital":false,"pk":null,"quiz":"asia","code":null,"archived":false,"percentageOfSessions":null}, {"name":"Большой Ляждур","state":"Mari El","territory":"","country":"Russia","latitude":56.8314529,"longitude":49.2534115,"population":269,"stateCapital":false,"nationalCapital":false,"pk":null,"quiz":"asia","code":null,"archived":false,"percentageOfSessions":null}, {"name":"Большой Немдеж","state":"Mari El","territory":"","country":"Russia","latitude":57.004408,"longitude":48.1764273,"population":13,"stateCapital":false,"nationalCapital":false,"pk":null,"quiz":"asia","code":null,"archived":false,"percentageOfSessions":null}, {"name":"Большой Олыкъял","state":"Mari El","territory":"","country":"Russia","latitude":56.045074,"longitude":48.706173,"population":99,"stateCapital":false,"nationalCapital":false,"pk":null,"quiz":"asia","code":null,"archived":false,"percentageOfSessions":null}, {"name":"Большой Пинеж","state":"Mari El","territory":"","country":"Russia","latitude":56.950443,"longitude":46.695099,"population":47,"stateCapital":false,"nationalCapital":false,"pk":null,"quiz":"asia","code":null,"archived":false,"percentageOfSessions":null}, {"name":"Большой Руял","state":"Mari El","territory":"","country":"Russia","latitude":57.0217794,"longitude":49.6551244,"population":54,"stateCapital":false,"nationalCapital":false,"pk":null,"quiz":"asia","code":null,"archived":false,"percentageOfSessions":null}, {"name":"Большой Сабанер","state":"Mari El","territory":"","country":"Russia","latitude":56.82935,"longitude":48.934105,"population":1,"stateCapital":false,"nationalCapital":false,"pk":null,"quiz":"asia","code":null,"archived":false,"percentageOfSessions":null}, {"name":"Большой Сердеж","state":"Mari El","territory":"","country":"Russia","latitude":56.9396956,"longitude":49.2727777,"population":214,"stateCapital":false,"nationalCapital":false,"pk":null,"quiz":"asia","code":null,"archived":false,"percentageOfSessions":null}, {"name":"Большой Серманангер","state":"Mari El","territory":"","country":"Russia","latitude":56.1735967,"longitude":46.6686048,"population":146,"stateCapital":false,"nationalCapital":false,"pk":null,"quiz":"asia","code":null,"archived":false,"percentageOfSessions":null}, {"name":"Большой Торешкюбар","state":"Mari El","territory":"","country":"Russia","latitude":56.86277,"longitude":49.275341,"population":230,"stateCapital":false,"nationalCapital":false,"pk":null,"quiz":"asia","code":null,"archived":false,"percentageOfSessions":null}, {"name":"Большой Тумьюмучаш","state":"Mari El","territory":"","country":"Russia","latitude":56.8451013,"longitude":48.7662037,"population":301,"stateCapital":false,"nationalCapital":false,"pk":null,"quiz":"asia","code":null,"archived":false,"percentageOfSessions":null}, {"name":"Большой Царанур","state":"Mari El","territory":"","country":"Russia","latitude":56.8248096,"longitude":48.844997,"population":124,"stateCapital":false,"nationalCapital":false,"pk":null,"quiz":"asia","code":null,"archived":false,"percentageOfSessions":null}, {"name":"Большой Шаганур","state":"Mari El","territory":"","country":"Russia","latitude":56.7081961,"longitude":49.8201853,"population":0,"stateCapital":false,"nationalCapital":false,"pk":null,"quiz":"asia","code":null,"archived":false,"percentageOfSessions":null}, {"name":"Большой Шаплак","state":"Mari El","territory":"","country":"Russia","latitude":56.7108049,"longitude":47.9043183,"population":100,"stateCapital":false,"nationalCapital":false,"pk":null,"quiz":"asia","code":null,"archived":false,"percentageOfSessions":null}, {"name":"Большой Шокшем","state":"Mari El","territory":"","country":"Russia","latitude":56.965118,"longitude":48.979706,"population":126,"stateCapital":false,"nationalCapital":false,"pk":null,"quiz":"asia","code":null,"archived":false,"percentageOfSessions":null}, {"name":"Большой Шоръял","state":"Mari El","territory":"","country":"Russia","latitude":56.5047352,"longitude":49.0325034,"population":93,"stateCapital":false,"nationalCapital":false,"pk":null,"quiz":"asia","code":null,"archived":false,"percentageOfSessions":null}, {"name":"Большой Шудугуж","state":"Mari El","territory":"","country":"Russia","latitude":56.8285107,"longitude":46.4433921,"population":9,"stateCapital":false,"nationalCapital":false,"pk":null,"quiz":"asia","code":null,"archived":false,"percentageOfSessions":null}, {"name":"Большой Шургумал","state":"Mari El","territory":"","country":"Russia","latitude":56.8356185,"longitude":48.3813589,"population":30,"stateCapital":false,"nationalCapital":false,"pk":null,"quiz":"asia","code":null,"archived":false,"percentageOfSessions":null}, {"name":"Большой Ярамор","state":"Mari El","territory":"","country":"Russia","latitude":56.4365235,"longitude":48.6526273,"population":73,"stateCapital":false,"nationalCapital":false,"pk":null,"quiz":"asia","code":null,"archived":false,"percentageOfSessions":null}, {"name":"Большой Яшнур","state":"Mari El","territory":"","country":"Russia","latitude":56.684299,"longitude":47.731018,"population":120,"stateCapital":false,"nationalCapital":false,"pk":null,"quiz":"asia","code":null,"archived":false,"percentageOfSessions":null}, {"name":"Бутылченки","state":"Mari El","territory":"","country":"Russia","latitude":57.0375391,"longitude":48.7968469,"population":2,"stateCapital":false,"nationalCapital":false,"pk":null,"quiz":"asia","code":null,"archived":false,"percentageOfSessions":null}, {"name":"Бываенки","state":"Mari El","territory":"","country":"Russia","latitude":56.9370828,"longitude":48.6337523,"population":0,"stateCapital":false,"nationalCapital":false,"pk":null,"quiz":"asia","code":null,"archived":false,"percentageOfSessions":null}, {"name":"Быковка","state":"Mari El","territory":"","country":"Russia","latitude":56.295631,"longitude":46.275528,"population":868,"stateCapital":false,"nationalCapital":false,"pk":null,"quiz":"asia","code":null,"archived":false,"percentageOfSessions":null}, {"name":"Важнангер","state":"Mari El","territory":"","country":"Russia","latitude":56.2219935,"longitude":46.6833838,"population":94,"stateCapital":false,"nationalCapital":false,"pk":null,"quiz":"asia","code":null,"archived":false,"percentageOfSessions":null}, {"name":"Ванюково","state":"Mari El","territory":"","country":"Russia","latitude":56.2331403,"longitude":46.5450548,"population":39,"stateCapital":false,"nationalCapital":false,"pk":null,"quiz":"asia","code":null,"archived":false,"percentageOfSessions":null}, {"name":"Варангуж","state":"Mari El","territory":"","country":"Russia","latitude":56.3651498,"longitude":49.3630284,"population":157,"stateCapital":false,"nationalCapital":false,"pk":null,"quiz":"asia","code":null,"archived":false,"percentageOfSessions":null}, {"name":"Васени","state":"Mari El","territory":"","country":"Russia","latitude":56.924688,"longitude":46.8861593,"population":13,"stateCapital":false,"nationalCapital":false,"pk":null,"quiz":"asia","code":null,"archived":false,"percentageOfSessions":null}, {"name":"Василенки","state":"Mari El","territory":"","country":"Russia","latitude":57.14996,"longitude":49.079239,"population":49,"stateCapital":false,"nationalCapital":false,"pk":null,"quiz":"asia","code":null,"archived":false,"percentageOfSessions":null}, {"name":"Васильевка","state":"Mari El","territory":"","country":"Russia","latitude":56.8474951,"longitude":47.699037,"population":1,"stateCapital":false,"nationalCapital":false,"pk":null,"quiz":"asia","code":null,"archived":false,"percentageOfSessions":null}, {"name":"Васильевское","state":"Mari El","territory":"","country":"Russia","latitude":56.521023,"longitude":45.807724,"population":344,"stateCapital":false,"nationalCapital":false,"pk":null,"quiz":"asia","code":null,"archived":false,"percentageOfSessions":null}, {"name":"Васлеево","state":"Mari El","territory":"","country":"Russia","latitude":56.9199084,"longitude":48.4555279,"population":55,"stateCapital":false,"nationalCapital":false,"pk":null,"quiz":"asia","code":null,"archived":false,"percentageOfSessions":null}, {"name":"Васташуй","state":"Mari El","territory":"","country":"Russia","latitude":56.897232,"longitude":48.636375,"population":69,"stateCapital":false,"nationalCapital":false,"pk":null,"quiz":"asia","code":null,"archived":false,"percentageOfSessions":null}, {"name":"Васюткино","state":"Mari El","territory":"","country":"Russia","latitude":55.9510209,"longitude":48.6085554,"population":95,"stateCapital":false,"nationalCapital":false,"pk":null,"quiz":"asia","code":null,"archived":false,"percentageOfSessions":null}, {"name":"Вахоткино","state":"Mari El","territory":"","country":"Russia","latitude":56.0052434,"longitude":48.6520114,"population":193,"stateCapital":false,"nationalCapital":false,"pk":null,"quiz":"asia","code":null,"archived":false,"percentageOfSessions":null}, {"name":"Веденькино","state":"Mari El","territory":"","country":"Russia","latitude":56.9157242,"longitude":48.8618903,"population":35,"stateCapital":false,"nationalCapital":false,"pk":null,"quiz":"asia","code":null,"archived":false,"percentageOfSessions":null}, {"name":"Ведерники","state":"Mari El","territory":"","country":"Russia","latitude":56.5506995,"longitude":49.9242121,"population":103,"stateCapital":false,"nationalCapital":false,"pk":null,"quiz":"asia","code":null,"archived":false,"percentageOfSessions":null}, {"name":"Ведоснур","state":"Mari El","territory":"","country":"Russia","latitude":56.909489,"longitude":49.302261,"population":3,"stateCapital":false,"nationalCapital":false,"pk":null,"quiz":"asia","code":null,"archived":false,"percentageOfSessions":null}, {"name":"Великополье","state":"Mari El","territory":"","country":"Russia","latitude":56.8122749,"longitude":48.0773787,"population":563,"stateCapital":false,"nationalCapital":false,"pk":null,"quiz":"asia","code":null,"archived":false,"percentageOfSessions":null}, {"name":"Великополье","state":"Mari El","territory":"","country":"Russia","latitude":56.6744189,"longitude":48.4992809,"population":307,"stateCapital":false,"nationalCapital":false,"pk":null,"quiz":"asia","code":null,"archived":false,"percentageOfSessions":null}, {"name":"Верашангер","state":"Mari El","territory":"","country":"Russia","latitude":56.1511782,"longitude":46.3463391,"population":132,"stateCapital":false,"nationalCapital":false,"pk":null,"quiz":"asia","code":null,"archived":false,"percentageOfSessions":null}, {"name":"Вержуково","state":"Mari El","territory":"","country":"Russia","latitude":56.2093536,"longitude":46.3738448,"population":91,"stateCapital":false,"nationalCapital":false,"pk":null,"quiz":"asia","code":null,"archived":false,"percentageOfSessions":null}, {"name":"Верхне-Азъяльский","state":"Mari El","territory":"","country":"Russia","latitude":56.0979861,"longitude":48.8308141,"population":29,"stateCapital":false,"nationalCapital":false,"pk":null,"quiz":"asia","code":null,"archived":false,"percentageOfSessions":null}, {"name":"Верхнее Азяково","state":"Mari El","territory":"","country":"Russia","latitude":56.6250029,"longitude":47.625469,"population":145,"stateCapital":false,"nationalCapital":false,"pk":null,"quiz":"asia","code":null,"archived":false,"percentageOfSessions":null}, {"name":"Верхнее Акчерино","state":"Mari El","territory":"","country":"Russia","latitude":56.2132071,"longitude":46.3065771,"population":63,"stateCapital":false,"nationalCapital":false,"pk":null,"quiz":"asia","code":null,"archived":false,"percentageOfSessions":null}, {"name":"Верхнее Махматово","state":"Mari El","territory":"","country":"Russia","latitude":56.8994159,"longitude":48.688169,"population":70,"stateCapital":false,"nationalCapital":false,"pk":null,"quiz":"asia","code":null,"archived":false,"percentageOfSessions":null}, {"name":"Верхние Памъялы","state":"Mari El","territory":"","country":"Russia","latitude":56.110451,"longitude":48.068733,"population":149,"stateCapital":false,"nationalCapital":false,"pk":null,"quiz":"asia","code":null,"archived":false,"percentageOfSessions":null}, {"name":"Верхние Шелаболки","state":"Mari El","territory":"","country":"Russia","latitude":56.2684224,"longitude":46.5685861,"population":138,"stateCapital":false,"nationalCapital":false,"pk":null,"quiz":"asia","code":null,"archived":false,"percentageOfSessions":null}, {"name":"Верхний Азъял","state":"Mari El","territory":"","country":"Russia","latitude":56.0890416,"longitude":48.7517116,"population":195,"stateCapital":false,"nationalCapital":false,"pk":null,"quiz":"asia","code":null,"archived":false,"percentageOfSessions":null}, {"name":"Верхний Кадам","state":"Mari El","territory":"","country":"Russia","latitude":56.9384614,"longitude":48.4056619,"population":139,"stateCapital":false,"nationalCapital":false,"pk":null,"quiz":"asia","code":null,"archived":false,"percentageOfSessions":null}, {"name":"Верхний Кожлаер","state":"Mari El","territory":"","country":"Russia","latitude":56.3809112,"longitude":48.7241377,"population":306,"stateCapital":false,"nationalCapital":false,"pk":null,"quiz":"asia","code":null,"archived":false,"percentageOfSessions":null}, {"name":"Верхний Кожлаял","state":"Mari El","territory":"","country":"Russia","latitude":56.9243441,"longitude":48.925405,"population":36,"stateCapital":false,"nationalCapital":false,"pk":null,"quiz":"asia","code":null,"archived":false,"percentageOfSessions":null}, {"name":"Верхний Кугенер","state":"Mari El","territory":"","country":"Russia","latitude":57.0790785,"longitude":48.5496545,"population":55,"stateCapital":false,"nationalCapital":false,"pk":null,"quiz":"asia","code":null,"archived":false,"percentageOfSessions":null}, {"name":"Верхний Кугенер","state":"Mari El","territory":"","country":"Russia","latitude":56.8918569,"longitude":49.2017861,"population":376,"stateCapital":false,"nationalCapital":false,"pk":null,"quiz":"asia","code":null,"archived":false,"percentageOfSessions":null}, {"name":"Верхний Малый Сернур","state":"Mari El","territory":"","country":"Russia","latitude":56.97163,"longitude":49.200176,"population":17,"stateCapital":false,"nationalCapital":false,"pk":null,"quiz":"asia","code":null,"archived":false,"percentageOfSessions":null}, {"name":"Верхний Мир","state":"Mari El","territory":"","country":"Russia","latitude":56.4735059,"longitude":49.8835284,"population":15,"stateCapital":false,"nationalCapital":false,"pk":null,"quiz":"asia","code":null,"archived":false,"percentageOfSessions":null}, {"name":"Верхний Нольдур","state":"Mari El","territory":"","country":"Russia","latitude":56.847176,"longitude":49.2133978,"population":169,"stateCapital":false,"nationalCapital":false,"pk":null,"quiz":"asia","code":null,"archived":false,"percentageOfSessions":null}, {"name":"Верхний Обалыш","state":"Mari El","territory":"","country":"Russia","latitude":57.0674148,"longitude":48.8759828,"population":24,"stateCapital":false,"nationalCapital":false,"pk":null,"quiz":"asia","code":null,"archived":false,"percentageOfSessions":null}, {"name":"Верхний Писинер","state":"Mari El","territory":"","country":"Russia","latitude":57.01503,"longitude":49.038235,"population":28,"stateCapital":false,"nationalCapital":false,"pk":null,"quiz":"asia","code":null,"archived":false,"percentageOfSessions":null}, {"name":"Верхний Регеж","state":"Mari El","territory":"","country":"Russia","latitude":56.874635,"longitude":49.1514684,"population":14,"stateCapital":false,"nationalCapital":false,"pk":null,"quiz":"asia","code":null,"archived":false,"percentageOfSessions":null}, {"name":"Верхний Турек","state":"Mari El","territory":"","country":"Russia","latitude":56.7984474,"longitude":49.6173543,"population":220,"stateCapital":false,"nationalCapital":false,"pk":null,"quiz":"asia","code":null,"archived":false,"percentageOfSessions":null}, {"name":"Верхняя Каракша","state":"Mari El","territory":"","country":"Russia","latitude":56.9548293,"longitude":47.9249434,"population":9,"stateCapital":false,"nationalCapital":false,"pk":null,"quiz":"asia","code":null,"archived":false,"percentageOfSessions":null}, {"name":"Верхняя Красная Горка","state":"Mari El","territory":"","country":"Russia","latitude":56.2049679,"longitude":48.7787283,"population":2,"stateCapital":false,"nationalCapital":false,"pk":null,"quiz":"asia","code":null,"archived":false,"percentageOfSessions":null}, {"name":"Верхняя Орья","state":"Mari El","territory":"","country":"Russia","latitude":57.1352926,"longitude":48.7201143,"population":33,"stateCapital":false,"nationalCapital":false,"pk":null,"quiz":"asia","code":null,"archived":false,"percentageOfSessions":null}, {"name":"Верхняя Сенда","state":"Mari El","territory":"","country":"Russia","latitude":56.7736998,"longitude":49.8654137,"population":35,"stateCapital":false,"nationalCapital":false,"pk":null,"quiz":"asia","code":null,"archived":false,"percentageOfSessions":null}, {"name":"Верхняя Чуча","state":"Mari El","territory":"","country":"Russia","latitude":57.047654,"longitude":48.7064028,"population":33,"stateCapital":false,"nationalCapital":false,"pk":null,"quiz":"asia","code":null,"archived":false,"percentageOfSessions":null}, {"name":"Верх-Ушнур","state":"Mari El","territory":"","country":"Russia","latitude":56.776047,"longitude":48.641312,"population":537,"stateCapital":false,"nationalCapital":false,"pk":null,"quiz":"asia","code":null,"archived":false,"percentageOfSessions":null}, {"name":"Верх-Ушут","state":"Mari El","territory":"","country":"Russia","latitude":56.802711,"longitude":48.757061,"population":153,"stateCapital":false,"nationalCapital":false,"pk":null,"quiz":"asia","code":null,"archived":false,"percentageOfSessions":null}, {"name":"Вершинята","state":"Mari El","territory":"","country":"Russia","latitude":56.907356,"longitude":48.585564,"population":7,"stateCapital":false,"nationalCapital":false,"pk":null,"quiz":"asia","code":null,"archived":false,"percentageOfSessions":null}, {"name":"Весьшурга","state":"Mari El","territory":"","country":"Russia","latitude":56.5508813,"longitude":48.8021729,"population":273,"stateCapital":false,"nationalCapital":false,"pk":null,"quiz":"asia","code":null,"archived":false,"percentageOfSessions":null}, {"name":"Веткино","state":"Mari El","territory":"","country":"Russia","latitude":56.908955,"longitude":49.205734,"population":32,"stateCapital":false,"nationalCapital":false,"pk":null,"quiz":"asia","code":null,"archived":false,"percentageOfSessions":null}, {"name":"Видякино","state":"Mari El","territory":"","country":"Russia","latitude":56.9701441,"longitude":47.8809891,"population":16,"stateCapital":false,"nationalCapital":false,"pk":null,"quiz":"asia","code":null,"archived":false,"percentageOfSessions":null}, {"name":"Визимбирь","state":"Mari El","territory":"","country":"Russia","latitude":56.6592334,"longitude":49.0585592,"population":152,"stateCapital":false,"nationalCapital":false,"pk":null,"quiz":"asia","code":null,"archived":false,"percentageOfSessions":null}, {"name":"Визимка","state":"Mari El","territory":"","country":"Russia","latitude":56.724857,"longitude":48.9493843,"population":41,"stateCapital":false,"nationalCapital":false,"pk":null,"quiz":"asia","code":null,"archived":false,"percentageOfSessions":null}, {"name":"Визимьяры","state":"Mari El","territory":"","country":"Russia","latitude":56.43863,"longitude":46.9397581,"population":2100,"stateCapital":false,"nationalCapital":false,"pk":null,"quiz":"asia","code":null,"archived":false,"percentageOfSessions":null}, {"name":"Виловатово","state":"Mari El","territory":"","country":"Russia","latitude":56.1760812,"longitude":46.6047038,"population":1360,"stateCapital":false,"nationalCapital":false,"pk":null,"quiz":"asia","code":null,"archived":false,"percentageOfSessions":null}, {"name":"Владимирское","state":"Mari El","territory":"","country":"Russia","latitude":56.2874656,"longitude":46.6192207,"population":27,"stateCapital":false,"nationalCapital":false,"pk":null,"quiz":"asia","code":null,"archived":false,"percentageOfSessions":null}, {"name":"Водозерье","state":"Mari El","territory":"","country":"Russia","latitude":56.767649,"longitude":46.8587233,"population":178,"stateCapital":false,"nationalCapital":false,"pk":null,"quiz":"asia","code":null,"archived":false,"percentageOfSessions":null}, {"name":"Вознесенка","state":"Mari El","territory":"","country":"Russia","latitude":56.704487,"longitude":45.923134,"population":23,"stateCapital":false,"nationalCapital":false,"pk":null,"quiz":"asia","code":null,"archived":false,"percentageOfSessions":null}, {"name":"Вознесенск","state":"Mari El","territory":"","country":"Russia","latitude":56.72436,"longitude":48.3571759,"population":22,"stateCapital":false,"nationalCapital":false,"pk":null,"quiz":"asia","code":null,"archived":false,"percentageOfSessions":null}, {"name":"Вознесенский","state":"Mari El","territory":"","country":"Russia","latitude":56.6066715,"longitude":47.9810038,"population":109,"stateCapital":false,"nationalCapital":false,"pk":null,"quiz":"asia","code":null,"archived":false,"percentageOfSessions":null}, {"name":"Волжск","state":"Mari El","territory":"","country":"Russia","latitude":55.8636579,"longitude":48.3618598,"population":55659,"stateCapital":false,"nationalCapital":false,"pk":null,"quiz":"asia","code":null,"archived":false,"percentageOfSessions":null}, {"name":"Волна","state":"Mari El","territory":"","country":"Russia","latitude":56.2765268,"longitude":46.626371,"population":14,"stateCapital":false,"nationalCapital":false,"pk":null,"quiz":"asia","code":null,"archived":false,"percentageOfSessions":null}, {"name":"Вонжедур","state":"Mari El","territory":"","country":"Russia","latitude":56.4246565,"longitude":48.7567463,"population":114,"stateCapital":false,"nationalCapital":false,"pk":null,"quiz":"asia","code":null,"archived":false,"percentageOfSessions":null}, {"name":"Вонжеполь","state":"Mari El","territory":"","country":"Russia","latitude":56.3654031,"longitude":48.6491604,"population":96,"stateCapital":false,"nationalCapital":false,"pk":null,"quiz":"asia","code":null,"archived":false,"percentageOfSessions":null}, {"name":"Воробьи","state":"Mari El","territory":"","country":"Russia","latitude":56.9585266,"longitude":47.8611068,"population":13,"stateCapital":false,"nationalCapital":false,"pk":null,"quiz":"asia","code":null,"archived":false,"percentageOfSessions":null}, {"name":"Ворончихино","state":"Mari El","territory":"","country":"Russia","latitude":56.8444313,"longitude":49.9692379,"population":0,"stateCapital":false,"nationalCapital":false,"pk":null,"quiz":"asia","code":null,"archived":false,"percentageOfSessions":null}, {"name":"Воскресенский","state":"Mari El","territory":"","country":"Russia","latitude":55.9684508,"longitude":48.5802697,"population":43,"stateCapital":false,"nationalCapital":false,"pk":null,"quiz":"asia","code":null,"archived":false,"percentageOfSessions":null}, {"name":"Воскресенское","state":"Mari El","territory":"","country":"Russia","latitude":56.8481692,"longitude":48.2448152,"population":8,"stateCapital":false,"nationalCapital":false,"pk":null,"quiz":"asia","code":null,"archived":false,"percentageOfSessions":null}, {"name":"Вочарма","state":"Mari El","territory":"","country":"Russia","latitude":56.8270153,"longitude":49.4128527,"population":125,"stateCapital":false,"nationalCapital":false,"pk":null,"quiz":"asia","code":null,"archived":false,"percentageOfSessions":null}, {"name":"Вошма","state":"Mari El","territory":"","country":"Russia","latitude":57.0205647,"longitude":49.5849149,"population":61,"stateCapital":false,"nationalCapital":false,"pk":null,"quiz":"asia","code":null,"archived":false,"percentageOfSessions":null}, {"name":"Выползово","state":"Mari El","territory":"","country":"Russia","latitude":56.7181415,"longitude":48.1793045,"population":4,"stateCapital":false,"nationalCapital":false,"pk":null,"quiz":"asia","code":null,"archived":false,"percentageOfSessions":null}, {"name":"Высоково","state":"Mari El","territory":"","country":"Russia","latitude":56.2505151,"longitude":46.518679,"population":26,"stateCapital":false,"nationalCapital":false,"pk":null,"quiz":"asia","code":null,"archived":false,"percentageOfSessions":null}, {"name":"Вякшлап","state":"Mari El","territory":"","country":"Russia","latitude":56.1744087,"longitude":46.7444473,"population":9,"stateCapital":false,"nationalCapital":false,"pk":null,"quiz":"asia","code":null,"archived":false,"percentageOfSessions":null}, {"name":"Вятское","state":"Mari El","territory":"","country":"Russia","latitude":56.7782407,"longitude":48.5148203,"population":1777,"stateCapital":false,"nationalCapital":false,"pk":null,"quiz":"asia","code":null,"archived":false,"percentageOfSessions":null}, {"name":"Вятчино","state":"Mari El","territory":"","country":"Russia","latitude":57.1588648,"longitude":48.5602578,"population":4,"stateCapital":false,"nationalCapital":false,"pk":null,"quiz":"asia","code":null,"archived":false,"percentageOfSessions":null}, {"name":"Гаврениха","state":"Mari El","territory":"","country":"Russia","latitude":56.2870111,"longitude":46.5127962,"population":13,"stateCapital":false,"nationalCapital":false,"pk":null,"quiz":"asia","code":null,"archived":false,"percentageOfSessions":null}, {"name":"Гари","state":"Mari El","territory":"","country":"Russia","latitude":56.6282049,"longitude":48.0303064,"population":31,"stateCapital":false,"nationalCapital":false,"pk":null,"quiz":"asia","code":null,"archived":false,"percentageOfSessions":null}, {"name":"Глазырино","state":"Mari El","territory":"","country":"Russia","latitude":56.935047,"longitude":49.265644,"population":103,"stateCapital":false,"nationalCapital":false,"pk":null,"quiz":"asia","code":null,"archived":false,"percentageOfSessions":null}, {"name":"Головино","state":"Mari El","territory":"","country":"Russia","latitude":56.9142892,"longitude":47.6358758,"population":34,"stateCapital":false,"nationalCapital":false,"pk":null,"quiz":"asia","code":null,"archived":false,"percentageOfSessions":null}, {"name":"Голубое Озеро","state":"Mari El","territory":"","country":"Russia","latitude":56.7905705,"longitude":47.8947822,"population":0,"stateCapital":false,"nationalCapital":false,"pk":null,"quiz":"asia","code":null,"archived":false,"percentageOfSessions":null}, {"name":"Голубой","state":"Mari El","territory":"","country":"Russia","latitude":56.604362,"longitude":48.461315,"population":428,"stateCapital":false,"nationalCapital":false,"pk":null,"quiz":"asia","code":null,"archived":false,"percentageOfSessions":null}, {"name":"Горная Поляна","state":"Mari El","territory":"","country":"Russia","latitude":56.640697,"longitude":48.456131,"population":49,"stateCapital":false,"nationalCapital":false,"pk":null,"quiz":"asia","code":null,"archived":false,"percentageOfSessions":null}, {"name":"Горный Шумец","state":"Mari El","territory":"","country":"Russia","latitude":56.2771628,"longitude":46.1647788,"population":159,"stateCapital":false,"nationalCapital":false,"pk":null,"quiz":"asia","code":null,"archived":false,"percentageOfSessions":null}, {"name":"Горняк","state":"Mari El","territory":"","country":"Russia","latitude":56.862015,"longitude":49.053745,"population":315,"stateCapital":false,"nationalCapital":false,"pk":null,"quiz":"asia","code":null,"archived":false,"percentageOfSessions":null}, {"name":"Гришино","state":"Mari El","territory":"","country":"Russia","latitude":56.799042,"longitude":48.524967,"population":44,"stateCapital":false,"nationalCapital":false,"pk":null,"quiz":"asia","code":null,"archived":false,"percentageOfSessions":null}, {"name":"Гришунята","state":"Mari El","territory":"","country":"Russia","latitude":56.956795,"longitude":48.2317022,"population":4,"stateCapital":false,"nationalCapital":false,"pk":null,"quiz":"asia","code":null,"archived":false,"percentageOfSessions":null}, {"name":"Губино","state":"Mari El","territory":"","country":"Russia","latitude":57.2143356,"longitude":49.1802726,"population":3,"stateCapital":false,"nationalCapital":false,"pk":null,"quiz":"asia","code":null,"archived":false,"percentageOfSessions":null}, {"name":"Гуляево","state":"Mari El","territory":"","country":"Russia","latitude":56.8085871,"longitude":49.0839669,"population":2,"stateCapital":false,"nationalCapital":false,"pk":null,"quiz":"asia","code":null,"archived":false,"percentageOfSessions":null}, {"name":"Гусево","state":"Mari El","territory":"","country":"Russia","latitude":56.9540965,"longitude":47.7526072,"population":0,"stateCapital":false,"nationalCapital":false,"pk":null,"quiz":"asia","code":null,"archived":false,"percentageOfSessions":null}, {"name":"Дальний Кужнур","state":"Mari El","territory":"","country":"Russia","latitude":56.4463813,"longitude":49.0343916,"population":35,"stateCapital":false,"nationalCapital":false,"pk":null,"quiz":"asia","code":null,"archived":false,"percentageOfSessions":null}, {"name":"Данилиха","state":"Mari El","territory":"","country":"Russia","latitude":56.2917082,"longitude":46.4920398,"population":10,"stateCapital":false,"nationalCapital":false,"pk":null,"quiz":"asia","code":null,"archived":false,"percentageOfSessions":null}, {"name":"Данилкино","state":"Mari El","territory":"","country":"Russia","latitude":56.0781016,"longitude":48.7901375,"population":94,"stateCapital":false,"nationalCapital":false,"pk":null,"quiz":"asia","code":null,"archived":false,"percentageOfSessions":null}, {"name":"Данилкино","state":"Mari El","territory":"","country":"Russia","latitude":56.691757,"longitude":47.713955,"population":113,"stateCapital":false,"nationalCapital":false,"pk":null,"quiz":"asia","code":null,"archived":false,"percentageOfSessions":null}, {"name":"Данилово","state":"Mari El","territory":"","country":"Russia","latitude":56.6608,"longitude":47.980383,"population":776,"stateCapital":false,"nationalCapital":false,"pk":null,"quiz":"asia","code":null,"archived":false,"percentageOfSessions":null}, {"name":"Данилово","state":"Mari El","territory":"","country":"Russia","latitude":56.7599889,"longitude":49.2900969,"population":13,"stateCapital":false,"nationalCapital":false,"pk":null,"quiz":"asia","code":null,"archived":false,"percentageOfSessions":null}, {"name":"Дворики","state":"Mari El","territory":"","country":"Russia","latitude":56.2356522,"longitude":46.2606584,"population":1,"stateCapital":false,"nationalCapital":false,"pk":null,"quiz":"asia","code":null,"archived":false,"percentageOfSessions":null}, {"name":"Дементьево","state":"Mari El","territory":"","country":"Russia","latitude":56.8873638,"longitude":48.9261928,"population":128,"stateCapital":false,"nationalCapital":false,"pk":null,"quiz":"asia","code":null,"archived":false,"percentageOfSessions":null}, {"name":"Демушенки","state":"Mari El","territory":"","country":"Russia","latitude":57.0965264,"longitude":48.565147,"population":0,"stateCapital":false,"nationalCapital":false,"pk":null,"quiz":"asia","code":null,"archived":false,"percentageOfSessions":null}, {"name":"Денисовка","state":"Mari El","territory":"","country":"Russia","latitude":56.5889514,"longitude":45.9955207,"population":22,"stateCapital":false,"nationalCapital":false,"pk":null,"quiz":"asia","code":null,"archived":false,"percentageOfSessions":null}, {"name":"Дианово","state":"Mari El","territory":"","country":"Russia","latitude":56.5115517,"longitude":45.9793845,"population":0,"stateCapital":false,"nationalCapital":false,"pk":null,"quiz":"asia","code":null,"archived":false,"percentageOfSessions":null}, {"name":"Дигино","state":"Mari El","territory":"","country":"Russia","latitude":56.5604481,"longitude":48.8596829,"population":49,"stateCapital":false,"nationalCapital":false,"pk":null,"quiz":"asia","code":null,"archived":false,"percentageOfSessions":null}, {"name":"Долбачи","state":"Mari El","territory":"","country":"Russia","latitude":56.9636585,"longitude":48.5511827,"population":53,"stateCapital":false,"nationalCapital":false,"pk":null,"quiz":"asia","code":null,"archived":false,"percentageOfSessions":null}, {"name":"Долгая Старица","state":"Mari El","territory":"","country":"Russia","latitude":56.3319063,"longitude":47.5448641,"population":35,"stateCapital":false,"nationalCapital":false,"pk":null,"quiz":"asia","code":null,"archived":false,"percentageOfSessions":null}, {"name":"Дом Инвалидов","state":"Mari El","territory":"","country":"Russia","latitude":56.2612212,"longitude":48.8131063,"population":296,"stateCapital":false,"nationalCapital":false,"pk":null,"quiz":"asia","code":null,"archived":false,"percentageOfSessions":null}, {"name":"Дорожный","state":"Mari El","territory":"","country":"Russia","latitude":56.6789109,"longitude":47.901732,"population":418,"stateCapital":false,"nationalCapital":false,"pk":null,"quiz":"asia","code":null,"archived":false,"percentageOfSessions":null}, {"name":"Досметкино","state":"Mari El","territory":"","country":"Russia","latitude":56.3585633,"longitude":49.2869913,"population":106,"stateCapital":false,"nationalCapital":false,"pk":null,"quiz":"asia","code":null,"archived":false,"percentageOfSessions":null}, {"name":"Дружба","state":"Mari El","territory":"","country":"Russia","latitude":56.1474295,"longitude":48.0329928,"population":13,"stateCapital":false,"nationalCapital":false,"pk":null,"quiz":"asia","code":null,"archived":false,"percentageOfSessions":null}, {"name":"Дружино","state":"Mari El","territory":"","country":"Russia","latitude":56.5395327,"longitude":49.9458415,"population":117,"stateCapital":false,"nationalCapital":false,"pk":null,"quiz":"asia","code":null,"archived":false,"percentageOfSessions":null}, {"name":"Дубники","state":"Mari El","territory":"","country":"Russia","latitude":56.9727536,"longitude":49.1196663,"population":170,"stateCapital":false,"nationalCapital":false,"pk":null,"quiz":"asia","code":null,"archived":false,"percentageOfSessions":null}, {"name":"Дубовляны","state":"Mari El","territory":"","country":"Russia","latitude":57.0847178,"longitude":48.4045915,"population":0,"stateCapital":false,"nationalCapital":false,"pk":null,"quiz":"asia","code":null,"archived":false,"percentageOfSessions":null}, {"name":"Дубовляны","state":"Mari El","territory":"","country":"Russia","latitude":56.9821525,"longitude":48.1199507,"population":3,"stateCapital":false,"nationalCapital":false,"pk":null,"quiz":"asia","code":null,"archived":false,"percentageOfSessions":null}, {"name":"Дубовский","state":"Mari El","territory":"","country":"Russia","latitude":56.3423663,"longitude":46.7939771,"population":16,"stateCapital":false,"nationalCapital":false,"pk":null,"quiz":"asia","code":null,"archived":false,"percentageOfSessions":null}, {"name":"Дубровка","state":"Mari El","territory":"","country":"Russia","latitude":56.783739,"longitude":49.0703528,"population":0,"stateCapital":false,"nationalCapital":false,"pk":null,"quiz":"asia","code":null,"archived":false,"percentageOfSessions":null}, {"name":"Дубровка","state":"Mari El","territory":"","country":"Russia","latitude":56.5407631,"longitude":49.9975115,"population":8,"stateCapital":false,"nationalCapital":false,"pk":null,"quiz":"asia","code":null,"archived":false,"percentageOfSessions":null}, {"name":"Дубровка","state":"Mari El","territory":"","country":"Russia","latitude":56.5544728,"longitude":49.4610909,"population":21,"stateCapital":false,"nationalCapital":false,"pk":null,"quiz":"asia","code":null,"archived":false,"percentageOfSessions":null}, {"name":"Дурмагашево","state":"Mari El","territory":"","country":"Russia","latitude":57.299831,"longitude":49.207092,"population":1,"stateCapital":false,"nationalCapital":false,"pk":null,"quiz":"asia","code":null,"archived":false,"percentageOfSessions":null}, {"name":"Евсейкино","state":"Mari El","territory":"","country":"Russia","latitude":56.2835886,"longitude":46.9349704,"population":86,"stateCapital":false,"nationalCapital":false,"pk":null,"quiz":"asia","code":null,"archived":false,"percentageOfSessions":null}, {"name":"Егоркино","state":"Mari El","territory":"","country":"Russia","latitude":56.3835521,"longitude":48.9259116,"population":75,"stateCapital":false,"nationalCapital":false,"pk":null,"quiz":"asia","code":null,"archived":false,"percentageOfSessions":null}, {"name":"Егорково","state":"Mari El","territory":"","country":"Russia","latitude":56.9072375,"longitude":49.4011797,"population":132,"stateCapital":false,"nationalCapital":false,"pk":null,"quiz":"asia","code":null,"archived":false,"percentageOfSessions":null}, {"name":"Егорята-Мишата","state":"Mari El","territory":"","country":"Russia","latitude":56.9713023,"longitude":48.6449174,"population":11,"stateCapital":false,"nationalCapital":false,"pk":null,"quiz":"asia","code":null,"archived":false,"percentageOfSessions":null}, {"name":"Егошино","state":"Mari El","territory":"","country":"Russia","latitude":57.1524288,"longitude":48.7022615,"population":6,"stateCapital":false,"nationalCapital":false,"pk":null,"quiz":"asia","code":null,"archived":false,"percentageOfSessions":null}, {"name":"Егошино","state":"Mari El","territory":"","country":"Russia","latitude":56.723484,"longitude":48.469521,"population":0,"stateCapital":false,"nationalCapital":false,"pk":null,"quiz":"asia","code":null,"archived":false,"percentageOfSessions":null}, {"name":"Ежово","state":"Mari El","territory":"","country":"Russia","latitude":56.7133004,"longitude":48.1210383,"population":1538,"stateCapital":false,"nationalCapital":false,"pk":null,"quiz":"asia","code":null,"archived":false,"percentageOfSessions":null}, {"name":"Ексей Мари","state":"Mari El","territory":"","country":"Russia","latitude":57.0104856,"longitude":48.6545305,"population":4,"stateCapital":false,"nationalCapital":false,"pk":null,"quiz":"asia","code":null,"archived":false,"percentageOfSessions":null}, {"name":"Ексей-Елкино","state":"Mari El","territory":"","country":"Russia","latitude":57.0166539,"longitude":48.6462907,"population":13,"stateCapital":false,"nationalCapital":false,"pk":null,"quiz":"asia","code":null,"archived":false,"percentageOfSessions":null}, {"name":"Елагино","state":"Mari El","territory":"","country":"Russia","latitude":55.9826629,"longitude":48.5096728,"population":48,"stateCapital":false,"nationalCapital":false,"pk":null,"quiz":"asia","code":null,"archived":false,"percentageOfSessions":null}, {"name":"Еласы","state":"Mari El","territory":"","country":"Russia","latitude":56.1703303,"longitude":46.4644195,"population":539,"stateCapital":false,"nationalCapital":false,"pk":null,"quiz":"asia","code":null,"archived":false,"percentageOfSessions":null}, {"name":"Елеево","state":"Mari El","territory":"","country":"Russia","latitude":56.8535966,"longitude":49.4182104,"population":783,"stateCapital":false,"nationalCapital":false,"pk":null,"quiz":"asia","code":null,"archived":false,"percentageOfSessions":null}, {"name":"Елейкино","state":"Mari El","territory":"","country":"Russia","latitude":56.3975945,"longitude":48.863989,"population":28,"stateCapital":false,"nationalCapital":false,"pk":null,"quiz":"asia","code":null,"archived":false,"percentageOfSessions":null}, {"name":"Елембаево","state":"Mari El","territory":"","country":"Russia","latitude":56.97257,"longitude":48.5898233,"population":467,"stateCapital":false,"nationalCapital":false,"pk":null,"quiz":"asia","code":null,"archived":false,"percentageOfSessions":null}, {"name":"Елемучаш","state":"Mari El","territory":"","country":"Russia","latitude":56.740799,"longitude":47.741245,"population":10,"stateCapital":false,"nationalCapital":false,"pk":null,"quiz":"asia","code":null,"archived":false,"percentageOfSessions":null}, {"name":"Елемучаш","state":"Mari El","territory":"","country":"Russia","latitude":56.740799,"longitude":47.741245,"population":94,"stateCapital":false,"nationalCapital":false,"pk":null,"quiz":"asia","code":null,"archived":false,"percentageOfSessions":null}, {"name":"Елка","state":"Mari El","territory":"","country":"Russia","latitude":56.7674146,"longitude":49.7172659,"population":12,"stateCapital":false,"nationalCapital":false,"pk":null,"quiz":"asia","code":null,"archived":false,"percentageOfSessions":null}, {"name":"Елубкино","state":"Mari El","territory":"","country":"Russia","latitude":56.2335408,"longitude":46.4666763,"population":32,"stateCapital":false,"nationalCapital":false,"pk":null,"quiz":"asia","code":null,"archived":false,"percentageOfSessions":null}, {"name":"Елшинка","state":"Mari El","territory":"","country":"Russia","latitude":57.0151072,"longitude":48.4537893,"population":2,"stateCapital":false,"nationalCapital":false,"pk":null,"quiz":"asia","code":null,"archived":false,"percentageOfSessions":null}, {"name":"Елымбаево","state":"Mari El","territory":"","country":"Russia","latitude":56.8121948,"longitude":49.8306369,"population":398,"stateCapital":false,"nationalCapital":false,"pk":null,"quiz":"asia","code":null,"archived":false,"percentageOfSessions":null}, {"name":"Ельниково","state":"Mari El","territory":"","country":"Russia","latitude":56.1887604,"longitude":46.651632,"population":87,"stateCapital":false,"nationalCapital":false,"pk":null,"quiz":"asia","code":null,"archived":false,"percentageOfSessions":null}, {"name":"Ельняги","state":"Mari El","territory":"","country":"Russia","latitude":56.6764322,"longitude":47.7927885,"population":206,"stateCapital":false,"nationalCapital":false,"pk":null,"quiz":"asia","code":null,"archived":false,"percentageOfSessions":null}, {"name":"Ельсуково","state":"Mari El","territory":"","country":"Russia","latitude":56.7033948,"longitude":49.7337599,"population":0,"stateCapital":false,"nationalCapital":false,"pk":null,"quiz":"asia","code":null,"archived":false,"percentageOfSessions":null}, {"name":"Емангаши","state":"Mari El","territory":"","country":"Russia","latitude":56.234189,"longitude":46.238146,"population":404,"stateCapital":false,"nationalCapital":false,"pk":null,"quiz":"asia","code":null,"archived":false,"percentageOfSessions":null}, {"name":"Емелево","state":"Mari El","territory":"","country":"Russia","latitude":56.1406009,"longitude":46.3885651,"population":242,"stateCapital":false,"nationalCapital":false,"pk":null,"quiz":"asia","code":null,"archived":false,"percentageOfSessions":null}, {"name":"Емешево","state":"Mari El","territory":"","country":"Russia","latitude":56.2299715,"longitude":46.3460108,"population":248,"stateCapital":false,"nationalCapital":false,"pk":null,"quiz":"asia","code":null,"archived":false,"percentageOfSessions":null}, {"name":"Еникеево","state":"Mari El","territory":"","country":"Russia","latitude":56.396938,"longitude":46.437378,"population":273,"stateCapital":false,"nationalCapital":false,"pk":null,"quiz":"asia","code":null,"archived":false,"percentageOfSessions":null}, {"name":"Ермаково","state":"Mari El","territory":"","country":"Russia","latitude":56.1400643,"longitude":46.5615275,"population":28,"stateCapital":false,"nationalCapital":false,"pk":null,"quiz":"asia","code":null,"archived":false,"percentageOfSessions":null}, {"name":"Ерофейково","state":"Mari El","territory":"","country":"Russia","latitude":57.083055,"longitude":48.7662054,"population":22,"stateCapital":false,"nationalCapital":false,"pk":null,"quiz":"asia","code":null,"archived":false,"percentageOfSessions":null}, {"name":"Ерошкино","state":"Mari El","territory":"","country":"Russia","latitude":56.8225552,"longitude":48.7830273,"population":38,"stateCapital":false,"nationalCapital":false,"pk":null,"quiz":"asia","code":null,"archived":false,"percentageOfSessions":null}, {"name":"Ерсола","state":"Mari El","territory":"","country":"Russia","latitude":56.4813771,"longitude":48.7661726,"population":9,"stateCapital":false,"nationalCapital":false,"pk":null,"quiz":"asia","code":null,"archived":false,"percentageOfSessions":null}, {"name":"Ерумбал","state":"Mari El","territory":"","country":"Russia","latitude":56.3810778,"longitude":49.0813851,"population":132,"stateCapital":false,"nationalCapital":false,"pk":null,"quiz":"asia","code":null,"archived":false,"percentageOfSessions":null}, {"name":"Ерши","state":"Mari El","territory":"","country":"Russia","latitude":57.0600762,"longitude":48.9979039,"population":61,"stateCapital":false,"nationalCapital":false,"pk":null,"quiz":"asia","code":null,"archived":false,"percentageOfSessions":null}, {"name":"Ершово","state":"Mari El","territory":"","country":"Russia","latitude":56.3952131,"longitude":46.8493199,"population":144,"stateCapital":false,"nationalCapital":false,"pk":null,"quiz":"asia","code":null,"archived":false,"percentageOfSessions":null}, {"name":"Есенейсола","state":"Mari El","territory":"","country":"Russia","latitude":56.7288486,"longitude":48.0419509,"population":75,"stateCapital":false,"nationalCapital":false,"pk":null,"quiz":"asia","code":null,"archived":false,"percentageOfSessions":null}, {"name":"Есимбаево","state":"Mari El","territory":"","country":"Russia","latitude":57.0293612,"longitude":48.2883767,"population":10,"stateCapital":false,"nationalCapital":false,"pk":null,"quiz":"asia","code":null,"archived":false,"percentageOfSessions":null}, {"name":"Ешимово","state":"Mari El","territory":"","country":"Russia","latitude":57.1009031,"longitude":48.7702394,"population":1,"stateCapital":false,"nationalCapital":false,"pk":null,"quiz":"asia","code":null,"archived":false,"percentageOfSessions":null}, {"name":"Заводской","state":"Mari El","territory":"","country":"Russia","latitude":56.7791724,"longitude":49.679672,"population":136,"stateCapital":false,"nationalCapital":false,"pk":null,"quiz":"asia","code":null,"archived":false,"percentageOfSessions":null}, {"name":"Загуры","state":"Mari El","territory":"","country":"Russia","latitude":56.5793466,"longitude":47.8470536,"population":91,"stateCapital":false,"nationalCapital":false,"pk":null,"quiz":"asia","code":null,"archived":false,"percentageOfSessions":null}, {"name":"Зайцево","state":"Mari El","territory":"","country":"Russia","latitude":57.0203668,"longitude":47.7733129,"population":12,"stateCapital":false,"nationalCapital":false,"pk":null,"quiz":"asia","code":null,"archived":false,"percentageOfSessions":null}, {"name":"Замятино","state":"Mari El","territory":"","country":"Russia","latitude":56.2361398,"longitude":46.499328,"population":56,"stateCapital":false,"nationalCapital":false,"pk":null,"quiz":"asia","code":null,"archived":false,"percentageOfSessions":null}, {"name":"Заовражные Пертнуры","state":"Mari El","territory":"","country":"Russia","latitude":56.2334273,"longitude":46.4290282,"population":76,"stateCapital":false,"nationalCapital":false,"pk":null,"quiz":"asia","code":null,"archived":false,"percentageOfSessions":null}, {"name":"Заовражные Юлъялы","state":"Mari El","territory":"","country":"Russia","latitude":56.2013514,"longitude":46.7354585,"population":114,"stateCapital":false,"nationalCapital":false,"pk":null,"quiz":"asia","code":null,"archived":false,"percentageOfSessions":null}, {"name":"Запольные Пертнуры","state":"Mari El","territory":"","country":"Russia","latitude":56.2404333,"longitude":46.417185,"population":136,"stateCapital":false,"nationalCapital":false,"pk":null,"quiz":"asia","code":null,"archived":false,"percentageOfSessions":null}, {"name":"Заречка-Она","state":"Mari El","territory":"","country":"Russia","latitude":57.0289886,"longitude":49.0886814,"population":79,"stateCapital":false,"nationalCapital":false,"pk":null,"quiz":"asia","code":null,"archived":false,"percentageOfSessions":null}, {"name":"Захарейково","state":"Mari El","territory":"","country":"Russia","latitude":57.0082423,"longitude":48.3803872,"population":17,"stateCapital":false,"nationalCapital":false,"pk":null,"quiz":"asia","code":null,"archived":false,"percentageOfSessions":null}, {"name":"Захарово","state":"Mari El","territory":"","country":"Russia","latitude":56.9793407,"longitude":49.0236531,"population":43,"stateCapital":false,"nationalCapital":false,"pk":null,"quiz":"asia","code":null,"archived":false,"percentageOfSessions":null}, {"name":"Захарята","state":"Mari El","territory":"","country":"Russia","latitude":57.0599377,"longitude":48.4227553,"population":0,"stateCapital":false,"nationalCapital":false,"pk":null,"quiz":"asia","code":null,"archived":false,"percentageOfSessions":null}, {"name":"Захарята","state":"Mari El","territory":"","country":"Russia","latitude":56.9240368,"longitude":48.5678819,"population":78,"stateCapital":false,"nationalCapital":false,"pk":null,"quiz":"asia","code":null,"archived":false,"percentageOfSessions":null}, {"name":"Зашижемье","state":"Mari El","territory":"","country":"Russia","latitude":56.966691,"longitude":49.3811713,"population":467,"stateCapital":false,"nationalCapital":false,"pk":null,"quiz":"asia","code":null,"archived":false,"percentageOfSessions":null}, {"name":"Звенигово","state":"Mari El","territory":"","country":"Russia","latitude":55.9718239,"longitude":48.016105,"population":11946,"stateCapital":false,"nationalCapital":false,"pk":null,"quiz":"asia","code":null,"archived":false,"percentageOfSessions":null}, {"name":"Зверево","state":"Mari El","territory":"","country":"Russia","latitude":56.7156392,"longitude":49.6756465,"population":8,"stateCapital":false,"nationalCapital":false,"pk":null,"quiz":"asia","code":null,"archived":false,"percentageOfSessions":null}, {"name":"Зверево","state":"Mari El","territory":"","country":"Russia","latitude":56.8458129,"longitude":47.4173777,"population":6,"stateCapital":false,"nationalCapital":false,"pk":null,"quiz":"asia","code":null,"archived":false,"percentageOfSessions":null}, {"name":"Зверевцы","state":"Mari El","territory":"","country":"Russia","latitude":57.0801614,"longitude":48.3689663,"population":0,"stateCapital":false,"nationalCapital":false,"pk":null,"quiz":"asia","code":null,"archived":false,"percentageOfSessions":null}, {"name":"Зеленая Роща","state":"Mari El","territory":"","country":"Russia","latitude":56.5148779,"longitude":48.3370535,"population":141,"stateCapital":false,"nationalCapital":false,"pk":null,"quiz":"asia","code":null,"archived":false,"percentageOfSessions":null}, {"name":"Зеленогорск","state":"Mari El","territory":"","country":"Russia","latitude":56.5198144,"longitude":48.7898481,"population":1062,"stateCapital":false,"nationalCapital":false,"pk":null,"quiz":"asia","code":null,"archived":false,"percentageOfSessions":null}, {"name":"Зеленый","state":"Mari El","territory":"","country":"Russia","latitude":56.574146,"longitude":47.805241,"population":183,"stateCapital":false,"nationalCapital":false,"pk":null,"quiz":"asia","code":null,"archived":false,"percentageOfSessions":null}, {"name":"Зеленый","state":"Mari El","territory":"","country":"Russia","latitude":56.653732,"longitude":48.527073,"population":351,"stateCapital":false,"nationalCapital":false,"pk":null,"quiz":"asia","code":null,"archived":false,"percentageOfSessions":null}, {"name":"Зиновьево","state":"Mari El","territory":"","country":"Russia","latitude":56.557934,"longitude":45.652542,"population":9,"stateCapital":false,"nationalCapital":false,"pk":null,"quiz":"asia","code":null,"archived":false,"percentageOfSessions":null}, {"name":"Знаменский","state":"Mari El","territory":"","country":"Russia","latitude":56.6456849,"longitude":47.9837393,"population":2444,"stateCapital":false,"nationalCapital":false,"pk":null,"quiz":"asia","code":null,"archived":false,"percentageOfSessions":null}, {"name":"Ибрайсола","state":"Mari El","territory":"","country":"Russia","latitude":56.9335239,"longitude":48.8239531,"population":17,"stateCapital":false,"nationalCapital":false,"pk":null,"quiz":"asia","code":null,"archived":false,"percentageOfSessions":null}, {"name":"Ивакнур","state":"Mari El","territory":"","country":"Russia","latitude":57.0404765,"longitude":48.3443383,"population":7,"stateCapital":false,"nationalCapital":false,"pk":null,"quiz":"asia","code":null,"archived":false,"percentageOfSessions":null}, {"name":"Иванбеляк","state":"Mari El","territory":"","country":"Russia","latitude":56.228798,"longitude":47.520142,"population":102,"stateCapital":false,"nationalCapital":false,"pk":null,"quiz":"asia","code":null,"archived":false,"percentageOfSessions":null}, {"name":"Ивановка","state":"Mari El","territory":"","country":"Russia","latitude":56.8277351,"longitude":47.9350351,"population":114,"stateCapital":false,"nationalCapital":false,"pk":null,"quiz":"asia","code":null,"archived":false,"percentageOfSessions":null}, {"name":"Ивановка","state":"Mari El","territory":"","country":"Russia","latitude":56.7633324,"longitude":48.322157,"population":17,"stateCapital":false,"nationalCapital":false,"pk":null,"quiz":"asia","code":null,"archived":false,"percentageOfSessions":null}, {"name":"Ивансола","state":"Mari El","territory":"","country":"Russia","latitude":56.8512164,"longitude":49.1470795,"population":195,"stateCapital":false,"nationalCapital":false,"pk":null,"quiz":"asia","code":null,"archived":false,"percentageOfSessions":null}, {"name":"Ивская Вершина","state":"Mari El","territory":"","country":"Russia","latitude":56.6699575,"longitude":49.968605,"population":258,"stateCapital":false,"nationalCapital":false,"pk":null,"quiz":"asia","code":null,"archived":false,"percentageOfSessions":null}, {"name":"Игисола","state":"Mari El","territory":"","country":"Russia","latitude":56.831337,"longitude":49.165768,"population":137,"stateCapital":false,"nationalCapital":false,"pk":null,"quiz":"asia","code":null,"archived":false,"percentageOfSessions":null}, {"name":"Игнатьево","state":"Mari El","territory":"","country":"Russia","latitude":56.6830469,"longitude":48.0190283,"population":100,"stateCapital":false,"nationalCapital":false,"pk":null,"quiz":"asia","code":null,"archived":false,"percentageOfSessions":null}, {"name":"Игнашкино","state":"Mari El","territory":"","country":"Russia","latitude":56.404648,"longitude":46.533535,"population":18,"stateCapital":false,"nationalCapital":false,"pk":null,"quiz":"asia","code":null,"archived":false,"percentageOfSessions":null}, {"name":"Изаньга","state":"Mari El","territory":"","country":"Russia","latitude":57.0820638,"longitude":48.6876703,"population":86,"stateCapital":false,"nationalCapital":false,"pk":null,"quiz":"asia","code":null,"archived":false,"percentageOfSessions":null}, {"name":"Изеркино","state":"Mari El","territory":"","country":"Russia","latitude":56.4150788,"longitude":46.7455686,"population":81,"stateCapital":false,"nationalCapital":false,"pk":null,"quiz":"asia","code":null,"archived":false,"percentageOfSessions":null}, {"name":"Изи Кугунур","state":"Mari El","territory":"","country":"Russia","latitude":56.6131561,"longitude":48.7495875,"population":125,"stateCapital":false,"nationalCapital":false,"pk":null,"quiz":"asia","code":null,"archived":false,"percentageOfSessions":null}, {"name":"Изи Памаш","state":"Mari El","territory":"","country":"Russia","latitude":57.0321621,"longitude":49.0222394,"population":138,"stateCapital":false,"nationalCapital":false,"pk":null,"quiz":"asia","code":null,"archived":false,"percentageOfSessions":null}, {"name":"Изи Шурга","state":"Mari El","territory":"","country":"Russia","latitude":56.4711726,"longitude":48.7065896,"population":256,"stateCapital":false,"nationalCapital":false,"pk":null,"quiz":"asia","code":null,"archived":false,"percentageOfSessions":null}, {"name":"Изикино","state":"Mari El","territory":"","country":"Russia","latitude":56.1470131,"longitude":46.3642171,"population":37,"stateCapital":false,"nationalCapital":false,"pk":null,"quiz":"asia","code":null,"archived":false,"percentageOfSessions":null}, {"name":"Изоткино","state":"Mari El","territory":"","country":"Russia","latitude":56.1485284,"longitude":48.1715395,"population":0,"stateCapital":false,"nationalCapital":false,"pk":null,"quiz":"asia","code":null,"archived":false,"percentageOfSessions":null}, {"name":"Икса","state":"Mari El","territory":"","country":"Russia","latitude":56.493744,"longitude":46.279316,"population":18,"stateCapital":false,"nationalCapital":false,"pk":null,"quiz":"asia","code":null,"archived":false,"percentageOfSessions":null}, {"name":"Икша","state":"Mari El","territory":"","country":"Russia","latitude":56.6087017,"longitude":46.0641852,"population":38,"stateCapital":false,"nationalCapital":false,"pk":null,"quiz":"asia","code":null,"archived":false,"percentageOfSessions":null}, {"name":"Илдаркино","state":"Mari El","territory":"","country":"Russia","latitude":56.1632315,"longitude":46.3371909,"population":40,"stateCapital":false,"nationalCapital":false,"pk":null,"quiz":"asia","code":null,"archived":false,"percentageOfSessions":null}, {"name":"Илетнур","state":"Mari El","territory":"","country":"Russia","latitude":56.5709698,"longitude":49.4031705,"population":34,"stateCapital":false,"nationalCapital":false,"pk":null,"quiz":"asia","code":null,"archived":false,"percentageOfSessions":null}, {"name":"Илеть","state":"Mari El","territory":"","country":"Russia","latitude":56.115788,"longitude":48.349712,"population":462,"stateCapital":false,"nationalCapital":false,"pk":null,"quiz":"asia","code":null,"archived":false,"percentageOfSessions":null}, {"name":"Илеть","state":"Mari El","territory":"","country":"Russia","latitude":56.5716718,"longitude":49.5011935,"population":492,"stateCapital":false,"nationalCapital":false,"pk":null,"quiz":"asia","code":null,"archived":false,"percentageOfSessions":null}, {"name":"Ильинка","state":"Mari El","territory":"","country":"Russia","latitude":56.794956,"longitude":47.9565319,"population":8,"stateCapital":false,"nationalCapital":false,"pk":null,"quiz":"asia","code":null,"archived":false,"percentageOfSessions":null}, {"name":"Ильинка","state":"Mari El","territory":"","country":"Russia","latitude":56.794956,"longitude":47.9565319,"population":184,"stateCapital":false,"nationalCapital":false,"pk":null,"quiz":"asia","code":null,"archived":false,"percentageOfSessions":null}, {"name":"Ильинский","state":"Mari El","territory":"","country":"Russia","latitude":56.39391,"longitude":48.6784787,"population":107,"stateCapital":false,"nationalCapital":false,"pk":null,"quiz":"asia","code":null,"archived":false,"percentageOfSessions":null}, {"name":"Ильинский","state":"Mari El","territory":"","country":"Russia","latitude":56.7777277,"longitude":48.3539789,"population":10,"stateCapital":false,"nationalCapital":false,"pk":null,"quiz":"asia","code":null,"archived":false,"percentageOfSessions":null}, {"name":"Ильнетуры","state":"Mari El","territory":"","country":"Russia","latitude":55.9978512,"longitude":48.3166539,"population":364,"stateCapital":false,"nationalCapital":false,"pk":null,"quiz":"asia","code":null,"archived":false,"percentageOfSessions":null}, {"name":"Ильпанур","state":"Mari El","territory":"","country":"Russia","latitude":56.7903443,"longitude":49.4034452,"population":656,"stateCapital":false,"nationalCapital":false,"pk":null,"quiz":"asia","code":null,"archived":false,"percentageOfSessions":null}, {"name":"Иманайкино","state":"Mari El","territory":"","country":"Russia","latitude":55.9984072,"longitude":48.6870475,"population":24,"stateCapital":false,"nationalCapital":false,"pk":null,"quiz":"asia","code":null,"archived":false,"percentageOfSessions":null}, {"name":"Инерымбал","state":"Mari El","territory":"","country":"Russia","latitude":56.0638508,"longitude":48.62377,"population":275,"stateCapital":false,"nationalCapital":false,"pk":null,"quiz":"asia","code":null,"archived":false,"percentageOfSessions":null}, {"name":"Йошкар Памаш","state":"Mari El","territory":"","country":"Russia","latitude":57.0523364,"longitude":49.1174347,"population":197,"stateCapital":false,"nationalCapital":false,"pk":null,"quiz":"asia","code":null,"archived":false,"percentageOfSessions":null}, {"name":"Йошкар Ушем","state":"Mari El","territory":"","country":"Russia","latitude":56.90443,"longitude":49.217804,"population":21,"stateCapital":false,"nationalCapital":false,"pk":null,"quiz":"asia","code":null,"archived":false,"percentageOfSessions":null}, {"name":"Йошкаренер","state":"Mari El","territory":"","country":"Russia","latitude":56.8725687,"longitude":48.3745912,"population":0,"stateCapital":false,"nationalCapital":false,"pk":null,"quiz":"asia","code":null,"archived":false,"percentageOfSessions":null}, {"name":"Йошкар-Ола","state":"Mari El","territory":"","country":"Russia","latitude":56.6328248,"longitude":47.8972462,"population":248782,"stateCapital":true,"nationalCapital":false,"pk":null,"quiz":"asia","code":null,"archived":false,"percentageOfSessions":null}, {"name":"Йошкар-Памаш","state":"Mari El","territory":"","country":"Russia","latitude":57.0639617,"longitude":48.7415719,"population":17,"stateCapital":false,"nationalCapital":false,"pk":null,"quiz":"asia","code":null,"archived":false,"percentageOfSessions":null}, {"name":"Иркино","state":"Mari El","territory":"","country":"Russia","latitude":56.0631062,"longitude":48.0048958,"population":320,"stateCapital":false,"nationalCapital":false,"pk":null,"quiz":"asia","code":null,"archived":false,"percentageOfSessions":null}, {"name":"Ирмарь","state":"Mari El","territory":"","country":"Russia","latitude":56.7364162,"longitude":49.1035653,"population":121,"stateCapital":false,"nationalCapital":false,"pk":null,"quiz":"asia","code":null,"archived":false,"percentageOfSessions":null}, {"name":"Ирмучаш","state":"Mari El","territory":"","country":"Russia","latitude":56.7400042,"longitude":49.3464213,"population":220,"stateCapital":false,"nationalCapital":false,"pk":null,"quiz":"asia","code":null,"archived":false,"percentageOfSessions":null}, {"name":"Ирнур","state":"Mari El","territory":"","country":"Russia","latitude":56.6931175,"longitude":49.2937197,"population":500,"stateCapital":false,"nationalCapital":false,"pk":null,"quiz":"asia","code":null,"archived":false,"percentageOfSessions":null},