{"cities":[{"name":"10-й км","state":"Perm","territory":"","country":"Russia","latitude":58.9140714,"longitude":57.7084552,"population":1114,"stateCapital":false,"nationalCapital":false,"pk":null,"quiz":"asia","code":null,"archived":false,"percentageOfSessions":null}, {"name":"1283 км","state":"Perm","territory":"","country":"Russia","latitude":57.9598813,"longitude":54.2674742,"population":5,"stateCapital":false,"nationalCapital":false,"pk":null,"quiz":"asia","code":null,"archived":false,"percentageOfSessions":null}, {"name":"1291 км","state":"Perm","territory":"","country":"Russia","latitude":57.9890351,"longitude":54.3634584,"population":0,"stateCapital":false,"nationalCapital":false,"pk":null,"quiz":"asia","code":null,"archived":false,"percentageOfSessions":null}, {"name":"1292 км","state":"Perm","territory":"","country":"Russia","latitude":58.0033004,"longitude":54.3912382,"population":2,"stateCapital":false,"nationalCapital":false,"pk":null,"quiz":"asia","code":null,"archived":false,"percentageOfSessions":null}, {"name":"1293 км","state":"Perm","territory":"","country":"Russia","latitude":58.0093606,"longitude":54.3949989,"population":4,"stateCapital":false,"nationalCapital":false,"pk":null,"quiz":"asia","code":null,"archived":false,"percentageOfSessions":null}, {"name":"1308 км","state":"Perm","territory":"","country":"Russia","latitude":58.031679,"longitude":54.602903,"population":26,"stateCapital":false,"nationalCapital":false,"pk":null,"quiz":"asia","code":null,"archived":false,"percentageOfSessions":null}, {"name":"1309 км","state":"Perm","territory":"","country":"Russia","latitude":58.0372677,"longitude":54.6177037,"population":2,"stateCapital":false,"nationalCapital":false,"pk":null,"quiz":"asia","code":null,"archived":false,"percentageOfSessions":null}, {"name":"1312 км","state":"Perm","territory":"","country":"Russia","latitude":58.0594943,"longitude":54.6328861,"population":0,"stateCapital":false,"nationalCapital":false,"pk":null,"quiz":"asia","code":null,"archived":false,"percentageOfSessions":null}, {"name":"1331-й км","state":"Perm","territory":"","country":"Russia","latitude":56.4587671,"longitude":56.4128324,"population":5,"stateCapital":false,"nationalCapital":false,"pk":null,"quiz":"asia","code":null,"archived":false,"percentageOfSessions":null}, {"name":"1401-й км","state":"Perm","territory":"","country":"Russia","latitude":58.1356642,"longitude":55.7406582,"population":5,"stateCapital":false,"nationalCapital":false,"pk":null,"quiz":"asia","code":null,"archived":false,"percentageOfSessions":null}, {"name":"1402-й км","state":"Perm","territory":"","country":"Russia","latitude":58.1335889,"longitude":55.7542378,"population":0,"stateCapital":false,"nationalCapital":false,"pk":null,"quiz":"asia","code":null,"archived":false,"percentageOfSessions":null}, {"name":"1403-й км","state":"Perm","territory":"","country":"Russia","latitude":58.1307883,"longitude":55.7818143,"population":2,"stateCapital":false,"nationalCapital":false,"pk":null,"quiz":"asia","code":null,"archived":false,"percentageOfSessions":null}, {"name":"1405-й км","state":"Perm","territory":"","country":"Russia","latitude":58.1199515,"longitude":55.8153375,"population":32,"stateCapital":false,"nationalCapital":false,"pk":null,"quiz":"asia","code":null,"archived":false,"percentageOfSessions":null}, {"name":"1406-й км","state":"Perm","territory":"","country":"Russia","latitude":58.1134144,"longitude":55.8340966,"population":7,"stateCapital":false,"nationalCapital":false,"pk":null,"quiz":"asia","code":null,"archived":false,"percentageOfSessions":null}, {"name":"20-й км","state":"Perm","territory":"","country":"Russia","latitude":58.8702693,"longitude":57.782356,"population":231,"stateCapital":false,"nationalCapital":false,"pk":null,"quiz":"asia","code":null,"archived":false,"percentageOfSessions":null}, {"name":"29-й км","state":"Perm","territory":"","country":"Russia","latitude":58.3027745,"longitude":56.6245136,"population":2,"stateCapital":false,"nationalCapital":false,"pk":null,"quiz":"asia","code":null,"archived":false,"percentageOfSessions":null}, {"name":"Абакшата","state":"Perm","territory":"","country":"Russia","latitude":58.2664433,"longitude":55.8572814,"population":11,"stateCapital":false,"nationalCapital":false,"pk":null,"quiz":"asia","code":null,"archived":false,"percentageOfSessions":null}, {"name":"Абакшата","state":"Perm","territory":"","country":"Russia","latitude":58.2664433,"longitude":55.8572814,"population":6,"stateCapital":false,"nationalCapital":false,"pk":null,"quiz":"asia","code":null,"archived":false,"percentageOfSessions":null}, {"name":"Абог","state":"Perm","territory":"","country":"Russia","latitude":60.066883,"longitude":56.271423,"population":17,"stateCapital":false,"nationalCapital":false,"pk":null,"quiz":"asia","code":null,"archived":false,"percentageOfSessions":null}, {"name":"Абрамичи","state":"Perm","territory":"","country":"Russia","latitude":57.9356769,"longitude":54.4905701,"population":2,"stateCapital":false,"nationalCapital":false,"pk":null,"quiz":"asia","code":null,"archived":false,"percentageOfSessions":null}, {"name":"Абрамовка","state":"Perm","territory":"","country":"Russia","latitude":59.679535,"longitude":54.614983,"population":20,"stateCapital":false,"nationalCapital":false,"pk":null,"quiz":"asia","code":null,"archived":false,"percentageOfSessions":null}, {"name":"Абрамово","state":"Perm","territory":"","country":"Russia","latitude":59.940926,"longitude":54.95314,"population":66,"stateCapital":false,"nationalCapital":false,"pk":null,"quiz":"asia","code":null,"archived":false,"percentageOfSessions":null}, {"name":"Абросы","state":"Perm","territory":"","country":"Russia","latitude":58.2350969,"longitude":55.8902672,"population":13,"stateCapital":false,"nationalCapital":false,"pk":null,"quiz":"asia","code":null,"archived":false,"percentageOfSessions":null}, {"name":"Аверины","state":"Perm","territory":"","country":"Russia","latitude":58.51761,"longitude":56.0017574,"population":0,"stateCapital":false,"nationalCapital":false,"pk":null,"quiz":"asia","code":null,"archived":false,"percentageOfSessions":null}, {"name":"Агапово","state":"Perm","territory":"","country":"Russia","latitude":58.2951742,"longitude":55.2765134,"population":13,"stateCapital":false,"nationalCapital":false,"pk":null,"quiz":"asia","code":null,"archived":false,"percentageOfSessions":null}, {"name":"Агарзинский","state":"Perm","territory":"","country":"Russia","latitude":56.452861,"longitude":56.5062116,"population":16,"stateCapital":false,"nationalCapital":false,"pk":null,"quiz":"asia","code":null,"archived":false,"percentageOfSessions":null}, {"name":"Агарзя","state":"Perm","territory":"","country":"Russia","latitude":56.4722096,"longitude":56.506666,"population":12,"stateCapital":false,"nationalCapital":false,"pk":null,"quiz":"asia","code":null,"archived":false,"percentageOfSessions":null}, {"name":"Агафонково","state":"Perm","territory":"","country":"Russia","latitude":57.044189,"longitude":57.7524222,"population":252,"stateCapital":false,"nationalCapital":false,"pk":null,"quiz":"asia","code":null,"archived":false,"percentageOfSessions":null}, {"name":"Агеево","state":"Perm","territory":"","country":"Russia","latitude":57.980625,"longitude":54.385098,"population":6,"stateCapital":false,"nationalCapital":false,"pk":null,"quiz":"asia","code":null,"archived":false,"percentageOfSessions":null}, {"name":"Агишево","state":"Perm","territory":"","country":"Russia","latitude":58.9852225,"longitude":55.567728,"population":10,"stateCapital":false,"nationalCapital":false,"pk":null,"quiz":"asia","code":null,"archived":false,"percentageOfSessions":null}, {"name":"Адамово","state":"Perm","territory":"","country":"Russia","latitude":60.7695599,"longitude":56.736517,"population":0,"stateCapital":false,"nationalCapital":false,"pk":null,"quiz":"asia","code":null,"archived":false,"percentageOfSessions":null}, {"name":"Адилева","state":"Perm","territory":"","country":"Russia","latitude":56.3118253,"longitude":57.1291203,"population":320,"stateCapital":false,"nationalCapital":false,"pk":null,"quiz":"asia","code":null,"archived":false,"percentageOfSessions":null}, {"name":"Адищево","state":"Perm","territory":"","country":"Russia","latitude":58.1769005,"longitude":56.4246582,"population":4,"stateCapital":false,"nationalCapital":false,"pk":null,"quiz":"asia","code":null,"archived":false,"percentageOfSessions":null}, {"name":"Адищево","state":"Perm","territory":"","country":"Russia","latitude":58.1034939,"longitude":56.4697503,"population":3,"stateCapital":false,"nationalCapital":false,"pk":null,"quiz":"asia","code":null,"archived":false,"percentageOfSessions":null}, {"name":"Азимовка","state":"Perm","territory":"","country":"Russia","latitude":56.2412874,"longitude":56.7414165,"population":54,"stateCapital":false,"nationalCapital":false,"pk":null,"quiz":"asia","code":null,"archived":false,"percentageOfSessions":null}, {"name":"Азинский","state":"Perm","territory":"","country":"Russia","latitude":56.5248267,"longitude":56.0439192,"population":1492,"stateCapital":false,"nationalCapital":false,"pk":null,"quiz":"asia","code":null,"archived":false,"percentageOfSessions":null}, {"name":"Азово","state":"Perm","territory":"","country":"Russia","latitude":58.103483,"longitude":55.0117495,"population":152,"stateCapital":false,"nationalCapital":false,"pk":null,"quiz":"asia","code":null,"archived":false,"percentageOfSessions":null}, {"name":"Азовские","state":"Perm","territory":"","country":"Russia","latitude":58.3230171,"longitude":55.2527043,"population":3,"stateCapital":false,"nationalCapital":false,"pk":null,"quiz":"asia","code":null,"archived":false,"percentageOfSessions":null}, {"name":"Аитково","state":"Perm","territory":"","country":"Russia","latitude":57.86385,"longitude":57.3947863,"population":236,"stateCapital":false,"nationalCapital":false,"pk":null,"quiz":"asia","code":null,"archived":false,"percentageOfSessions":null}, {"name":"Акбаш","state":"Perm","territory":"","country":"Russia","latitude":56.9613382,"longitude":55.2403651,"population":540,"stateCapital":false,"nationalCapital":false,"pk":null,"quiz":"asia","code":null,"archived":false,"percentageOfSessions":null}, {"name":"Акилово","state":"Perm","territory":"","country":"Russia","latitude":59.624832,"longitude":53.964806,"population":259,"stateCapital":false,"nationalCapital":false,"pk":null,"quiz":"asia","code":null,"archived":false,"percentageOfSessions":null}, {"name":"Аклуши","state":"Perm","territory":"","country":"Russia","latitude":56.8438358,"longitude":55.6096146,"population":432,"stateCapital":false,"nationalCapital":false,"pk":null,"quiz":"asia","code":null,"archived":false,"percentageOfSessions":null}, {"name":"Аксеново","state":"Perm","territory":"","country":"Russia","latitude":58.9881668,"longitude":55.3630089,"population":140,"stateCapital":false,"nationalCapital":false,"pk":null,"quiz":"asia","code":null,"archived":false,"percentageOfSessions":null}, {"name":"Акчим","state":"Perm","territory":"","country":"Russia","latitude":60.4754062,"longitude":58.0488471,"population":3,"stateCapital":false,"nationalCapital":false,"pk":null,"quiz":"asia","code":null,"archived":false,"percentageOfSessions":null}, {"name":"Алебастрово","state":"Perm","territory":"","country":"Russia","latitude":58.043674,"longitude":56.819656,"population":25,"stateCapital":false,"nationalCapital":false,"pk":null,"quiz":"asia","code":null,"archived":false,"percentageOfSessions":null}, {"name":"Алекино","state":"Perm","territory":"","country":"Russia","latitude":57.9898925,"longitude":55.4980646,"population":0,"stateCapital":false,"nationalCapital":false,"pk":null,"quiz":"asia","code":null,"archived":false,"percentageOfSessions":null}, {"name":"Алекова","state":"Perm","territory":"","country":"Russia","latitude":59.132362,"longitude":54.685238,"population":154,"stateCapital":false,"nationalCapital":false,"pk":null,"quiz":"asia","code":null,"archived":false,"percentageOfSessions":null}, {"name":"Александрова","state":"Perm","territory":"","country":"Russia","latitude":59.045712,"longitude":54.335819,"population":7,"stateCapital":false,"nationalCapital":false,"pk":null,"quiz":"asia","code":null,"archived":false,"percentageOfSessions":null}, {"name":"Александровск","state":"Perm","territory":"","country":"Russia","latitude":59.1593861,"longitude":57.5861232,"population":14495,"stateCapital":false,"nationalCapital":false,"pk":null,"quiz":"asia","code":null,"archived":false,"percentageOfSessions":null}, {"name":"Алексеевка","state":"Perm","territory":"","country":"Russia","latitude":59.077805,"longitude":54.865528,"population":25,"stateCapital":false,"nationalCapital":false,"pk":null,"quiz":"asia","code":null,"archived":false,"percentageOfSessions":null}, {"name":"Алексики","state":"Perm","territory":"","country":"Russia","latitude":57.909512,"longitude":55.761719,"population":16,"stateCapital":false,"nationalCapital":false,"pk":null,"quiz":"asia","code":null,"archived":false,"percentageOfSessions":null}, {"name":"Алешата","state":"Perm","territory":"","country":"Russia","latitude":58.0683139,"longitude":54.5799892,"population":44,"stateCapital":false,"nationalCapital":false,"pk":null,"quiz":"asia","code":null,"archived":false,"percentageOfSessions":null}, {"name":"Алешино","state":"Perm","territory":"","country":"Russia","latitude":58.0861993,"longitude":55.8866283,"population":4,"stateCapital":false,"nationalCapital":false,"pk":null,"quiz":"asia","code":null,"archived":false,"percentageOfSessions":null}, {"name":"Алешино","state":"Perm","territory":"","country":"Russia","latitude":59.000314,"longitude":55.5967226,"population":35,"stateCapital":false,"nationalCapital":false,"pk":null,"quiz":"asia","code":null,"archived":false,"percentageOfSessions":null}, {"name":"Аликино","state":"Perm","territory":"","country":"Russia","latitude":58.4138589,"longitude":54.9631594,"population":1,"stateCapital":false,"nationalCapital":false,"pk":null,"quiz":"asia","code":null,"archived":false,"percentageOfSessions":null}, {"name":"Алмаз","state":"Perm","territory":"","country":"Russia","latitude":56.4245343,"longitude":56.6493741,"population":156,"stateCapital":false,"nationalCapital":false,"pk":null,"quiz":"asia","code":null,"archived":false,"percentageOfSessions":null}, {"name":"Алтынное","state":"Perm","territory":"","country":"Russia","latitude":56.822177,"longitude":57.1384578,"population":230,"stateCapital":false,"nationalCapital":false,"pk":null,"quiz":"asia","code":null,"archived":false,"percentageOfSessions":null}, {"name":"Альняш","state":"Perm","territory":"","country":"Russia","latitude":56.4319843,"longitude":55.2779471,"population":112,"stateCapital":false,"nationalCapital":false,"pk":null,"quiz":"asia","code":null,"archived":false,"percentageOfSessions":null}, {"name":"Альняш","state":"Perm","territory":"","country":"Russia","latitude":56.7278979,"longitude":54.7366515,"population":805,"stateCapital":false,"nationalCapital":false,"pk":null,"quiz":"asia","code":null,"archived":false,"percentageOfSessions":null}, {"name":"Алямово","state":"Perm","territory":"","country":"Russia","latitude":58.9501509,"longitude":55.3724741,"population":13,"stateCapital":false,"nationalCapital":false,"pk":null,"quiz":"asia","code":null,"archived":false,"percentageOfSessions":null}, {"name":"Аманеево","state":"Perm","territory":"","country":"Russia","latitude":56.9336614,"longitude":54.5935822,"population":77,"stateCapital":false,"nationalCapital":false,"pk":null,"quiz":"asia","code":null,"archived":false,"percentageOfSessions":null}, {"name":"Амбор","state":"Perm","territory":"","country":"Russia","latitude":60.2449,"longitude":56.189705,"population":40,"stateCapital":false,"nationalCapital":false,"pk":null,"quiz":"asia","code":null,"archived":false,"percentageOfSessions":null}, {"name":"Аминькай","state":"Perm","territory":"","country":"Russia","latitude":56.5722418,"longitude":56.1141094,"population":220,"stateCapital":false,"nationalCapital":false,"pk":null,"quiz":"asia","code":null,"archived":false,"percentageOfSessions":null}, {"name":"Амировка","state":"Perm","territory":"","country":"Russia","latitude":56.799202,"longitude":56.004421,"population":23,"stateCapital":false,"nationalCapital":false,"pk":null,"quiz":"asia","code":null,"archived":false,"percentageOfSessions":null}, {"name":"Амонова","state":"Perm","territory":"","country":"Russia","latitude":58.951504,"longitude":54.526299,"population":51,"stateCapital":false,"nationalCapital":false,"pk":null,"quiz":"asia","code":null,"archived":false,"percentageOfSessions":null}, {"name":"Ананичи","state":"Perm","territory":"","country":"Russia","latitude":58.2552863,"longitude":55.8339117,"population":80,"stateCapital":false,"nationalCapital":false,"pk":null,"quiz":"asia","code":null,"archived":false,"percentageOfSessions":null}, {"name":"Ананьева","state":"Perm","territory":"","country":"Russia","latitude":59.133926,"longitude":54.466309,"population":87,"stateCapital":false,"nationalCapital":false,"pk":null,"quiz":"asia","code":null,"archived":false,"percentageOfSessions":null}, {"name":"Ананьино","state":"Perm","territory":"","country":"Russia","latitude":56.6102105,"longitude":56.0670198,"population":568,"stateCapital":false,"nationalCapital":false,"pk":null,"quiz":"asia","code":null,"archived":false,"percentageOfSessions":null}, {"name":"Ананькина","state":"Perm","territory":"","country":"Russia","latitude":59.3224848,"longitude":54.481747,"population":55,"stateCapital":false,"nationalCapital":false,"pk":null,"quiz":"asia","code":null,"archived":false,"percentageOfSessions":null}, {"name":"Анастасино","state":"Perm","territory":"","country":"Russia","latitude":56.484995,"longitude":56.3531979,"population":19,"stateCapital":false,"nationalCapital":false,"pk":null,"quiz":"asia","code":null,"archived":false,"percentageOfSessions":null}, {"name":"Андреевка","state":"Perm","territory":"","country":"Russia","latitude":57.3423106,"longitude":56.3846587,"population":53,"stateCapital":false,"nationalCapital":false,"pk":null,"quiz":"asia","code":null,"archived":false,"percentageOfSessions":null}, {"name":"Андреевка","state":"Perm","territory":"","country":"Russia","latitude":57.0750934,"longitude":56.61448,"population":64,"stateCapital":false,"nationalCapital":false,"pk":null,"quiz":"asia","code":null,"archived":false,"percentageOfSessions":null}, {"name":"Андреевка","state":"Perm","territory":"","country":"Russia","latitude":57.5178921,"longitude":55.2559354,"population":749,"stateCapital":false,"nationalCapital":false,"pk":null,"quiz":"asia","code":null,"archived":false,"percentageOfSessions":null}, {"name":"Андреево","state":"Perm","territory":"","country":"Russia","latitude":58.5057675,"longitude":54.281102,"population":19,"stateCapital":false,"nationalCapital":false,"pk":null,"quiz":"asia","code":null,"archived":false,"percentageOfSessions":null}, {"name":"Андреево","state":"Perm","territory":"","country":"Russia","latitude":57.3861067,"longitude":57.4163533,"population":457,"stateCapital":false,"nationalCapital":false,"pk":null,"quiz":"asia","code":null,"archived":false,"percentageOfSessions":null}, {"name":"Андриянова","state":"Perm","territory":"","country":"Russia","latitude":59.0497936,"longitude":54.1747321,"population":19,"stateCapital":false,"nationalCapital":false,"pk":null,"quiz":"asia","code":null,"archived":false,"percentageOfSessions":null}, {"name":"Андрияново","state":"Perm","territory":"","country":"Russia","latitude":58.1848136,"longitude":54.1142568,"population":64,"stateCapital":false,"nationalCapital":false,"pk":null,"quiz":"asia","code":null,"archived":false,"percentageOfSessions":null}, {"name":"Андрията","state":"Perm","territory":"","country":"Russia","latitude":58.1922097,"longitude":55.4511185,"population":9,"stateCapital":false,"nationalCapital":false,"pk":null,"quiz":"asia","code":null,"archived":false,"percentageOfSessions":null}, {"name":"Андроновка","state":"Perm","territory":"","country":"Russia","latitude":58.023888,"longitude":54.453804,"population":53,"stateCapital":false,"nationalCapital":false,"pk":null,"quiz":"asia","code":null,"archived":false,"percentageOfSessions":null}, {"name":"Андроново","state":"Perm","territory":"","country":"Russia","latitude":57.7926856,"longitude":56.8781835,"population":6,"stateCapital":false,"nationalCapital":false,"pk":null,"quiz":"asia","code":null,"archived":false,"percentageOfSessions":null}, {"name":"Андроново","state":"Perm","territory":"","country":"Russia","latitude":56.5518815,"longitude":55.8807839,"population":119,"stateCapital":false,"nationalCapital":false,"pk":null,"quiz":"asia","code":null,"archived":false,"percentageOfSessions":null}, {"name":"Андроново","state":"Perm","territory":"","country":"Russia","latitude":59.860981,"longitude":55.25037,"population":0,"stateCapital":false,"nationalCapital":false,"pk":null,"quiz":"asia","code":null,"archived":false,"percentageOfSessions":null}, {"name":"Андроново","state":"Perm","territory":"","country":"Russia","latitude":59.0604909,"longitude":55.0468543,"population":16,"stateCapital":false,"nationalCapital":false,"pk":null,"quiz":"asia","code":null,"archived":false,"percentageOfSessions":null}, {"name":"Андронята","state":"Perm","territory":"","country":"Russia","latitude":58.232298,"longitude":54.0692377,"population":29,"stateCapital":false,"nationalCapital":false,"pk":null,"quiz":"asia","code":null,"archived":false,"percentageOfSessions":null}, {"name":"Андрюково","state":"Perm","territory":"","country":"Russia","latitude":58.2403479,"longitude":57.1326639,"population":56,"stateCapital":false,"nationalCapital":false,"pk":null,"quiz":"asia","code":null,"archived":false,"percentageOfSessions":null}, {"name":"Аникина","state":"Perm","territory":"","country":"Russia","latitude":58.834751,"longitude":54.272285,"population":18,"stateCapital":false,"nationalCapital":false,"pk":null,"quiz":"asia","code":null,"archived":false,"percentageOfSessions":null}, {"name":"Аникино","state":"Perm","territory":"","country":"Russia","latitude":58.1303925,"longitude":54.7816944,"population":145,"stateCapital":false,"nationalCapital":false,"pk":null,"quiz":"asia","code":null,"archived":false,"percentageOfSessions":null}, {"name":"Аникино","state":"Perm","territory":"","country":"Russia","latitude":57.892799,"longitude":55.913403,"population":28,"stateCapital":false,"nationalCapital":false,"pk":null,"quiz":"asia","code":null,"archived":false,"percentageOfSessions":null}, {"name":"Анисимово","state":"Perm","territory":"","country":"Russia","latitude":58.766472,"longitude":55.3926872,"population":53,"stateCapital":false,"nationalCapital":false,"pk":null,"quiz":"asia","code":null,"archived":false,"percentageOfSessions":null}, {"name":"Анисимово","state":"Perm","territory":"","country":"Russia","latitude":60.4223231,"longitude":56.3419544,"population":12,"stateCapital":false,"nationalCapital":false,"pk":null,"quiz":"asia","code":null,"archived":false,"percentageOfSessions":null}, {"name":"Анкудиново","state":"Perm","territory":"","country":"Russia","latitude":60.209675,"longitude":54.56876,"population":4,"stateCapital":false,"nationalCapital":false,"pk":null,"quiz":"asia","code":null,"archived":false,"percentageOfSessions":null}, {"name":"Аннинск","state":"Perm","territory":"","country":"Russia","latitude":57.399601,"longitude":55.986588,"population":120,"stateCapital":false,"nationalCapital":false,"pk":null,"quiz":"asia","code":null,"archived":false,"percentageOfSessions":null}, {"name":"Антипина","state":"Perm","territory":"","country":"Russia","latitude":60.03376,"longitude":57.543766,"population":192,"stateCapital":false,"nationalCapital":false,"pk":null,"quiz":"asia","code":null,"archived":false,"percentageOfSessions":null}, {"name":"Антипина","state":"Perm","territory":"","country":"Russia","latitude":58.2097725,"longitude":54.3057795,"population":92,"stateCapital":false,"nationalCapital":false,"pk":null,"quiz":"asia","code":null,"archived":false,"percentageOfSessions":null}, {"name":"Антипино","state":"Perm","territory":"","country":"Russia","latitude":59.0158518,"longitude":55.1646202,"population":337,"stateCapital":false,"nationalCapital":false,"pk":null,"quiz":"asia","code":null,"archived":false,"percentageOfSessions":null}, {"name":"Антонково","state":"Perm","territory":"","country":"Russia","latitude":57.683605,"longitude":57.217049,"population":135,"stateCapital":false,"nationalCapital":false,"pk":null,"quiz":"asia","code":null,"archived":false,"percentageOfSessions":null}, {"name":"Антонова","state":"Perm","territory":"","country":"Russia","latitude":58.534132,"longitude":55.6871116,"population":27,"stateCapital":false,"nationalCapital":false,"pk":null,"quiz":"asia","code":null,"archived":false,"percentageOfSessions":null}, {"name":"Антонова","state":"Perm","territory":"","country":"Russia","latitude":58.8580104,"longitude":54.2871172,"population":19,"stateCapital":false,"nationalCapital":false,"pk":null,"quiz":"asia","code":null,"archived":false,"percentageOfSessions":null}, {"name":"Антоново","state":"Perm","territory":"","country":"Russia","latitude":58.3583049,"longitude":55.433652,"population":2,"stateCapital":false,"nationalCapital":false,"pk":null,"quiz":"asia","code":null,"archived":false,"percentageOfSessions":null}, {"name":"Антонята","state":"Perm","territory":"","country":"Russia","latitude":58.5696734,"longitude":54.7567149,"population":271,"stateCapital":false,"nationalCapital":false,"pk":null,"quiz":"asia","code":null,"archived":false,"percentageOfSessions":null}, {"name":"Антропова","state":"Perm","territory":"","country":"Russia","latitude":59.144608,"longitude":54.721115,"population":15,"stateCapital":false,"nationalCapital":false,"pk":null,"quiz":"asia","code":null,"archived":false,"percentageOfSessions":null}, {"name":"Антуфьево","state":"Perm","territory":"","country":"Russia","latitude":57.00293,"longitude":55.950191,"population":45,"stateCapital":false,"nationalCapital":false,"pk":null,"quiz":"asia","code":null,"archived":false,"percentageOfSessions":null}, {"name":"Антыбары","state":"Perm","territory":"","country":"Russia","latitude":58.2961337,"longitude":57.7184773,"population":37,"stateCapital":false,"nationalCapital":false,"pk":null,"quiz":"asia","code":null,"archived":false,"percentageOfSessions":null}, {"name":"Анфимово","state":"Perm","territory":"","country":"Russia","latitude":60.7829604,"longitude":56.7475533,"population":1,"stateCapital":false,"nationalCapital":false,"pk":null,"quiz":"asia","code":null,"archived":false,"percentageOfSessions":null}, {"name":"Аразаева","state":"Perm","territory":"","country":"Russia","latitude":58.835041,"longitude":54.083572,"population":2,"stateCapital":false,"nationalCapital":false,"pk":null,"quiz":"asia","code":null,"archived":false,"percentageOfSessions":null}, {"name":"Арей","state":"Perm","territory":"","country":"Russia","latitude":56.3951528,"longitude":55.4883339,"population":3,"stateCapital":false,"nationalCapital":false,"pk":null,"quiz":"asia","code":null,"archived":false,"percentageOfSessions":null}, {"name":"Арефина","state":"Perm","territory":"","country":"Russia","latitude":60.048084,"longitude":57.516819,"population":14,"stateCapital":false,"nationalCapital":false,"pk":null,"quiz":"asia","code":null,"archived":false,"percentageOfSessions":null}, {"name":"Арефьева","state":"Perm","territory":"","country":"Russia","latitude":59.197849,"longitude":54.615463,"population":26,"stateCapital":false,"nationalCapital":false,"pk":null,"quiz":"asia","code":null,"archived":false,"percentageOfSessions":null}, {"name":"Артамонова","state":"Perm","territory":"","country":"Russia","latitude":58.962601,"longitude":54.711575,"population":181,"stateCapital":false,"nationalCapital":false,"pk":null,"quiz":"asia","code":null,"archived":false,"percentageOfSessions":null}, {"name":"Артамоново","state":"Perm","territory":"","country":"Russia","latitude":58.9617528,"longitude":55.0236299,"population":19,"stateCapital":false,"nationalCapital":false,"pk":null,"quiz":"asia","code":null,"archived":false,"percentageOfSessions":null}, {"name":"Артошичи","state":"Perm","territory":"","country":"Russia","latitude":58.2228755,"longitude":54.0805177,"population":85,"stateCapital":false,"nationalCapital":false,"pk":null,"quiz":"asia","code":null,"archived":false,"percentageOfSessions":null}, {"name":"Архангельское","state":"Perm","territory":"","country":"Russia","latitude":59.0317408,"longitude":54.9718482,"population":508,"stateCapital":false,"nationalCapital":false,"pk":null,"quiz":"asia","code":null,"archived":false,"percentageOfSessions":null}, {"name":"Архипова","state":"Perm","territory":"","country":"Russia","latitude":59.270343,"longitude":54.7639733,"population":54,"stateCapital":false,"nationalCapital":false,"pk":null,"quiz":"asia","code":null,"archived":false,"percentageOfSessions":null}, {"name":"Архипово","state":"Perm","territory":"","country":"Russia","latitude":58.1312743,"longitude":55.3003538,"population":7,"stateCapital":false,"nationalCapital":false,"pk":null,"quiz":"asia","code":null,"archived":false,"percentageOfSessions":null}, {"name":"Архипово","state":"Perm","territory":"","country":"Russia","latitude":59.804749,"longitude":54.442135,"population":7,"stateCapital":false,"nationalCapital":false,"pk":null,"quiz":"asia","code":null,"archived":false,"percentageOfSessions":null}, {"name":"Аршиново","state":"Perm","territory":"","country":"Russia","latitude":57.9234324,"longitude":54.1699378,"population":7,"stateCapital":false,"nationalCapital":false,"pk":null,"quiz":"asia","code":null,"archived":false,"percentageOfSessions":null}, {"name":"Аряж","state":"Perm","territory":"","country":"Russia","latitude":56.498184,"longitude":55.600281,"population":390,"stateCapital":false,"nationalCapital":false,"pk":null,"quiz":"asia","code":null,"archived":false,"percentageOfSessions":null}, {"name":"Асаново","state":"Perm","territory":"","country":"Russia","latitude":58.9529468,"longitude":54.9143529,"population":22,"stateCapital":false,"nationalCapital":false,"pk":null,"quiz":"asia","code":null,"archived":false,"percentageOfSessions":null}, {"name":"Асово","state":"Perm","territory":"","country":"Russia","latitude":57.515007,"longitude":57.665821,"population":826,"stateCapital":false,"nationalCapital":false,"pk":null,"quiz":"asia","code":null,"archived":false,"percentageOfSessions":null}, {"name":"Аспа","state":"Perm","territory":"","country":"Russia","latitude":56.8584651,"longitude":56.3314286,"population":950,"stateCapital":false,"nationalCapital":false,"pk":null,"quiz":"asia","code":null,"archived":false,"percentageOfSessions":null}, {"name":"Аспинский","state":"Perm","territory":"","country":"Russia","latitude":56.8585386,"longitude":56.3023449,"population":227,"stateCapital":false,"nationalCapital":false,"pk":null,"quiz":"asia","code":null,"archived":false,"percentageOfSessions":null}, {"name":"Асюл","state":"Perm","territory":"","country":"Russia","latitude":56.827339,"longitude":56.041924,"population":110,"stateCapital":false,"nationalCapital":false,"pk":null,"quiz":"asia","code":null,"archived":false,"percentageOfSessions":null}, {"name":"Атеро-Ключ","state":"Perm","territory":"","country":"Russia","latitude":56.4759856,"longitude":56.7765904,"population":31,"stateCapital":false,"nationalCapital":false,"pk":null,"quiz":"asia","code":null,"archived":false,"percentageOfSessions":null}, {"name":"Атерский","state":"Perm","territory":"","country":"Russia","latitude":56.478691,"longitude":56.7993241,"population":6,"stateCapital":false,"nationalCapital":false,"pk":null,"quiz":"asia","code":null,"archived":false,"percentageOfSessions":null}, {"name":"Атнягузи","state":"Perm","territory":"","country":"Russia","latitude":56.5479166,"longitude":56.9703473,"population":412,"stateCapital":false,"nationalCapital":false,"pk":null,"quiz":"asia","code":null,"archived":false,"percentageOfSessions":null}, {"name":"Атняшка","state":"Perm","territory":"","country":"Russia","latitude":56.4506156,"longitude":56.1800159,"population":344,"stateCapital":false,"nationalCapital":false,"pk":null,"quiz":"asia","code":null,"archived":false,"percentageOfSessions":null}, {"name":"Афонино","state":"Perm","territory":"","country":"Russia","latitude":58.9007584,"longitude":55.4141957,"population":30,"stateCapital":false,"nationalCapital":false,"pk":null,"quiz":"asia","code":null,"archived":false,"percentageOfSessions":null}, {"name":"Ашап","state":"Perm","territory":"","country":"Russia","latitude":57.113369,"longitude":56.52153,"population":1648,"stateCapital":false,"nationalCapital":false,"pk":null,"quiz":"asia","code":null,"archived":false,"percentageOfSessions":null}, {"name":"Ашша","state":"Perm","territory":"","country":"Russia","latitude":56.5017376,"longitude":56.1230948,"population":403,"stateCapital":false,"nationalCapital":false,"pk":null,"quiz":"asia","code":null,"archived":false,"percentageOfSessions":null}, {"name":"Бабина Гора","state":"Perm","territory":"","country":"Russia","latitude":57.4498408,"longitude":56.8556487,"population":58,"stateCapital":false,"nationalCapital":false,"pk":null,"quiz":"asia","code":null,"archived":false,"percentageOfSessions":null}, {"name":"Бабино","state":"Perm","territory":"","country":"Russia","latitude":58.56324,"longitude":54.2660006,"population":10,"stateCapital":false,"nationalCapital":false,"pk":null,"quiz":"asia","code":null,"archived":false,"percentageOfSessions":null}, {"name":"Бабка","state":"Perm","territory":"","country":"Russia","latitude":57.0839801,"longitude":54.4911096,"population":806,"stateCapital":false,"nationalCapital":false,"pk":null,"quiz":"asia","code":null,"archived":false,"percentageOfSessions":null}, {"name":"Бабуши","state":"Perm","territory":"","country":"Russia","latitude":57.9968715,"longitude":55.1473095,"population":1,"stateCapital":false,"nationalCapital":false,"pk":null,"quiz":"asia","code":null,"archived":false,"percentageOfSessions":null}, {"name":"Бабята","state":"Perm","territory":"","country":"Russia","latitude":58.5373023,"longitude":55.4516867,"population":5,"stateCapital":false,"nationalCapital":false,"pk":null,"quiz":"asia","code":null,"archived":false,"percentageOfSessions":null}, {"name":"Багрова","state":"Perm","territory":"","country":"Russia","latitude":58.761032,"longitude":54.75639,"population":18,"stateCapital":false,"nationalCapital":false,"pk":null,"quiz":"asia","code":null,"archived":false,"percentageOfSessions":null}, {"name":"Бадашка","state":"Perm","territory":"","country":"Russia","latitude":56.4098315,"longitude":55.6374889,"population":167,"stateCapital":false,"nationalCapital":false,"pk":null,"quiz":"asia","code":null,"archived":false,"percentageOfSessions":null}, {"name":"Бадья","state":"Perm","territory":"","country":"Russia","latitude":59.3979881,"longitude":54.2577461,"population":35,"stateCapital":false,"nationalCapital":false,"pk":null,"quiz":"asia","code":null,"archived":false,"percentageOfSessions":null}, {"name":"Баженово","state":"Perm","territory":"","country":"Russia","latitude":57.7551702,"longitude":56.9022578,"population":0,"stateCapital":false,"nationalCapital":false,"pk":null,"quiz":"asia","code":null,"archived":false,"percentageOfSessions":null}, {"name":"Бажино","state":"Perm","territory":"","country":"Russia","latitude":58.667227,"longitude":55.2047794,"population":2,"stateCapital":false,"nationalCapital":false,"pk":null,"quiz":"asia","code":null,"archived":false,"percentageOfSessions":null}, {"name":"Бажино","state":"Perm","territory":"","country":"Russia","latitude":58.4201714,"longitude":54.5170648,"population":8,"stateCapital":false,"nationalCapital":false,"pk":null,"quiz":"asia","code":null,"archived":false,"percentageOfSessions":null}, {"name":"Бажино","state":"Perm","territory":"","country":"Russia","latitude":59.12598,"longitude":55.400284,"population":8,"stateCapital":false,"nationalCapital":false,"pk":null,"quiz":"asia","code":null,"archived":false,"percentageOfSessions":null}, {"name":"Бажино","state":"Perm","territory":"","country":"Russia","latitude":59.12598,"longitude":55.400284,"population":265,"stateCapital":false,"nationalCapital":false,"pk":null,"quiz":"asia","code":null,"archived":false,"percentageOfSessions":null}, {"name":"Бажово","state":"Perm","territory":"","country":"Russia","latitude":59.847256,"longitude":54.413284,"population":35,"stateCapital":false,"nationalCapital":false,"pk":null,"quiz":"asia","code":null,"archived":false,"percentageOfSessions":null}, {"name":"Бажуки","state":"Perm","territory":"","country":"Russia","latitude":57.1947532,"longitude":56.5016189,"population":936,"stateCapital":false,"nationalCapital":false,"pk":null,"quiz":"asia","code":null,"archived":false,"percentageOfSessions":null}, {"name":"База","state":"Perm","territory":"","country":"Russia","latitude":59.426483,"longitude":57.3195,"population":7,"stateCapital":false,"nationalCapital":false,"pk":null,"quiz":"asia","code":null,"archived":false,"percentageOfSessions":null}, {"name":"Базаново","state":"Perm","territory":"","country":"Russia","latitude":58.4956143,"longitude":54.5563672,"population":6,"stateCapital":false,"nationalCapital":false,"pk":null,"quiz":"asia","code":null,"archived":false,"percentageOfSessions":null}, {"name":"Базуево","state":"Perm","territory":"","country":"Russia","latitude":60.211235,"longitude":54.193851,"population":26,"stateCapital":false,"nationalCapital":false,"pk":null,"quiz":"asia","code":null,"archived":false,"percentageOfSessions":null}, {"name":"Байболовка","state":"Perm","territory":"","country":"Russia","latitude":57.58588,"longitude":56.492439,"population":808,"stateCapital":false,"nationalCapital":false,"pk":null,"quiz":"asia","code":null,"archived":false,"percentageOfSessions":null}, {"name":"Байдары","state":"Perm","territory":"","country":"Russia","latitude":60.2525629,"longitude":56.5069159,"population":6,"stateCapital":false,"nationalCapital":false,"pk":null,"quiz":"asia","code":null,"archived":false,"percentageOfSessions":null}, {"name":"Байдины","state":"Perm","territory":"","country":"Russia","latitude":57.3452775,"longitude":54.9449878,"population":49,"stateCapital":false,"nationalCapital":false,"pk":null,"quiz":"asia","code":null,"archived":false,"percentageOfSessions":null}, {"name":"Байкалово","state":"Perm","territory":"","country":"Russia","latitude":58.1497762,"longitude":57.2975152,"population":76,"stateCapital":false,"nationalCapital":false,"pk":null,"quiz":"asia","code":null,"archived":false,"percentageOfSessions":null}, {"name":"Байкино","state":"Perm","territory":"","country":"Russia","latitude":57.503166,"longitude":57.321941,"population":84,"stateCapital":false,"nationalCapital":false,"pk":null,"quiz":"asia","code":null,"archived":false,"percentageOfSessions":null}, {"name":"Баймурзина","state":"Perm","territory":"","country":"Russia","latitude":56.3633762,"longitude":56.7113705,"population":14,"stateCapital":false,"nationalCapital":false,"pk":null,"quiz":"asia","code":null,"archived":false,"percentageOfSessions":null}, {"name":"Баклуши","state":"Perm","territory":"","country":"Russia","latitude":57.63792,"longitude":54.453156,"population":363,"stateCapital":false,"nationalCapital":false,"pk":null,"quiz":"asia","code":null,"archived":false,"percentageOfSessions":null}, {"name":"Балагуры","state":"Perm","territory":"","country":"Russia","latitude":58.2618888,"longitude":55.3594676,"population":4,"stateCapital":false,"nationalCapital":false,"pk":null,"quiz":"asia","code":null,"archived":false,"percentageOfSessions":null}, {"name":"Балалы","state":"Perm","territory":"","country":"Russia","latitude":57.4757956,"longitude":56.7614996,"population":35,"stateCapital":false,"nationalCapital":false,"pk":null,"quiz":"asia","code":null,"archived":false,"percentageOfSessions":null}, {"name":"Баландино","state":"Perm","territory":"","country":"Russia","latitude":57.831951,"longitude":56.362579,"population":6,"stateCapital":false,"nationalCapital":false,"pk":null,"quiz":"asia","code":null,"archived":false,"percentageOfSessions":null}, {"name":"Балаши","state":"Perm","territory":"","country":"Russia","latitude":56.9392743,"longitude":57.488924,"population":64,"stateCapital":false,"nationalCapital":false,"pk":null,"quiz":"asia","code":null,"archived":false,"percentageOfSessions":null}, {"name":"Балкачи","state":"Perm","territory":"","country":"Russia","latitude":58.703495,"longitude":54.709282,"population":38,"stateCapital":false,"nationalCapital":false,"pk":null,"quiz":"asia","code":null,"archived":false,"percentageOfSessions":null}, {"name":"Балуево","state":"Perm","territory":"","country":"Russia","latitude":57.8922852,"longitude":54.6088951,"population":5,"stateCapital":false,"nationalCapital":false,"pk":null,"quiz":"asia","code":null,"archived":false,"percentageOfSessions":null}, {"name":"Баляковка","state":"Perm","territory":"","country":"Russia","latitude":57.1214806,"longitude":56.4076352,"population":3,"stateCapital":false,"nationalCapital":false,"pk":null,"quiz":"asia","code":null,"archived":false,"percentageOfSessions":null}, {"name":"Банниково","state":"Perm","territory":"","country":"Russia","latitude":57.4849176,"longitude":56.4744397,"population":8,"stateCapital":false,"nationalCapital":false,"pk":null,"quiz":"asia","code":null,"archived":false,"percentageOfSessions":null}, {"name":"Банюково","state":"Perm","territory":"","country":"Russia","latitude":58.8874375,"longitude":56.0806655,"population":6,"stateCapital":false,"nationalCapital":false,"pk":null,"quiz":"asia","code":null,"archived":false,"percentageOfSessions":null}, {"name":"Барабан","state":"Perm","territory":"","country":"Russia","latitude":56.3536035,"longitude":55.2714336,"population":153,"stateCapital":false,"nationalCapital":false,"pk":null,"quiz":"asia","code":null,"archived":false,"percentageOfSessions":null}, {"name":"Баранники","state":"Perm","territory":"","country":"Russia","latitude":58.1401799,"longitude":54.3304825,"population":30,"stateCapital":false,"nationalCapital":false,"pk":null,"quiz":"asia","code":null,"archived":false,"percentageOfSessions":null}, {"name":"Баранова","state":"Perm","territory":"","country":"Russia","latitude":59.254948,"longitude":54.73526,"population":95,"stateCapital":false,"nationalCapital":false,"pk":null,"quiz":"asia","code":null,"archived":false,"percentageOfSessions":null}, {"name":"Баранова","state":"Perm","territory":"","country":"Russia","latitude":59.254948,"longitude":54.73526,"population":31,"stateCapital":false,"nationalCapital":false,"pk":null,"quiz":"asia","code":null,"archived":false,"percentageOfSessions":null}, {"name":"Барановка","state":"Perm","territory":"","country":"Russia","latitude":57.0276819,"longitude":54.8921767,"population":142,"stateCapital":false,"nationalCapital":false,"pk":null,"quiz":"asia","code":null,"archived":false,"percentageOfSessions":null}, {"name":"Барановка","state":"Perm","territory":"","country":"Russia","latitude":57.2688202,"longitude":56.3098668,"population":9,"stateCapital":false,"nationalCapital":false,"pk":null,"quiz":"asia","code":null,"archived":false,"percentageOfSessions":null}, {"name":"Бараново","state":"Perm","territory":"","country":"Russia","latitude":56.528885,"longitude":56.273079,"population":33,"stateCapital":false,"nationalCapital":false,"pk":null,"quiz":"asia","code":null,"archived":false,"percentageOfSessions":null}, {"name":"Бараново","state":"Perm","territory":"","country":"Russia","latitude":60.180134,"longitude":54.826145,"population":5,"stateCapital":false,"nationalCapital":false,"pk":null,"quiz":"asia","code":null,"archived":false,"percentageOfSessions":null}, {"name":"Бараново","state":"Perm","territory":"","country":"Russia","latitude":59.9100735,"longitude":56.393166,"population":50,"stateCapital":false,"nationalCapital":false,"pk":null,"quiz":"asia","code":null,"archived":false,"percentageOfSessions":null}, {"name":"Баранчиново","state":"Perm","territory":"","country":"Russia","latitude":58.9461575,"longitude":54.9368936,"population":175,"stateCapital":false,"nationalCapital":false,"pk":null,"quiz":"asia","code":null,"archived":false,"percentageOfSessions":null}, {"name":"Баранята","state":"Perm","territory":"","country":"Russia","latitude":58.5026054,"longitude":56.085424,"population":4,"stateCapital":false,"nationalCapital":false,"pk":null,"quiz":"asia","code":null,"archived":false,"percentageOfSessions":null}, {"name":"Баранята","state":"Perm","territory":"","country":"Russia","latitude":58.2558947,"longitude":54.7568286,"population":19,"stateCapital":false,"nationalCapital":false,"pk":null,"quiz":"asia","code":null,"archived":false,"percentageOfSessions":null}, {"name":"Барбаутово","state":"Perm","territory":"","country":"Russia","latitude":57.5009585,"longitude":56.5459901,"population":2,"stateCapital":false,"nationalCapital":false,"pk":null,"quiz":"asia","code":null,"archived":false,"percentageOfSessions":null}, {"name":"Барда","state":"Perm","territory":"","country":"Russia","latitude":56.930187,"longitude":55.586967,"population":8826,"stateCapital":false,"nationalCapital":false,"pk":null,"quiz":"asia","code":null,"archived":false,"percentageOfSessions":null}, {"name":"Бардабашка 1","state":"Perm","territory":"","country":"Russia","latitude":56.835201,"longitude":55.34193,"population":261,"stateCapital":false,"nationalCapital":false,"pk":null,"quiz":"asia","code":null,"archived":false,"percentageOfSessions":null}, {"name":"Бардабашка 2","state":"Perm","territory":"","country":"Russia","latitude":56.785442,"longitude":55.31329,"population":45,"stateCapital":false,"nationalCapital":false,"pk":null,"quiz":"asia","code":null,"archived":false,"percentageOfSessions":null}, {"name":"Барсаи","state":"Perm","territory":"","country":"Russia","latitude":56.8805589,"longitude":56.8596111,"population":317,"stateCapital":false,"nationalCapital":false,"pk":null,"quiz":"asia","code":null,"archived":false,"percentageOfSessions":null}, {"name":"Бартово","state":"Perm","territory":"","country":"Russia","latitude":57.666054,"longitude":57.075363,"population":37,"stateCapital":false,"nationalCapital":false,"pk":null,"quiz":"asia","code":null,"archived":false,"percentageOfSessions":null}, {"name":"Бартым","state":"Perm","territory":"","country":"Russia","latitude":57.661335,"longitude":57.359184,"population":55,"stateCapital":false,"nationalCapital":false,"pk":null,"quiz":"asia","code":null,"archived":false,"percentageOfSessions":null}, {"name":"Бартым","state":"Perm","territory":"","country":"Russia","latitude":56.4543988,"longitude":56.9434373,"population":364,"stateCapital":false,"nationalCapital":false,"pk":null,"quiz":"asia","code":null,"archived":false,"percentageOfSessions":null}, {"name":"Бархатова","state":"Perm","territory":"","country":"Russia","latitude":57.2347996,"longitude":55.530559,"population":1,"stateCapital":false,"nationalCapital":false,"pk":null,"quiz":"asia","code":null,"archived":false,"percentageOfSessions":null}, {"name":"Басарги","state":"Perm","territory":"","country":"Russia","latitude":57.599155,"longitude":57.667126,"population":4,"stateCapital":false,"nationalCapital":false,"pk":null,"quiz":"asia","code":null,"archived":false,"percentageOfSessions":null}, {"name":"Басег","state":"Perm","territory":"","country":"Russia","latitude":58.618046,"longitude":57.674259,"population":14,"stateCapital":false,"nationalCapital":false,"pk":null,"quiz":"asia","code":null,"archived":false,"percentageOfSessions":null}, {"name":"Басим","state":"Perm","territory":"","country":"Russia","latitude":59.7597276,"longitude":55.6952507,"population":461,"stateCapital":false,"nationalCapital":false,"pk":null,"quiz":"asia","code":null,"archived":false,"percentageOfSessions":null}, {"name":"Басино","state":"Perm","territory":"","country":"Russia","latitude":56.7584446,"longitude":56.81559,"population":297,"stateCapital":false,"nationalCapital":false,"pk":null,"quiz":"asia","code":null,"archived":false,"percentageOfSessions":null}, {"name":"Баские","state":"Perm","territory":"","country":"Russia","latitude":57.830196,"longitude":56.220932,"population":3,"stateCapital":false,"nationalCapital":false,"pk":null,"quiz":"asia","code":null,"archived":false,"percentageOfSessions":null}, {"name":"Батаиха","state":"Perm","territory":"","country":"Russia","latitude":57.5371757,"longitude":55.4136367,"population":8,"stateCapital":false,"nationalCapital":false,"pk":null,"quiz":"asia","code":null,"archived":false,"percentageOfSessions":null}, {"name":"Баташата","state":"Perm","territory":"","country":"Russia","latitude":58.7483732,"longitude":57.0619436,"population":1,"stateCapital":false,"nationalCapital":false,"pk":null,"quiz":"asia","code":null,"archived":false,"percentageOfSessions":null}, {"name":"Баташи","state":"Perm","territory":"","country":"Russia","latitude":57.2123919,"longitude":56.5706541,"population":272,"stateCapital":false,"nationalCapital":false,"pk":null,"quiz":"asia","code":null,"archived":false,"percentageOfSessions":null}, {"name":"Батерики","state":"Perm","territory":"","country":"Russia","latitude":57.7653177,"longitude":57.2571262,"population":212,"stateCapital":false,"nationalCapital":false,"pk":null,"quiz":"asia","code":null,"archived":false,"percentageOfSessions":null}, {"name":"Батина","state":"Perm","territory":"","country":"Russia","latitude":59.095821,"longitude":54.836761,"population":102,"stateCapital":false,"nationalCapital":false,"pk":null,"quiz":"asia","code":null,"archived":false,"percentageOfSessions":null}, {"name":"Батино","state":"Perm","territory":"","country":"Russia","latitude":58.5427493,"longitude":55.2605348,"population":0,"stateCapital":false,"nationalCapital":false,"pk":null,"quiz":"asia","code":null,"archived":false,"percentageOfSessions":null}, {"name":"Батманы","state":"Perm","territory":"","country":"Russia","latitude":56.5795802,"longitude":54.8567994,"population":110,"stateCapital":false,"nationalCapital":false,"pk":null,"quiz":"asia","code":null,"archived":false,"percentageOfSessions":null}, {"name":"Батуи","state":"Perm","territory":"","country":"Russia","latitude":56.8336391,"longitude":54.7466183,"population":10,"stateCapital":false,"nationalCapital":false,"pk":null,"quiz":"asia","code":null,"archived":false,"percentageOfSessions":null}, {"name":"Батуры","state":"Perm","territory":"","country":"Russia","latitude":58.1858517,"longitude":55.9066089,"population":31,"stateCapital":false,"nationalCapital":false,"pk":null,"quiz":"asia","code":null,"archived":false,"percentageOfSessions":null}, {"name":"Батуры","state":"Perm","territory":"","country":"Russia","latitude":58.2698884,"longitude":55.6212452,"population":5,"stateCapital":false,"nationalCapital":false,"pk":null,"quiz":"asia","code":null,"archived":false,"percentageOfSessions":null}, {"name":"Батурята","state":"Perm","territory":"","country":"Russia","latitude":57.6760661,"longitude":57.6673444,"population":4,"stateCapital":false,"nationalCapital":false,"pk":null,"quiz":"asia","code":null,"archived":false,"percentageOfSessions":null}, {"name":"Батурята","state":"Perm","territory":"","country":"Russia","latitude":57.6760661,"longitude":57.6673444,"population":1,"stateCapital":false,"nationalCapital":false,"pk":null,"quiz":"asia","code":null,"archived":false,"percentageOfSessions":null}, {"name":"Батырбай","state":"Perm","territory":"","country":"Russia","latitude":56.8947713,"longitude":55.8073074,"population":105,"stateCapital":false,"nationalCapital":false,"pk":null,"quiz":"asia","code":null,"archived":false,"percentageOfSessions":null}, {"name":"Бахаревка","state":"Perm","territory":"","country":"Russia","latitude":57.945011,"longitude":56.243042,"population":75,"stateCapital":false,"nationalCapital":false,"pk":null,"quiz":"asia","code":null,"archived":false,"percentageOfSessions":null}, {"name":"Бахари","state":"Perm","territory":"","country":"Russia","latitude":60.4554531,"longitude":57.0693882,"population":1,"stateCapital":false,"nationalCapital":false,"pk":null,"quiz":"asia","code":null,"archived":false,"percentageOfSessions":null}, {"name":"Бахари","state":"Perm","territory":"","country":"Russia","latitude":60.4554531,"longitude":57.0693882,"population":46,"stateCapital":false,"nationalCapital":false,"pk":null,"quiz":"asia","code":null,"archived":false,"percentageOfSessions":null}, {"name":"Бахарята","state":"Perm","territory":"","country":"Russia","latitude":58.4780542,"longitude":54.8927043,"population":0,"stateCapital":false,"nationalCapital":false,"pk":null,"quiz":"asia","code":null,"archived":false,"percentageOfSessions":null}, {"name":"Бачгины","state":"Perm","territory":"","country":"Russia","latitude":58.5534651,"longitude":55.7233501,"population":2,"stateCapital":false,"nationalCapital":false,"pk":null,"quiz":"asia","code":null,"archived":false,"percentageOfSessions":null}, {"name":"Бачизево","state":"Perm","territory":"","country":"Russia","latitude":58.8680665,"longitude":54.819153,"population":10,"stateCapital":false,"nationalCapital":false,"pk":null,"quiz":"asia","code":null,"archived":false,"percentageOfSessions":null}, {"name":"Бачманово","state":"Perm","territory":"","country":"Russia","latitude":59.8532581,"longitude":54.6368906,"population":124,"stateCapital":false,"nationalCapital":false,"pk":null,"quiz":"asia","code":null,"archived":false,"percentageOfSessions":null}, {"name":"Башкултаево","state":"Perm","territory":"","country":"Russia","latitude":57.843307,"longitude":55.904484,"population":623,"stateCapital":false,"nationalCapital":false,"pk":null,"quiz":"asia","code":null,"archived":false,"percentageOfSessions":null}, {"name":"Башмаки","state":"Perm","territory":"","country":"Russia","latitude":59.059528,"longitude":57.514545,"population":34,"stateCapital":false,"nationalCapital":false,"pk":null,"quiz":"asia","code":null,"archived":false,"percentageOfSessions":null}, {"name":"Баяндина","state":"Perm","territory":"","country":"Russia","latitude":59.966656,"longitude":56.278965,"population":23,"stateCapital":false,"nationalCapital":false,"pk":null,"quiz":"asia","code":null,"archived":false,"percentageOfSessions":null}, {"name":"Бедряж","state":"Perm","territory":"","country":"Russia","latitude":56.5740738,"longitude":55.8843135,"population":452,"stateCapital":false,"nationalCapital":false,"pk":null,"quiz":"asia","code":null,"archived":false,"percentageOfSessions":null}, {"name":"Безгодово","state":"Perm","territory":"","country":"Russia","latitude":58.8837526,"longitude":58.0489196,"population":71,"stateCapital":false,"nationalCapital":false,"pk":null,"quiz":"asia","code":null,"archived":false,"percentageOfSessions":null}, {"name":"Беклемышева","state":"Perm","territory":"","country":"Russia","latitude":58.4203787,"longitude":56.0518587,"population":33,"stateCapital":false,"nationalCapital":false,"pk":null,"quiz":"asia","code":null,"archived":false,"percentageOfSessions":null}, {"name":"Беклемышево","state":"Perm","territory":"","country":"Russia","latitude":58.2876425,"longitude":54.7279357,"population":32,"stateCapital":false,"nationalCapital":false,"pk":null,"quiz":"asia","code":null,"archived":false,"percentageOfSessions":null}, {"name":"Белая Гора","state":"Perm","territory":"","country":"Russia","latitude":57.3904444,"longitude":56.2249299,"population":41,"stateCapital":false,"nationalCapital":false,"pk":null,"quiz":"asia","code":null,"archived":false,"percentageOfSessions":null}, {"name":"Белая Гора","state":"Perm","territory":"","country":"Russia","latitude":56.5229508,"longitude":54.3690422,"population":8,"stateCapital":false,"nationalCapital":false,"pk":null,"quiz":"asia","code":null,"archived":false,"percentageOfSessions":null}, {"name":"Белая Пашня","state":"Perm","territory":"","country":"Russia","latitude":59.2288652,"longitude":56.6588755,"population":151,"stateCapital":false,"nationalCapital":false,"pk":null,"quiz":"asia","code":null,"archived":false,"percentageOfSessions":null}, {"name":"Беленьково","state":"Perm","territory":"","country":"Russia","latitude":59.6721301,"longitude":54.4118192,"population":13,"stateCapital":false,"nationalCapital":false,"pk":null,"quiz":"asia","code":null,"archived":false,"percentageOfSessions":null}, {"name":"Белканы","state":"Perm","territory":"","country":"Russia","latitude":58.4546874,"longitude":55.876702,"population":38,"stateCapital":false,"nationalCapital":false,"pk":null,"quiz":"asia","code":null,"archived":false,"percentageOfSessions":null}, {"name":"Белкина","state":"Perm","territory":"","country":"Russia","latitude":59.6176388,"longitude":56.6331209,"population":4,"stateCapital":false,"nationalCapital":false,"pk":null,"quiz":"asia","code":null,"archived":false,"percentageOfSessions":null}, {"name":"Белобородово","state":"Perm","territory":"","country":"Russia","latitude":57.966046,"longitude":55.3160686,"population":445,"stateCapital":false,"nationalCapital":false,"pk":null,"quiz":"asia","code":null,"archived":false,"percentageOfSessions":null}, {"name":"Белобородово","state":"Perm","territory":"","country":"Russia","latitude":57.8387751,"longitude":54.7197332,"population":21,"stateCapital":false,"nationalCapital":false,"pk":null,"quiz":"asia","code":null,"archived":false,"percentageOfSessions":null}, {"name":"Белоглазово","state":"Perm","territory":"","country":"Russia","latitude":58.5014907,"longitude":54.2614086,"population":6,"stateCapital":false,"nationalCapital":false,"pk":null,"quiz":"asia","code":null,"archived":false,"percentageOfSessions":null}, {"name":"Белое Озеро","state":"Perm","territory":"","country":"Russia","latitude":57.1084067,"longitude":56.9337358,"population":10,"stateCapital":false,"nationalCapital":false,"pk":null,"quiz":"asia","code":null,"archived":false,"percentageOfSessions":null}, {"name":"Белоево","state":"Perm","territory":"","country":"Russia","latitude":59.140213,"longitude":54.493401,"population":1470,"stateCapital":false,"nationalCapital":false,"pk":null,"quiz":"asia","code":null,"archived":false,"percentageOfSessions":null}, {"name":"Белюково","state":"Perm","territory":"","country":"Russia","latitude":58.9403984,"longitude":54.8867724,"population":5,"stateCapital":false,"nationalCapital":false,"pk":null,"quiz":"asia","code":null,"archived":false,"percentageOfSessions":null}, {"name":"Беляева","state":"Perm","territory":"","country":"Russia","latitude":59.4161395,"longitude":54.2193466,"population":9,"stateCapital":false,"nationalCapital":false,"pk":null,"quiz":"asia","code":null,"archived":false,"percentageOfSessions":null}, {"name":"Беляевка","state":"Perm","territory":"","country":"Russia","latitude":58.0705491,"longitude":54.5873499,"population":131,"stateCapital":false,"nationalCapital":false,"pk":null,"quiz":"asia","code":null,"archived":false,"percentageOfSessions":null}, {"name":"Беляевка","state":"Perm","territory":"","country":"Russia","latitude":57.4686229,"longitude":55.4738509,"population":688,"stateCapital":false,"nationalCapital":false,"pk":null,"quiz":"asia","code":null,"archived":false,"percentageOfSessions":null}, {"name":"Бердниковщина","state":"Perm","territory":"","country":"Russia","latitude":58.733047,"longitude":56.888885,"population":3,"stateCapital":false,"nationalCapital":false,"pk":null,"quiz":"asia","code":null,"archived":false,"percentageOfSessions":null}, {"name":"Бердыкаево","state":"Perm","territory":"","country":"Russia","latitude":57.0378813,"longitude":57.7803826,"population":110,"stateCapital":false,"nationalCapital":false,"pk":null,"quiz":"asia","code":null,"archived":false,"percentageOfSessions":null}, {"name":"Бердышево","state":"Perm","territory":"","country":"Russia","latitude":57.332996,"longitude":54.456871,"population":319,"stateCapital":false,"nationalCapital":false,"pk":null,"quiz":"asia","code":null,"archived":false,"percentageOfSessions":null}, {"name":"Берег Камы","state":"Perm","territory":"","country":"Russia","latitude":58.013573,"longitude":56.040974,"population":80,"stateCapital":false,"nationalCapital":false,"pk":null,"quiz":"asia","code":null,"archived":false,"percentageOfSessions":null}, {"name":"Берег Камы","state":"Perm","territory":"","country":"Russia","latitude":58.013573,"longitude":56.040974,"population":23,"stateCapital":false,"nationalCapital":false,"pk":null,"quiz":"asia","code":null,"archived":false,"percentageOfSessions":null}, {"name":"Березник","state":"Perm","territory":"","country":"Russia","latitude":57.7312203,"longitude":57.3181778,"population":6,"stateCapital":false,"nationalCapital":false,"pk":null,"quiz":"asia","code":null,"archived":false,"percentageOfSessions":null}, {"name":"Березник","state":"Perm","territory":"","country":"Russia","latitude":57.8059276,"longitude":55.0381595,"population":3,"stateCapital":false,"nationalCapital":false,"pk":null,"quiz":"asia","code":null,"archived":false,"percentageOfSessions":null}, {"name":"Березник","state":"Perm","territory":"","country":"Russia","latitude":57.847534,"longitude":56.149647,"population":9,"stateCapital":false,"nationalCapital":false,"pk":null,"quiz":"asia","code":null,"archived":false,"percentageOfSessions":null}, {"name":"Березник","state":"Perm","territory":"","country":"Russia","latitude":58.151842,"longitude":57.207454,"population":1,"stateCapital":false,"nationalCapital":false,"pk":null,"quiz":"asia","code":null,"archived":false,"percentageOfSessions":null}, {"name":"Березники","state":"Perm","territory":"","country":"Russia","latitude":59.4084171,"longitude":56.8036958,"population":156466,"stateCapital":false,"nationalCapital":false,"pk":null,"quiz":"asia","code":null,"archived":false,"percentageOfSessions":null}, {"name":"Березники","state":"Perm","territory":"","country":"Russia","latitude":57.9296764,"longitude":54.7215254,"population":49,"stateCapital":false,"nationalCapital":false,"pk":null,"quiz":"asia","code":null,"archived":false,"percentageOfSessions":null}, {"name":"Березники","state":"Perm","territory":"","country":"Russia","latitude":57.807045,"longitude":56.418667,"population":23,"stateCapital":false,"nationalCapital":false,"pk":null,"quiz":"asia","code":null,"archived":false,"percentageOfSessions":null}, {"name":"Березники","state":"Perm","territory":"","country":"Russia","latitude":58.4674289,"longitude":53.9845536,"population":2,"stateCapital":false,"nationalCapital":false,"pk":null,"quiz":"asia","code":null,"archived":false,"percentageOfSessions":null}, {"name":"Березники","state":"Perm","territory":"","country":"Russia","latitude":57.1544405,"longitude":54.6177646,"population":2,"stateCapital":false,"nationalCapital":false,"pk":null,"quiz":"asia","code":null,"archived":false,"percentageOfSessions":null}, {"name":"Березники","state":"Perm","territory":"","country":"Russia","latitude":58.4674289,"longitude":53.9845536,"population":258,"stateCapital":false,"nationalCapital":false,"pk":null,"quiz":"asia","code":null,"archived":false,"percentageOfSessions":null}, {"name":"Березники","state":"Perm","territory":"","country":"Russia","latitude":56.9848484,"longitude":55.5567541,"population":464,"stateCapital":false,"nationalCapital":false,"pk":null,"quiz":"asia","code":null,"archived":false,"percentageOfSessions":null}, {"name":"Березова","state":"Perm","territory":"","country":"Russia","latitude":59.3798444,"longitude":53.831135,"population":16,"stateCapital":false,"nationalCapital":false,"pk":null,"quiz":"asia","code":null,"archived":false,"percentageOfSessions":null}, {"name":"Березовая Гора","state":"Perm","territory":"","country":"Russia","latitude":57.744953,"longitude":57.695313,"population":53,"stateCapital":false,"nationalCapital":false,"pk":null,"quiz":"asia","code":null,"archived":false,"percentageOfSessions":null}, {"name":"Березовая Гора","state":"Perm","territory":"","country":"Russia","latitude":57.0354663,"longitude":56.9876614,"population":216,"stateCapital":false,"nationalCapital":false,"pk":null,"quiz":"asia","code":null,"archived":false,"percentageOfSessions":null}, {"name":"Березовая Старица","state":"Perm","territory":"","country":"Russia","latitude":60.233047,"longitude":56.596554,"population":168,"stateCapital":false,"nationalCapital":false,"pk":null,"quiz":"asia","code":null,"archived":false,"percentageOfSessions":null}, {"name":"Березовка","state":"Perm","territory":"","country":"Russia","latitude":57.0570054,"longitude":54.9810973,"population":118,"stateCapital":false,"nationalCapital":false,"pk":null,"quiz":"asia","code":null,"archived":false,"percentageOfSessions":null}, {"name":"Березовка","state":"Perm","territory":"","country":"Russia","latitude":58.5952983,"longitude":55.8484294,"population":1,"stateCapital":false,"nationalCapital":false,"pk":null,"quiz":"asia","code":null,"archived":false,"percentageOfSessions":null}, {"name":"Березовка","state":"Perm","territory":"","country":"Russia","latitude":57.1915791,"longitude":56.0559508,"population":49,"stateCapital":false,"nationalCapital":false,"pk":null,"quiz":"asia","code":null,"archived":false,"percentageOfSessions":null}, {"name":"Березовка","state":"Perm","territory":"","country":"Russia","latitude":57.1915791,"longitude":56.0559508,"population":17,"stateCapital":false,"nationalCapital":false,"pk":null,"quiz":"asia","code":null,"archived":false,"percentageOfSessions":null}, {"name":"Березовка","state":"Perm","territory":"","country":"Russia","latitude":57.6963526,"longitude":55.2312763,"population":183,"stateCapital":false,"nationalCapital":false,"pk":null,"quiz":"asia","code":null,"archived":false,"percentageOfSessions":null}, {"name":"Березовка","state":"Perm","territory":"","country":"Russia","latitude":57.099473,"longitude":57.8518581,"population":77,"stateCapital":false,"nationalCapital":false,"pk":null,"quiz":"asia","code":null,"archived":false,"percentageOfSessions":null}, {"name":"Березовка","state":"Perm","territory":"","country":"Russia","latitude":56.6362625,"longitude":56.2832056,"population":26,"stateCapital":false,"nationalCapital":false,"pk":null,"quiz":"asia","code":null,"archived":false,"percentageOfSessions":null}, {"name":"Березовка","state":"Perm","territory":"","country":"Russia","latitude":58.087619,"longitude":57.083001,"population":29,"stateCapital":false,"nationalCapital":false,"pk":null,"quiz":"asia","code":null,"archived":false,"percentageOfSessions":null}, {"name":"Березовка","state":"Perm","territory":"","country":"Russia","latitude":58.937855,"longitude":54.117359,"population":523,"stateCapital":false,"nationalCapital":false,"pk":null,"quiz":"asia","code":null,"archived":false,"percentageOfSessions":null}, {"name":"Березовка","state":"Perm","territory":"","country":"Russia","latitude":57.6020085,"longitude":57.3133181,"population":6904,"stateCapital":false,"nationalCapital":false,"pk":null,"quiz":"asia","code":null,"archived":false,"percentageOfSessions":null}, {"name":"Березовка","state":"Perm","territory":"","country":"Russia","latitude":59.6534329,"longitude":56.0705678,"population":559,"stateCapital":false,"nationalCapital":false,"pk":null,"quiz":"asia","code":null,"archived":false,"percentageOfSessions":null}, {"name":"Березово","state":"Perm","territory":"","country":"Russia","latitude":57.455037,"longitude":56.831459,"population":39,"stateCapital":false,"nationalCapital":false,"pk":null,"quiz":"asia","code":null,"archived":false,"percentageOfSessions":null}, {"name":"Березово","state":"Perm","territory":"","country":"Russia","latitude":57.8639175,"longitude":54.6467758,"population":47,"stateCapital":false,"nationalCapital":false,"pk":null,"quiz":"asia","code":null,"archived":false,"percentageOfSessions":null}, {"name":"Березово","state":"Perm","territory":"","country":"Russia","latitude":60.994082,"longitude":57.2335065,"population":4,"stateCapital":false,"nationalCapital":false,"pk":null,"quiz":"asia","code":null,"archived":false,"percentageOfSessions":null}, {"name":"Беркутово","state":"Perm","territory":"","country":"Russia","latitude":57.4270726,"longitude":57.0179913,"population":1127,"stateCapital":false,"nationalCapital":false,"pk":null,"quiz":"asia","code":null,"archived":false,"percentageOfSessions":null}, {"name":"Бершеть","state":"Perm","territory":"","country":"Russia","latitude":57.7310076,"longitude":56.3695013,"population":3308,"stateCapital":false,"nationalCapital":false,"pk":null,"quiz":"asia","code":null,"archived":false,"percentageOfSessions":null}, {"name":"Бесмелята","state":"Perm","territory":"","country":"Russia","latitude":58.495087,"longitude":56.137253,"population":3,"stateCapital":false,"nationalCapital":false,"pk":null,"quiz":"asia","code":null,"archived":false,"percentageOfSessions":null}, {"name":"Бесово","state":"Perm","territory":"","country":"Russia","latitude":58.3299428,"longitude":56.4211051,"population":4,"stateCapital":false,"nationalCapital":false,"pk":null,"quiz":"asia","code":null,"archived":false,"percentageOfSessions":null}, {"name":"Бессоновский","state":"Perm","territory":"","country":"Russia","latitude":57.5838376,"longitude":56.3530491,"population":23,"stateCapital":false,"nationalCapital":false,"pk":null,"quiz":"asia","code":null,"archived":false,"percentageOfSessions":null}, {"name":"Бигичи","state":"Perm","territory":"","country":"Russia","latitude":60.611229,"longitude":56.505276,"population":81,"stateCapital":false,"nationalCapital":false,"pk":null,"quiz":"asia","code":null,"archived":false,"percentageOfSessions":null}, {"name":"Бизяр","state":"Perm","territory":"","country":"Russia","latitude":56.3815992,"longitude":56.3398569,"population":34,"stateCapital":false,"nationalCapital":false,"pk":null,"quiz":"asia","code":null,"archived":false,"percentageOfSessions":null}, {"name":"Бизяр","state":"Perm","territory":"","country":"Russia","latitude":57.522263,"longitude":56.146381,"population":70,"stateCapital":false,"nationalCapital":false,"pk":null,"quiz":"asia","code":null,"archived":false,"percentageOfSessions":null}, {"name":"Бикбай","state":"Perm","territory":"","country":"Russia","latitude":56.7648227,"longitude":56.7229777,"population":268,"stateCapital":false,"nationalCapital":false,"pk":null,"quiz":"asia","code":null,"archived":false,"percentageOfSessions":null}, {"name":"Бикбарда","state":"Perm","territory":"","country":"Russia","latitude":56.4795361,"longitude":55.7289765,"population":510,"stateCapital":false,"nationalCapital":false,"pk":null,"quiz":"asia","code":null,"archived":false,"percentageOfSessions":null}, {"name":"Биктулка","state":"Perm","territory":"","country":"Russia","latitude":56.7534232,"longitude":56.7058346,"population":268,"stateCapital":false,"nationalCapital":false,"pk":null,"quiz":"asia","code":null,"archived":false,"percentageOfSessions":null}, {"name":"Бикулка","state":"Perm","territory":"","country":"Russia","latitude":56.5647162,"longitude":56.2251607,"population":34,"stateCapital":false,"nationalCapital":false,"pk":null,"quiz":"asia","code":null,"archived":false,"percentageOfSessions":null}, {"name":"Бисер","state":"Perm","territory":"","country":"Russia","latitude":58.5111907,"longitude":58.8723444,"population":800,"stateCapital":false,"nationalCapital":false,"pk":null,"quiz":"asia","code":null,"archived":false,"percentageOfSessions":null}, {"name":"Бичурино","state":"Perm","territory":"","country":"Russia","latitude":56.846466,"longitude":55.428448,"population":1373,"stateCapital":false,"nationalCapital":false,"pk":null,"quiz":"asia","code":null,"archived":false,"percentageOfSessions":null}, {"name":"Бияваш","state":"Perm","territory":"","country":"Russia","latitude":56.1481618,"longitude":56.9604752,"population":341,"stateCapital":false,"nationalCapital":false,"pk":null,"quiz":"asia","code":null,"archived":false,"percentageOfSessions":null}, {"name":"Блиново","state":"Perm","territory":"","country":"Russia","latitude":57.4810274,"longitude":56.7699867,"population":18,"stateCapital":false,"nationalCapital":false,"pk":null,"quiz":"asia","code":null,"archived":false,"percentageOfSessions":null}, {"name":"Блины","state":"Perm","territory":"","country":"Russia","latitude":57.3880876,"longitude":56.473939,"population":177,"stateCapital":false,"nationalCapital":false,"pk":null,"quiz":"asia","code":null,"archived":false,"percentageOfSessions":null}, {"name":"Бобки","state":"Perm","territory":"","country":"Russia","latitude":58.2080503,"longitude":56.5042469,"population":174,"stateCapital":false,"nationalCapital":false,"pk":null,"quiz":"asia","code":null,"archived":false,"percentageOfSessions":null}, {"name":"Бобки","state":"Perm","territory":"","country":"Russia","latitude":58.2080503,"longitude":56.5042469,"population":80,"stateCapital":false,"nationalCapital":false,"pk":null,"quiz":"asia","code":null,"archived":false,"percentageOfSessions":null}, {"name":"Бобровка","state":"Perm","territory":"","country":"Russia","latitude":58.314104,"longitude":57.297521,"population":154,"stateCapital":false,"nationalCapital":false,"pk":null,"quiz":"asia","code":null,"archived":false,"percentageOfSessions":null}, {"name":"Богатовка","state":"Perm","territory":"","country":"Russia","latitude":56.6799803,"longitude":56.2400208,"population":2,"stateCapital":false,"nationalCapital":false,"pk":null,"quiz":"asia","code":null,"archived":false,"percentageOfSessions":null}, {"name":"Богданово","state":"Perm","territory":"","country":"Russia","latitude":58.1760124,"longitude":54.9481972,"population":17,"stateCapital":false,"nationalCapital":false,"pk":null,"quiz":"asia","code":null,"archived":false,"percentageOfSessions":null}, {"name":"Боголюбово","state":"Perm","territory":"","country":"Russia","latitude":59.48719,"longitude":54.413116,"population":1,"stateCapital":false,"nationalCapital":false,"pk":null,"quiz":"asia","code":null,"archived":false,"percentageOfSessions":null}, {"name":"Боголюбы","state":"Perm","territory":"","country":"Russia","latitude":57.3287713,"longitude":55.4343554,"population":29,"stateCapital":false,"nationalCapital":false,"pk":null,"quiz":"asia","code":null,"archived":false,"percentageOfSessions":null}, {"name":"Богомягково","state":"Perm","territory":"","country":"Russia","latitude":57.3374749,"longitude":55.4774986,"population":138,"stateCapital":false,"nationalCapital":false,"pk":null,"quiz":"asia","code":null,"archived":false,"percentageOfSessions":null}, {"name":"Богородск","state":"Perm","territory":"","country":"Russia","latitude":57.528122,"longitude":56.309784,"population":7,"stateCapital":false,"nationalCapital":false,"pk":null,"quiz":"asia","code":null,"archived":false,"percentageOfSessions":null}, {"name":"Богородск","state":"Perm","territory":"","country":"Russia","latitude":56.6930272,"longitude":56.9398492,"population":860,"stateCapital":false,"nationalCapital":false,"pk":null,"quiz":"asia","code":null,"archived":false,"percentageOfSessions":null}, {"name":"Богородское","state":"Perm","territory":"","country":"Russia","latitude":58.5114874,"longitude":55.6932526,"population":26,"stateCapital":false,"nationalCapital":false,"pk":null,"quiz":"asia","code":null,"archived":false,"percentageOfSessions":null}, {"name":"Богоявленск","state":"Perm","territory":"","country":"Russia","latitude":58.3843501,"longitude":55.2615285,"population":15,"stateCapital":false,"nationalCapital":false,"pk":null,"quiz":"asia","code":null,"archived":false,"percentageOfSessions":null}, {"name":"Боковая","state":"Perm","territory":"","country":"Russia","latitude":58.6220294,"longitude":56.9510979,"population":206,"stateCapital":false,"nationalCapital":false,"pk":null,"quiz":"asia","code":null,"archived":false,"percentageOfSessions":null}, {"name":"Болгары","state":"Perm","territory":"","country":"Russia","latitude":57.7222898,"longitude":55.1317743,"population":4,"stateCapital":false,"nationalCapital":false,"pk":null,"quiz":"asia","code":null,"archived":false,"percentageOfSessions":null}, {"name":"Болгары","state":"Perm","territory":"","country":"Russia","latitude":57.854794,"longitude":55.842697,"population":159,"stateCapital":false,"nationalCapital":false,"pk":null,"quiz":"asia","code":null,"archived":false,"percentageOfSessions":null}, {"name":"Болдино","state":"Perm","territory":"","country":"Russia","latitude":57.874073,"longitude":55.992516,"population":73,"stateCapital":false,"nationalCapital":false,"pk":null,"quiz":"asia","code":null,"archived":false,"percentageOfSessions":null}, {"name":"Болка","state":"Perm","territory":"","country":"Russia","latitude":58.653275,"longitude":54.497879,"population":22,"stateCapital":false,"nationalCapital":false,"pk":null,"quiz":"asia","code":null,"archived":false,"percentageOfSessions":null}, {"name":"Болото","state":"Perm","territory":"","country":"Russia","latitude":60.020401,"longitude":57.561638,"population":1,"stateCapital":false,"nationalCapital":false,"pk":null,"quiz":"asia","code":null,"archived":false,"percentageOfSessions":null}, {"name":"Болотовка","state":"Perm","territory":"","country":"Russia","latitude":57.3331781,"longitude":56.7844842,"population":2,"stateCapital":false,"nationalCapital":false,"pk":null,"quiz":"asia","code":null,"archived":false,"percentageOfSessions":null}, {"name":"Болотово","state":"Perm","territory":"","country":"Russia","latitude":57.4168666,"longitude":56.9409029,"population":294,"stateCapital":false,"nationalCapital":false,"pk":null,"quiz":"asia","code":null,"archived":false,"percentageOfSessions":null}, {"name":"Большакино","state":"Perm","territory":"","country":"Russia","latitude":57.90134,"longitude":55.776474,"population":122,"stateCapital":false,"nationalCapital":false,"pk":null,"quiz":"asia","code":null,"archived":false,"percentageOfSessions":null}, {"name":"Большая","state":"Perm","territory":"","country":"Russia","latitude":58.1259157,"longitude":55.8397834,"population":61,"stateCapital":false,"nationalCapital":false,"pk":null,"quiz":"asia","code":null,"archived":false,"percentageOfSessions":null}, {"name":"Большая Аниковская","state":"Perm","territory":"","country":"Russia","latitude":60.233654,"longitude":56.502178,"population":59,"stateCapital":false,"nationalCapital":false,"pk":null,"quiz":"asia","code":null,"archived":false,"percentageOfSessions":null}, {"name":"Большая Вильва","state":"Perm","territory":"","country":"Russia","latitude":59.160519,"longitude":57.390495,"population":2,"stateCapital":false,"nationalCapital":false,"pk":null,"quiz":"asia","code":null,"archived":false,"percentageOfSessions":null}, {"name":"Большая Головниха","state":"Perm","territory":"","country":"Russia","latitude":57.2188607,"longitude":54.9496928,"population":12,"stateCapital":false,"nationalCapital":false,"pk":null,"quiz":"asia","code":null,"archived":false,"percentageOfSessions":null}, {"name":"Большая Гремяча","state":"Perm","territory":"","country":"Russia","latitude":57.4147108,"longitude":55.48697,"population":7,"stateCapital":false,"nationalCapital":false,"pk":null,"quiz":"asia","code":null,"archived":false,"percentageOfSessions":null}, {"name":"Большая Дуброва","state":"Perm","territory":"","country":"Russia","latitude":58.5578485,"longitude":55.7831706,"population":7,"stateCapital":false,"nationalCapital":false,"pk":null,"quiz":"asia","code":null,"archived":false,"percentageOfSessions":null}, {"name":"Большая Казань","state":"Perm","territory":"","country":"Russia","latitude":58.258591,"longitude":55.130341,"population":48,"stateCapital":false,"nationalCapital":false,"pk":null,"quiz":"asia","code":null,"archived":false,"percentageOfSessions":null}, {"name":"Большая Коча","state":"Perm","territory":"","country":"Russia","latitude":59.6552471,"longitude":54.5777506,"population":538,"stateCapital":false,"nationalCapital":false,"pk":null,"quiz":"asia","code":null,"archived":false,"percentageOfSessions":null}, {"name":"Большая Липовая","state":"Perm","territory":"","country":"Russia","latitude":58.3554759,"longitude":56.2750057,"population":0,"stateCapital":false,"nationalCapital":false,"pk":null,"quiz":"asia","code":null,"archived":false,"percentageOfSessions":null}, {"name":"Большая Лысьва","state":"Perm","territory":"","country":"Russia","latitude":58.1590208,"longitude":57.7824642,"population":108,"stateCapital":false,"nationalCapital":false,"pk":null,"quiz":"asia","code":null,"archived":false,"percentageOfSessions":null}, {"name":"Большая Мось","state":"Perm","territory":"","country":"Russia","latitude":57.943157,"longitude":56.352852,"population":141,"stateCapital":false,"nationalCapital":false,"pk":null,"quiz":"asia","code":null,"archived":false,"percentageOfSessions":null}, {"name":"Большая Мочга","state":"Perm","territory":"","country":"Russia","latitude":58.9941361,"longitude":55.6079534,"population":99,"stateCapital":false,"nationalCapital":false,"pk":null,"quiz":"asia","code":null,"archived":false,"percentageOfSessions":null}, {"name":"Большая Ослянка","state":"Perm","territory":"","country":"Russia","latitude":59.211025,"longitude":58.409267,"population":0,"stateCapital":false,"nationalCapital":false,"pk":null,"quiz":"asia","code":null,"archived":false,"percentageOfSessions":null}, {"name":"Большая Половина","state":"Perm","territory":"","country":"Russia","latitude":59.3233575,"longitude":54.5309475,"population":116,"stateCapital":false,"nationalCapital":false,"pk":null,"quiz":"asia","code":null,"archived":false,"percentageOfSessions":null}, {"name":"Большая Серва","state":"Perm","territory":"","country":"Russia","latitude":59.041962,"longitude":54.71225,"population":289,"stateCapital":false,"nationalCapital":false,"pk":null,"quiz":"asia","code":null,"archived":false,"percentageOfSessions":null}, {"name":"Большая Сидорова","state":"Perm","territory":"","country":"Russia","latitude":59.112598,"longitude":54.110687,"population":109,"stateCapital":false,"nationalCapital":false,"pk":null,"quiz":"asia","code":null,"archived":false,"percentageOfSessions":null}, {"name":"Большая Соснова","state":"Perm","territory":"","country":"Russia","latitude":57.671268,"longitude":54.602867,"population":4432,"stateCapital":false,"nationalCapital":false,"pk":null,"quiz":"asia","code":null,"archived":false,"percentageOfSessions":null}, {"name":"Большая Сутяга","state":"Perm","territory":"","country":"Russia","latitude":59.6871229,"longitude":56.1179669,"population":0,"stateCapital":false,"nationalCapital":false,"pk":null,"quiz":"asia","code":null,"archived":false,"percentageOfSessions":null}, {"name":"Большая Уса","state":"Perm","territory":"","country":"Russia","latitude":56.7388885,"longitude":55.0941404,"population":1601,"stateCapital":false,"nationalCapital":false,"pk":null,"quiz":"asia","code":null,"archived":false,"percentageOfSessions":null}, {"name":"Большая Шадейка","state":"Perm","territory":"","country":"Russia","latitude":57.4344986,"longitude":56.7849104,"population":122,"stateCapital":false,"nationalCapital":false,"pk":null,"quiz":"asia","code":null,"archived":false,"percentageOfSessions":null}, {"name":"Большая Шадейка","state":"Perm","territory":"","country":"Russia","latitude":57.8235638,"longitude":57.3272319,"population":41,"stateCapital":false,"nationalCapital":false,"pk":null,"quiz":"asia","code":null,"archived":false,"percentageOfSessions":null}, {"name":"Большие Бабики","state":"Perm","territory":"","country":"Russia","latitude":57.9455712,"longitude":54.2357723,"population":0,"stateCapital":false,"nationalCapital":false,"pk":null,"quiz":"asia","code":null,"archived":false,"percentageOfSessions":null}, {"name":"Большие Долды","state":"Perm","territory":"","country":"Russia","latitude":60.277237,"longitude":56.120686,"population":150,"stateCapital":false,"nationalCapital":false,"pk":null,"quiz":"asia","code":null,"archived":false,"percentageOfSessions":null}, {"name":"Большие Ергаласы","state":"Perm","territory":"","country":"Russia","latitude":58.5023426,"longitude":55.8963415,"population":1,"stateCapital":false,"nationalCapital":false,"pk":null,"quiz":"asia","code":null,"archived":false,"percentageOfSessions":null}, {"name":"Большие Калинята","state":"Perm","territory":"","country":"Russia","latitude":58.1958054,"longitude":55.9346369,"population":4,"stateCapital":false,"nationalCapital":false,"pk":null,"quiz":"asia","code":null,"archived":false,"percentageOfSessions":null}, {"name":"Большие Кизели","state":"Perm","territory":"","country":"Russia","latitude":57.68425,"longitude":54.263786,"population":45,"stateCapital":false,"nationalCapital":false,"pk":null,"quiz":"asia","code":null,"archived":false,"percentageOfSessions":null}, {"name":"Большие Колесники","state":"Perm","territory":"","country":"Russia","latitude":57.3536821,"longitude":54.870138,"population":31,"stateCapital":false,"nationalCapital":false,"pk":null,"quiz":"asia","code":null,"archived":false,"percentageOfSessions":null}, {"name":"Большие Корякины","state":"Perm","territory":"","country":"Russia","latitude":58.3777035,"longitude":55.8292134,"population":16,"stateCapital":false,"nationalCapital":false,"pk":null,"quiz":"asia","code":null,"archived":false,"percentageOfSessions":null}, {"name":"Большие Кусты","state":"Perm","territory":"","country":"Russia","latitude":56.5899344,"longitude":55.0174173,"population":723,"stateCapital":false,"nationalCapital":false,"pk":null,"quiz":"asia","code":null,"archived":false,"percentageOfSessions":null}, {"name":"Большие Шаврята","state":"Perm","territory":"","country":"Russia","latitude":58.2754544,"longitude":55.2780611,"population":0,"stateCapital":false,"nationalCapital":false,"pk":null,"quiz":"asia","code":null,"archived":false,"percentageOfSessions":null}, {"name":"Большое Заозерье","state":"Perm","territory":"","country":"Russia","latitude":57.5917341,"longitude":56.8596563,"population":41,"stateCapital":false,"nationalCapital":false,"pk":null,"quiz":"asia","code":null,"archived":false,"percentageOfSessions":null}, {"name":"Большое Заполье","state":"Perm","territory":"","country":"Russia","latitude":58.554714,"longitude":56.26725,"population":4,"stateCapital":false,"nationalCapital":false,"pk":null,"quiz":"asia","code":null,"archived":false,"percentageOfSessions":null}, {"name":"Большое Качино","state":"Perm","territory":"","country":"Russia","latitude":56.6170453,"longitude":56.0135607,"population":13,"stateCapital":false,"nationalCapital":false,"pk":null,"quiz":"asia","code":null,"archived":false,"percentageOfSessions":null}, {"name":"Большое Кузнецово","state":"Perm","territory":"","country":"Russia","latitude":59.6701679,"longitude":55.9905078,"population":6,"stateCapital":false,"nationalCapital":false,"pk":null,"quiz":"asia","code":null,"archived":false,"percentageOfSessions":null}, {"name":"Большое Поле","state":"Perm","territory":"","country":"Russia","latitude":57.5865039,"longitude":56.9731035,"population":23,"stateCapital":false,"nationalCapital":false,"pk":null,"quiz":"asia","code":null,"archived":false,"percentageOfSessions":null}, {"name":"Большое Савино","state":"Perm","territory":"","country":"Russia","latitude":57.9259916,"longitude":56.0094886,"population":675,"stateCapital":false,"nationalCapital":false,"pk":null,"quiz":"asia","code":null,"archived":false,"percentageOfSessions":null}, {"name":"Большое Самылово","state":"Perm","territory":"","country":"Russia","latitude":58.2859717,"longitude":54.2529273,"population":429,"stateCapital":false,"nationalCapital":false,"pk":null,"quiz":"asia","code":null,"archived":false,"percentageOfSessions":null}, {"name":"Большое Спицыно","state":"Perm","territory":"","country":"Russia","latitude":58.481476,"longitude":57.046268,"population":1,"stateCapital":false,"nationalCapital":false,"pk":null,"quiz":"asia","code":null,"archived":false,"percentageOfSessions":null}, {"name":"Большое Тукачево","state":"Perm","territory":"","country":"Russia","latitude":59.1443322,"longitude":55.5259388,"population":28,"stateCapital":false,"nationalCapital":false,"pk":null,"quiz":"asia","code":null,"archived":false,"percentageOfSessions":null}, {"name":"Большое Шилово","state":"Perm","territory":"","country":"Russia","latitude":58.0311811,"longitude":55.6126375,"population":19,"stateCapital":false,"nationalCapital":false,"pk":null,"quiz":"asia","code":null,"archived":false,"percentageOfSessions":null}, {"name":"Большой Ась","state":"Perm","territory":"","country":"Russia","latitude":56.9148644,"longitude":56.3250507,"population":103,"stateCapital":false,"nationalCapital":false,"pk":null,"quiz":"asia","code":null,"archived":false,"percentageOfSessions":null}, {"name":"Большой Березник","state":"Perm","territory":"","country":"Russia","latitude":56.4927243,"longitude":56.0433228,"population":429,"stateCapital":false,"nationalCapital":false,"pk":null,"quiz":"asia","code":null,"archived":false,"percentageOfSessions":null}, {"name":"Большой Бизь","state":"Perm","territory":"","country":"Russia","latitude":57.6012578,"longitude":58.4876096,"population":20,"stateCapital":false,"nationalCapital":false,"pk":null,"quiz":"asia","code":null,"archived":false,"percentageOfSessions":null}, {"name":"Большой Букор","state":"Perm","territory":"","country":"Russia","latitude":56.6607479,"longitude":54.2548597,"population":996,"stateCapital":false,"nationalCapital":false,"pk":null,"quiz":"asia","code":null,"archived":false,"percentageOfSessions":null}, {"name":"Большой Буртым","state":"Perm","territory":"","country":"Russia","latitude":57.844814,"longitude":56.305786,"population":95,"stateCapital":false,"nationalCapital":false,"pk":null,"quiz":"asia","code":null,"archived":false,"percentageOfSessions":null}, {"name":"Большой Гондыр","state":"Perm","territory":"","country":"Russia","latitude":56.3761401,"longitude":55.3318039,"population":1389,"stateCapital":false,"nationalCapital":false,"pk":null,"quiz":"asia","code":null,"archived":false,"percentageOfSessions":null}, {"name":"Большой Дубовик","state":"Perm","territory":"","country":"Russia","latitude":56.6478998,"longitude":55.2261007,"population":23,"stateCapital":false,"nationalCapital":false,"pk":null,"quiz":"asia","code":null,"archived":false,"percentageOfSessions":null}, {"name":"Большой Каскасал","state":"Perm","territory":"","country":"Russia","latitude":56.5206228,"longitude":55.4532683,"population":143,"stateCapital":false,"nationalCapital":false,"pk":null,"quiz":"asia","code":null,"archived":false,"percentageOfSessions":null}, {"name":"Большой Кашкалак","state":"Perm","territory":"","country":"Russia","latitude":56.8108695,"longitude":55.0293341,"population":19,"stateCapital":false,"nationalCapital":false,"pk":null,"quiz":"asia","code":null,"archived":false,"percentageOfSessions":null}, {"name":"Большой Кикус","state":"Perm","territory":"","country":"Russia","latitude":60.9092575,"longitude":57.0113378,"population":8,"stateCapital":false,"nationalCapital":false,"pk":null,"quiz":"asia","code":null,"archived":false,"percentageOfSessions":null}, {"name":"Большой Кумыш","state":"Perm","territory":"","country":"Russia","latitude":57.9038506,"longitude":58.3590438,"population":0,"stateCapital":false,"nationalCapital":false,"pk":null,"quiz":"asia","code":null,"archived":false,"percentageOfSessions":null}, {"name":"Большой Пальник","state":"Perm","territory":"","country":"Russia","latitude":59.647556,"longitude":54.480446,"population":37,"stateCapital":false,"nationalCapital":false,"pk":null,"quiz":"asia","code":null,"archived":false,"percentageOfSessions":null}, {"name":"Большой Сарс","state":"Perm","territory":"","country":"Russia","latitude":56.4766069,"longitude":57.1191103,"population":389,"stateCapital":false,"nationalCapital":false,"pk":null,"quiz":"asia","code":null,"archived":false,"percentageOfSessions":null}, {"name":"Большой Тагьяшер","state":"Perm","territory":"","country":"Russia","latitude":59.9796587,"longitude":56.1742943,"population":8,"stateCapital":false,"nationalCapital":false,"pk":null,"quiz":"asia","code":null,"archived":false,"percentageOfSessions":null}, {"name":"Большой Талмаз","state":"Perm","territory":"","country":"Russia","latitude":56.5642636,"longitude":55.3599674,"population":231,"stateCapital":false,"nationalCapital":false,"pk":null,"quiz":"asia","code":null,"archived":false,"percentageOfSessions":null}, {"name":"Большой Улык","state":"Perm","territory":"","country":"Russia","latitude":56.5068362,"longitude":56.2347471,"population":85,"stateCapital":false,"nationalCapital":false,"pk":null,"quiz":"asia","code":null,"archived":false,"percentageOfSessions":null}, {"name":"Большой Юг","state":"Perm","territory":"","country":"Russia","latitude":56.3978678,"longitude":55.948898,"population":118,"stateCapital":false,"nationalCapital":false,"pk":null,"quiz":"asia","code":null,"archived":false,"percentageOfSessions":null}, {"name":"Большуха","state":"Perm","territory":"","country":"Russia","latitude":58.45066,"longitude":55.999941,"population":36,"stateCapital":false,"nationalCapital":false,"pk":null,"quiz":"asia","code":null,"archived":false,"percentageOfSessions":null}, {"name":"Бондюг","state":"Perm","territory":"","country":"Russia","latitude":60.488327,"longitude":55.933891,"population":577,"stateCapital":false,"nationalCapital":false,"pk":null,"quiz":"asia","code":null,"archived":false,"percentageOfSessions":null}, {"name":"Бор","state":"Perm","territory":"","country":"Russia","latitude":58.5843387,"longitude":55.9174836,"population":7,"stateCapital":false,"nationalCapital":false,"pk":null,"quiz":"asia","code":null,"archived":false,"percentageOfSessions":null}, {"name":"Бор","state":"Perm","territory":"","country":"Russia","latitude":58.4574557,"longitude":54.1835638,"population":0,"stateCapital":false,"nationalCapital":false,"pk":null,"quiz":"asia","code":null,"archived":false,"percentageOfSessions":null}, {"name":"Бор","state":"Perm","territory":"","country":"Russia","latitude":57.0599434,"longitude":57.5629272,"population":219,"stateCapital":false,"nationalCapital":false,"pk":null,"quiz":"asia","code":null,"archived":false,"percentageOfSessions":null}, {"name":"Борино","state":"Perm","territory":"","country":"Russia","latitude":59.7145061,"longitude":54.5147084,"population":155,"stateCapital":false,"nationalCapital":false,"pk":null,"quiz":"asia","code":null,"archived":false,"percentageOfSessions":null}, {"name":"Борисова","state":"Perm","territory":"","country":"Russia","latitude":58.936962,"longitude":54.544811,"population":51,"stateCapital":false,"nationalCapital":false,"pk":null,"quiz":"asia","code":null,"archived":false,"percentageOfSessions":null}, {"name":"Борисово","state":"Perm","territory":"","country":"Russia","latitude":58.5899345,"longitude":55.9898763,"population":1,"stateCapital":false,"nationalCapital":false,"pk":null,"quiz":"asia","code":null,"archived":false,"percentageOfSessions":null}, {"name":"Борисово","state":"Perm","territory":"","country":"Russia","latitude":58.2852479,"longitude":57.4737642,"population":111,"stateCapital":false,"nationalCapital":false,"pk":null,"quiz":"asia","code":null,"archived":false,"percentageOfSessions":null}, {"name":"Бор-Ленва","state":"Perm","territory":"","country":"Russia","latitude":58.600632,"longitude":56.104469,"population":252,"stateCapital":false,"nationalCapital":false,"pk":null,"quiz":"asia","code":null,"archived":false,"percentageOfSessions":null}, {"name":"Бормист","state":"Perm","territory":"","country":"Russia","latitude":56.748798,"longitude":54.818363,"population":119,"stateCapital":false,"nationalCapital":false,"pk":null,"quiz":"asia","code":null,"archived":false,"percentageOfSessions":null}, {"name":"Бормотова","state":"Perm","territory":"","country":"Russia","latitude":58.8534367,"longitude":54.4946806,"population":79,"stateCapital":false,"nationalCapital":false,"pk":null,"quiz":"asia","code":null,"archived":false,"percentageOfSessions":null}, {"name":"Боровая","state":"Perm","territory":"","country":"Russia","latitude":57.5247727,"longitude":56.6367708,"population":37,"stateCapital":false,"nationalCapital":false,"pk":null,"quiz":"asia","code":null,"archived":false,"percentageOfSessions":null}, {"name":"Боровково","state":"Perm","territory":"","country":"Russia","latitude":58.1831601,"longitude":56.5447979,"population":35,"stateCapital":false,"nationalCapital":false,"pk":null,"quiz":"asia","code":null,"archived":false,"percentageOfSessions":null}, {"name":"Боровчата","state":"Perm","territory":"","country":"Russia","latitude":57.3566022,"longitude":57.7626066,"population":15,"stateCapital":false,"nationalCapital":false,"pk":null,"quiz":"asia","code":null,"archived":false,"percentageOfSessions":null}, {"name":"Бородино","state":"Perm","territory":"","country":"Russia","latitude":57.570942,"longitude":57.437912,"population":7,"stateCapital":false,"nationalCapital":false,"pk":null,"quiz":"asia","code":null,"archived":false,"percentageOfSessions":null}, {"name":"Бородкино","state":"Perm","territory":"","country":"Russia","latitude":58.685589,"longitude":56.949856,"population":5,"stateCapital":false,"nationalCapital":false,"pk":null,"quiz":"asia","code":null,"archived":false,"percentageOfSessions":null}, {"name":"Бородули","state":"Perm","territory":"","country":"Russia","latitude":58.076397,"longitude":54.759701,"population":476,"stateCapital":false,"nationalCapital":false,"pk":null,"quiz":"asia","code":null,"archived":false,"percentageOfSessions":null}, {"name":"Бородулино","state":"Perm","territory":"","country":"Russia","latitude":57.9971826,"longitude":54.3771744,"population":1068,"stateCapital":false,"nationalCapital":false,"pk":null,"quiz":"asia","code":null,"archived":false,"percentageOfSessions":null}, {"name":"Боронники","state":"Perm","territory":"","country":"Russia","latitude":57.9199265,"longitude":54.8779486,"population":1,"stateCapital":false,"nationalCapital":false,"pk":null,"quiz":"asia","code":null,"archived":false,"percentageOfSessions":null}, {"name":"Борщово","state":"Perm","territory":"","country":"Russia","latitude":58.3502298,"longitude":55.0509916,"population":23,"stateCapital":false,"nationalCapital":false,"pk":null,"quiz":"asia","code":null,"archived":false,"percentageOfSessions":null}, {"name":"Борщовцы","state":"Perm","territory":"","country":"Russia","latitude":58.052471,"longitude":54.649418,"population":68,"stateCapital":false,"nationalCapital":false,"pk":null,"quiz":"asia","code":null,"archived":false,"percentageOfSessions":null}, {"name":"Ботово","state":"Perm","territory":"","country":"Russia","latitude":57.5763616,"longitude":56.6392211,"population":109,"stateCapital":false,"nationalCapital":false,"pk":null,"quiz":"asia","code":null,"archived":false,"percentageOfSessions":null}, {"name":"Бояново","state":"Perm","territory":"","country":"Russia","latitude":58.6922047,"longitude":56.9702775,"population":6,"stateCapital":false,"nationalCapital":false,"pk":null,"quiz":"asia","code":null,"archived":false,"percentageOfSessions":null}, {"name":"Боярская","state":"Perm","territory":"","country":"Russia","latitude":58.920353,"longitude":54.551868,"population":9,"stateCapital":false,"nationalCapital":false,"pk":null,"quiz":"asia","code":null,"archived":false,"percentageOfSessions":null}, {"name":"Брагино","state":"Perm","territory":"","country":"Russia","latitude":58.1476453,"longitude":55.8857033,"population":210,"stateCapital":false,"nationalCapital":false,"pk":null,"quiz":"asia","code":null,"archived":false,"percentageOfSessions":null}, {"name":"Брагино","state":"Perm","territory":"","country":"Russia","latitude":58.2096685,"longitude":57.156665,"population":4,"stateCapital":false,"nationalCapital":false,"pk":null,"quiz":"asia","code":null,"archived":false,"percentageOfSessions":null}, {"name":"Бражата","state":"Perm","territory":"","country":"Russia","latitude":57.236664,"longitude":57.6938759,"population":10,"stateCapital":false,"nationalCapital":false,"pk":null,"quiz":"asia","code":null,"archived":false,"percentageOfSessions":null},